     3.02           OBSERVATION DATA    M: MIXED            RINEX VERSION / TYPE
GR10 V3.11          CNES                20160104 235943 UTC PGM / RUN BY / DATE
SNR is mapped to RINEX snr flag value [1-9]                 COMMENT
LX:     < 12dBHz -> 1; 12-17dBHz -> 2; 18-23dBHz -> 3       COMMENT
       24-29dBHz -> 4; 30-35dBHz -> 5; 36-41dBHz -> 6       COMMENT
       42-47dBHz -> 7; 48-53dBHz -> 8; >= 54dBHz -> 9       COMMENT
KOUG                                                        MARKER NAME
97301M402                                                   MARKER NUMBER
REGINA              CNES                                    OBSERVER / AGENCY
1700239             LEICA GR10          3.11.1639/6.403     REC # / TYPE / VERS
10180007            LEIAR25.R3      LEIT                    ANT # / TYPE
  3855263.3407 -5049731.9986   563040.4252                  APPROX POSITION XYZ
        0.0000        0.0000        0.0000                  ANTENNA: DELTA H/E/N
G   16 C1C L1C D1C S1C C2S L2S D2S S2S C2W L2W D2W S2W C5Q  SYS / # / OBS TYPES
       L5Q D5Q S5Q                                          SYS / # / OBS TYPES
R    8 C1C L1C D1C S1C C2P L2P D2P S2P                      SYS / # / OBS TYPES
E   16 C1C L1C D1C S1C C5Q L5Q D5Q S5Q C7Q L7Q D7Q S7Q C8Q  SYS / # / OBS TYPES
       L8Q D8Q S8Q                                          SYS / # / OBS TYPES
C    8 C1I L1I D1I S1I C7I L7I D7I S7I                      SYS / # / OBS TYPES
S    4 C1C L1C D1C S1C                                      SYS / # / OBS TYPES
DBHZ                                                        SIGNAL STRENGTH UNIT
    30.000                                                  INTERVAL
  2016    01    05    00    00    0.0000000     GPS         TIME OF FIRST OBS
  2016    01    05    07    30   30.0000000     GPS         TIME OF LAST OBS
     0                                                      RCV CLOCK OFFS APPL
G L2S -0.25000                                              SYS / PHASE SHIFT
G L2X -0.25000                                              SYS / PHASE SHIFT
R L2P  0.25000                                              SYS / PHASE SHIFT
E L8Q -0.25000                                              SYS / PHASE SHIFT
 24 R01  1 R02 -4 R03  5 R04  6 R05  1 R06 -4 R07  5 R08  6 GLONASS SLOT / FRQ #
    R09 -2 R10 -7 R11  0 R12 -1 R13 -2 R14 -7 R15  0 R16 -1 GLONASS SLOT / FRQ #
    R17 -6 R18 -3 R19  3 R20  2 R21  4 R22 -3 R23  3 R24  2 GLONASS SLOT / FRQ #
 C1C  -71.940 C1P  -71.940 C2C  -71.940 C2P  -71.940        GLONASS COD/PHS/BIS
    17    17  1851     3                                    LEAP SECONDS
                                                            END OF HEADER
> 2016 01 05 00 00  0.0000000  0 30
G03  25038433.210   131577811.17807      1198.160          42.800    25038432.530   102528152.78006       933.626          38.600    25038432.027   102528145.77605       933.626          35.650    25038434.480    98256143.48207       894.765          47.250
G08  24977531.911   131257806.21007      3534.361          43.850    24977533.482   102278812.92106      2754.070          39.700    24977531.799   102278815.91505      2754.070          34.050    24977533.850    98017198.26707      2639.308          47.300
G10  23687560.161   124479051.06507     -2426.620          47.700    23687556.953    96996688.38707     -1890.902          44.150    23687556.779    96996688.38006     -1890.902          40.500    23687555.523    92955163.95108     -1812.005          50.000
G14  20673874.900   108642071.51108      -999.339          48.700                                                                    20673870.563    84656192.19907      -778.702          46.150
G16  21572119.878   113362336.63908      -274.341          49.600                                                                    21572117.688    88334186.77507      -213.767          43.750
G21  24114179.347   126720891.98007       -79.874          45.400                                                                    24114172.803    98743542.63105       -62.236          35.900
G22  22270096.078   117030174.70808     -1918.844          49.150                                                                    22270088.706    91192343.50907     -1495.208          42.900
G26  21754793.711   114322292.53908     -1419.432          49.450    21754793.767    89082339.67807     -1106.054          46.350    21754793.381    89082339.67507     -1106.054          44.150    21754794.826    85370595.10308     -1060.001          52.050
G27  22298689.123   117180476.45808      3141.809          48.650    22298687.552    91309493.02207      2448.166          46.000    22298686.933    91309489.02007      2448.166          42.750    22298688.532    87504938.52808      2346.111          51.600
G29  23998790.936   126114453.24908     -3003.140          49.150    23998790.971    98270978.10106     -2340.104          41.650    23998790.735    98270980.10506     -2340.104          40.850
G32  23015845.102   120949047.86807        31.714          47.400                                                                    23015844.477    94246027.20207        24.714          42.600
R01  23413103.505   125156421.50607      2699.465          44.500    23413107.389    97343884.51805      2099.573          32.750
R06  24516920.795   130826971.06106     -3817.522          41.250
R07  20935789.861   112070987.28408     -3176.437          48.800    20935789.560    87166267.06207     -2470.566          46.900
R08  20417252.683   109333430.47807       -32.162          47.700    20417253.810    85037145.68407       -25.018          46.950
R09  24407673.080   130335626.46205      -223.585          32.900
R10  23095736.162   123113363.35307      -101.702          44.500    23095745.286    95754899.24805       -79.106          33.300
R11  23631669.722   126280619.94206        16.529          38.150    23631673.603    98218313.52505        12.858          35.850
R20  21335554.773   114090830.51706      -958.632          41.650    21335558.196    88737298.81107      -745.589          42.600
R21  20405947.130   109196445.96508      2232.898          48.250    20405948.297    84930638.54807      1736.701          46.200
R22  23116932.176   123399799.38407      3931.893          46.650    23116936.620    95977650.86406      3058.145          41.800
E12  24567656.694   129103942.39348      1635.183          50.850    24567656.334    96408820.83508      1221.097          50.550    24567652.823    98923811.16308      1252.916          51.600    24567653.841    97666307.87907      1236.973          47.900
E19  28533866.591   149946481.78957     -2609.119          43.050    28533873.605   111973047.27216     -1948.584          38.500    28533866.762   114894063.34116     -1999.117          38.750    28533869.603   113433547.66415     -1973.800          33.650
C11  22856303.880   119018910.26707      2343.962          46.700    22856298.201    92033022.81608      1812.526          50.400
C12  22324405.347   116249061.45607      -323.584          45.700    22324401.632    89891146.13308      -250.271          50.850
C14  22795533.453   118702357.21807     -1460.756          46.600    22795528.648    91788196.78908     -1129.520          50.650
S20  37330859.804   196175053.84707         5.517          46.400
S33  37961540.409   199489274.75107         5.231          45.550
S35  41571054.405   218457367.30306         -.424          41.300
S38  38831187.156   204059256.99508          .217          48.150
> 2016 01 05 00 00 30.0000000  0 30
G03  25031625.131   131542035.05407      1186.931          42.350    25031624.829   102500275.17906       924.878          38.800    25031624.186   102500268.15705       924.876          35.300    25031626.666    98229427.38907       886.355          47.650
G08  24957354.232   131151771.61507      3534.579          43.850    24957355.330   102196189.07506      2754.225          40.100    24957353.971   102196192.05206      2754.221          36.400    24957355.871    97938017.12607      2639.461          47.900
G10  23701399.723   124551776.76807     -2421.852          46.700    23701396.190    97053357.12007     -1887.175          42.650    23701396.031    97053357.11906     -1887.175          39.200    23701395.398    93009471.37408     -1808.496          49.750
G14  20679632.302   108672327.63008     -1017.602          48.450                                                                    20679627.993    84679768.46607      -792.936          46.050
G16  21573720.014   113370747.23308      -286.461          48.900                                                                    21573718.037    88340740.16107      -223.226          43.800
G21  24114642.222   126723325.24507       -82.324          45.900                                                                    24114636.035    98745438.74905       -64.146          35.000
G22  22281053.330   117087755.53308     -1919.820          48.850                                                                    22281046.134    91237211.56707     -1495.960          43.550
G26  21762910.420   114364944.99208     -1424.011          49.950    21762910.354    89115575.15507     -1109.628          47.700    21762909.873    89115575.14707     -1109.628          46.050    21762911.545    85402445.66708     -1063.221          52.550
G27  22280775.763   117086341.83508      3133.857          48.650    22280774.131    91236141.41407      2441.965          46.300    22280773.368    91236137.41807      2441.965          44.150    22280775.113    87434643.27408      2340.263          51.850
G29  24015960.886   126204681.25407     -3012.134          47.050    24015961.015    98341285.50006     -2347.127          39.950    24015960.546    98341287.50606     -2347.127          39.550
G32  23015692.782   120948253.36407        20.871          47.750                                                                    23015691.646    94245410.15916        16.273          40.250
R01  23397998.119   125075674.84307      2683.443          44.500    23398003.043    97281081.23405      2087.111          32.550
R06  24538360.887   130941378.07006     -3809.885          41.300
R07  20953617.260   112166418.84007     -3185.762          47.350    20953616.623    87240491.24907     -2477.814          44.600
R08  20417495.830   109334735.30408       -54.708          48.650    20417497.514    85038160.91108       -42.527          48.800
R09  24408910.588   130342241.13506      -217.889          37.200
R10  23096282.050   123116272.62607       -92.102          44.800    23096291.069    95757162.09106       -71.634          36.200
R11  23631555.426   126280011.36206        23.830          39.400    23631559.892    98217840.20405        18.534          35.650
R20  21340997.663   114119934.92607      -981.424          42.750    21341001.150    88759935.43906      -763.307          40.600
R21  20393471.450   109129687.98408      2217.555          48.300    20393472.961    84878715.76107      1724.769          46.200
R22  23094825.885   123281793.31307      3935.232          47.150    23094829.901    95885868.36106      3060.733          40.350
E12  24558337.991   129054973.05748      1629.335          50.700    24558337.394    96372252.88508      1216.691          50.300    24558334.119    98886289.25508      1248.427          51.500    24558335.206    97629262.94607      1232.561          47.700
E19  28548750.269   150024695.64856     -2605.314          38.050
C11  22842820.774   118948699.12707      2336.724          46.800    22842815.153    91978731.00208      1806.872          50.550
C12  22326312.378   116258992.55907      -338.333          45.900    22326308.641    89898825.45408      -261.648          50.800
C14  22803968.599   118746280.54507     -1467.566          47.150    22803963.718    91822160.34808     -1134.781          51.050
S20  37330828.015   196174886.10807         5.445          46.000
S33  37961509.300   199489113.90407         5.323          45.600
S35  41571059.080   218457375.43906         -.473          41.000
S38  38831183.398   204059240.29507          .614          46.100
> 2016 01 05 00 01  0.0000000  0 30
G03  25024882.809   131506604.08807      1175.363          42.700    25024882.507   102472666.43906       915.863          37.950    25024881.632   102472659.43005       915.861          34.550    25024884.798    98202969.02607       877.719          47.750
G08  24937175.349   131045733.59607      3534.698          43.900    24937176.721   102113562.12106      2754.314          40.350    24937175.216   102113565.10706      2754.311          36.050    24937176.807    97858833.05307      2639.489          47.750
G10  23715211.986   124624356.48907     -2416.865          47.150    23715207.973    97109912.26007     -1883.293          42.650    23715207.597    97109912.24706     -1883.294          38.500    23715207.638    93063669.94808     -1804.813          49.800
G14  20685493.936   108703130.95008     -1035.858          48.850                                                                    20685489.611    84703771.11507      -807.161          45.600
G16  21575389.257   113379519.74508      -298.373          48.900                                                                    21575387.484    88347575.82607      -232.492          43.000
G21  24115120.013   126725837.21907       -85.035          44.950                                                                    24115113.953    98747396.15905       -66.263          33.700
G22  22292015.861   117145363.60808     -1920.650          48.950                                                                    22292008.651    91282100.89207     -1496.607          42.050
G26  21771053.753   114407737.19808     -1428.777          48.950    21771053.767    89148919.39607     -1113.345          46.050    21771053.292    89148919.39607     -1113.344          43.650    21771054.969    85434400.54608     -1066.958          51.700
G27  22262907.860   116992445.97208      3125.833          49.800    22262906.309    91162975.85208      2435.719          48.000    22262905.543    91162971.85107      2435.718          46.350    22262907.344    87364526.27508      2334.246          52.450
G29  24033182.569   126295180.16607     -3021.054          43.400    24033182.747    98411803.83304     -2354.068          27.950    24033181.837    98411805.86704     -2354.060          25.300
G32  23015601.635   120947775.08908        10.552          48.150                                                                    23015600.944    94245035.01716         8.213          40.350
R01  23382983.311   124995411.65007      2667.471          45.000    23382988.993    97218654.00805      2074.690          33.550
R06  24559758.529   131055558.40007     -3802.026          45.550
R07  20971496.642   112262128.96607     -3194.843          47.850    20971496.405    87314937.02417     -2484.877          45.750
R08  20417865.324   109336716.61007       -77.313          46.050    20417867.523    85039701.45807       -60.146          45.600
R09  24410115.821   130348680.83206      -211.893          39.750
R10  23096774.086   123118894.96907       -82.438          45.600    23096781.890    95759090.57715       -64.120          34.100
R11  23631401.508   126279188.40106        30.883          39.500    23631406.091    98217200.19305        24.024          35.850
R20  21346565.568   114149710.07107     -1003.612          45.000    21346568.995    88783093.92007      -780.584          46.200
R21  20381083.119   109063396.62107      2201.960          47.450    20381084.711    84827155.87907      1712.639          46.350
R22  23072701.206   123163689.34707      3938.567          47.700    23072704.863    95794009.78906      3063.333          41.800
E12  24549053.002   129006180.96048      1623.737          50.950    24549052.257    96335817.23708      1212.413          50.350    24549049.349    98848903.11908      1243.991          51.700    24549050.377    97592352.05408      1228.210          48.000
E19  28563611.109   150102787.67456     -2600.455          41.300    28563618.407   112089772.30215     -1942.323          34.700    28563612.363   115013834.38115     -1993.209          35.850    28563614.537   113551798.21514     -1967.855          29.900
C11  22829380.807   118878713.23107      2329.178          47.150    22829375.324    91924613.83908      1800.940          50.600
C12  22328304.751   116269367.58307      -353.187          45.850    22328301.052    89906848.08008      -273.158          51.250
C14  22812444.681   118790415.05207     -1474.563          46.000    22812439.945    91856286.70108     -1140.275          49.900
S20  37330796.027   196174716.86807         6.026          46.600
S33  37961479.002   199488950.44107         5.619          46.600
S35  41571062.278   218457383.40806          .150          40.200
S38  38831180.714   204059222.98008          .926          48.300
> 2016 01 05 00 01 30.0000000  0 30
G03  25018205.903   131471517.68107      1163.795          42.250    25018205.578   102445326.21206       906.846          38.400    25018205.054   102445319.20905       906.846          34.650    25018208.032    98176767.96307       869.103          47.250
G08  24916996.461   130939695.10007      3534.775          42.650    24916998.074   102030934.81306      2754.378          39.650    24916996.513   102030937.81105      2754.378          35.000    24916998.032    97779648.52807      2639.535          47.300
G10  23728996.037   124696788.31107     -2411.995          46.750    23728991.757    97166352.23706     -1879.500          40.850    23728991.318    97166352.23106     -1879.500          36.050    23728991.661    93117758.13007     -1800.991          47.100
G14  20691459.651   108734480.90008     -1054.110          48.850                                                                    20691455.286    84728199.70507      -821.383          45.250
G16  21577126.806   113388651.42508      -310.400          48.750                                                                    21577125.250    88354691.65307      -241.872          43.050
G21  24115613.245   126728429.74407       -87.751          44.150                                                                    24115606.984    98749416.37705       -68.378          35.900
G22  22302983.282   117202997.04308     -1921.459          50.150                                                                    22302975.915    91327010.17907     -1497.233          44.350
G26  21779223.221   114450666.82208     -1433.325          50.450    21779223.418    89182370.64308     -1116.879          49.000    21779223.060    89182370.63407     -1116.880          47.700    21779224.731    85466457.87008     -1070.237          52.700
G27  22245085.900   116898792.07408      3117.745          49.100    22245084.452    91089999.00907      2429.419          47.050    22245083.590    91089995.00507      2429.418          44.950    22245085.422    87294590.16008      2328.226          52.000
G29  24050455.413   126385948.53008     -3030.091          49.200    24050455.652    98482532.21107     -2361.119          43.550    24050455.189    98482534.21107     -2361.120          42.550
G31  22787754.946   119750457.48218       749.279          49.050    22787754.565    93312044.45317       583.855          44.950    22787753.597    93312040.44517       583.855          43.300
G32  23015571.565   120947617.40708         -.036          49.750                                                                    23015570.065    94244913.23607          .027          44.300
R01  23368059.515   124915634.07607      2651.050          44.550    23368065.700    97156604.47305      2061.917          33.850
R06  24581112.346   131169531.68417     -3794.446          45.950    24581117.641   102020760.42815     -2951.236          33.700
R07  20989427.678   112358114.84608     -3204.113          48.400    20989427.626    87389593.03107     -2492.061          46.000
R08  20418361.760   109339375.10808       -99.918          48.100    20418364.324    85041769.11507       -77.697          47.950
R09  24411289.635   130354947.83206      -206.036          39.050
R10  23097212.315   123121231.24207       -73.220          45.550    23097220.577    95760907.37405       -56.953          33.700
R11  23631207.286   126278149.89206        38.205          39.300    23631211.724    98216392.53905        29.717          34.700
R20  21352259.050   114180154.11906     -1025.933          41.950    21352262.142                                          42.400
R21  20368782.674   108997575.82007      2186.123          46.800    20368784.662    84775961.98607      1700.320          46.650
R22  23050558.496   123045490.80607      3941.374          46.950    23050562.106    95702077.76706      3065.518          41.150
E12  24539802.274   128957568.10748      1617.373          51.200    24539801.581    96299515.48008      1207.829          50.350    24539798.659    98811654.34208      1239.379          51.750    24539799.635    97555576.78208      1223.670          48.050
C11  22815984.131   118808954.34007      2321.564          45.250    22815978.850    91870672.35108      1795.130          49.650
C12  22330382.285   116280186.86007      -368.029          45.750    22330378.852    89915214.20308      -284.578          51.200
C14  22820961.489   118834760.78107     -1481.755          44.700    22820957.192    91890576.97708     -1145.761          50.000
S20  37330763.461   196174543.96107         5.742          46.800
S33  37961449.629   199488787.22807         5.169          46.150
S35  41571065.767   218457391.55106         -.882          40.050
S38  38831177.179   204059209.17307          .733          46.600
> 2016 01 05 00 02  0.0000000  0 30
G03  25011594.989   131436775.77406      1152.460          41.900    25011594.656   102418254.38406       898.016          39.200    25011594.175   102418247.39305       898.014          34.450    25011597.108    98150824.09407       860.518          47.100
G08  24896818.389   130833659.51207      3534.420          45.000    24896819.979   101948310.00507      2754.108          42.050    24896818.478   101948313.00405      2754.112          35.700    24896819.975    97700466.54608      2639.295          48.950
G10  23742751.489   124769070.91407     -2406.953          47.650    23742747.165    97222676.27307     -1875.551          43.700    23742746.919    97222676.27006     -1875.551          40.100    23742747.292    93171735.36608     -1797.328          49.750
G14  20697529.258   108766376.94508     -1072.288          49.100                                                                    20697524.845    84753053.82407      -835.547          45.700
G16  21578932.067   113398139.32908      -322.197          50.100                                                                    21578930.581    88362084.71307      -251.079          45.900
G21  24116122.028   126731104.19407       -90.495          44.150                                                                    24116115.749    98751500.39706       -70.516          37.350
G22  22313954.870   117260652.95608     -1922.175          48.400                                                                    22313947.423    91371937.02306     -1497.792          41.650
G26  21787418.409   114493732.18508     -1437.836          48.850    21787418.910    89215927.99407     -1120.378          46.600    21787418.571    89215927.98907     -1120.377          44.350    21787420.306    85498616.99208     -1073.688          51.750
G27  22227310.534   116805382.68708      3109.484          48.950    22227309.037    91017212.59607      2422.979          46.850    22227308.133    91017208.59207      2422.979          44.650    22227309.916    87224836.56908      2322.039          52.100
G29  24067778.593   126476983.08607     -3038.768          46.500    24067779.128    98553468.11006     -2367.877          40.900    24067778.832    98553470.10906     -2367.880          39.400
G31  22783467.763   119727926.12508       752.687          49.000    22783466.968    93294487.57307       586.510          44.750    22783466.001    93294483.56907       586.510          43.600
G32  23015600.929   120947773.56307       -10.492          42.600                                                                    23015599.179    94245034.90004        -8.199          28.500
R01  23353227.064   124836344.41607      2634.713          44.050    23353233.561    97094934.43405      2049.211          34.650
R06  24602424.126   131283253.85615     -3786.170          33.850    24602428.003   102109204.63314     -2944.802          26.400
R07  21007409.127   112454370.44107     -3212.985          47.300    21007408.601    87464458.57507     -2499.005          44.000
R08  20418984.605   109342708.60507      -122.409          47.800    20418986.883    85044361.80107       -95.231          47.400
R09  24412430.845   130361043.52605      -200.284          35.750
R10  23097597.407   123123282.46107       -63.572          42.650    23097606.451    95762504.69915       -49.445          32.000
R11  23630972.277   126276893.67906        45.499          39.300    23630976.706    98215415.53205        35.387          34.800
R20  21358078.096   114211269.57806     -1048.358          39.750    21358081.731    88830980.84217      -815.403          42.100
R21  20356570.980   108932229.77607      2170.291          47.150    20356573.121    84725137.35307      1688.007          46.600
R22  23028398.998   122927200.89407      3944.415          47.250    23028402.028    95610074.55106      3067.886          39.800
E12  24530586.027   128909136.43148      1611.214          50.950    24530585.335    96263349.12908      1203.225          50.250    24530582.324    98774544.50808      1234.585          51.750    24530583.287    97518938.69608      1218.920          48.000
C11  22802631.262   118739424.09607      2313.702          46.750    22802625.975    91816907.37608      1789.173          50.750
C12  22332545.358   116291450.59907      -382.939          46.050    22332541.947    89923924.03608      -296.072          51.050
C14  22829518.138   118879314.76007     -1488.577          46.050    22829514.244    91925028.58908     -1151.098          50.900
S20  37330730.199   196174369.48907         5.840          46.650
S33  37961421.238   199488626.24807         5.454          45.000
S35  41571068.673   218457398.91206         -.157          40.850
S38  38831174.203   204059194.40808          .249          48.800
> 2016 01 05 00 02 30.0000000  0 30
G03  25005049.128   131402378.08606      1140.757          41.750    25005049.385   102391450.79206       888.894          39.200    25005049.004   102391443.80105       888.898          31.950    25005051.781    98125137.23607       851.895          47.250
G08  24876641.134   130727628.28807      3534.106          43.150    24876642.843   101865688.59506      2753.841          40.200    24876641.499   101865691.58805      2753.839          33.350    24876642.571    97621287.71307      2639.133          46.450
G10  23756477.786   124841201.24807     -2401.831          45.000    23756473.526    97278881.44406     -1871.561          39.250    23756473.274    97278881.43605     -1871.562          33.200    23756473.660    93225598.62907     -1793.641          46.550
G14  20703702.921   108798819.04208     -1090.590          49.450                                                                    20703698.383    84778333.46407      -849.807          45.700
G16  21580805.242   113407981.90308      -334.038          50.150                                                                    21580803.562    88369754.07607      -260.292          45.550
G21  24116646.946   126733862.57607       -93.106          45.750                                                                    24116640.633    98753649.82205       -72.548          33.900
G22  22324930.242   117318329.17008     -1922.947          49.750                                                                    22324922.631    91416879.77407     -1498.385          42.050
G26  21795638.953   114536932.16008     -1442.250          49.100    21795639.735    89249591.15107     -1123.799          47.100    21795639.442    89249591.14507     -1123.798          44.950    21795640.969    85530877.77008     -1076.987          52.000
G27  22209582.089   116712220.84208      3101.212          49.350    22209580.916    90944619.06107      2416.534          47.800    22209580.082    90944615.05707      2416.535          45.650    22209581.455    87155267.77408      2315.767          52.100
G29  24085152.063   126568281.42006     -3047.556          41.550    24085152.783    98624609.56005     -2374.710          35.400    24085152.464    98624611.57104     -2374.709          28.600
G31  22779160.735   119705295.09308       755.885          49.050    22779160.142    93276853.03507       589.002          44.500    22779159.164    93276849.03707       589.003          43.050
G32  23015690.228   120948243.27307       -20.764          47.100                                                                    23015688.878    94245396.64915       -16.230          35.650
R01  23338486.204   124757544.85107      2618.471          43.100    23338492.873    97033645.63305      2036.580          34.400
R06  24623690.398   131396734.86317     -3778.884          43.250    24623696.586                                          32.450
R07  21025439.991   112550892.26107     -3221.820          47.250    21025439.199    87539531.46607     -2505.856          45.600
R08  20419732.861   109346715.55007      -144.758          47.250    20419735.199    85047476.35817      -112.603          47.350
R09  24413540.885   130366969.81306      -194.843          37.350
R10  23097929.024   123125048.12807       -54.107          46.450    23097937.302    95763877.84306       -42.081          36.200
R11  23630696.138   126275418.35006        52.686          39.500    23630700.561    98214268.12005        40.979          33.600
R20  21364022.441   114243055.33107     -1070.732          44.850    21364026.254    88855702.79707      -832.788          46.850
R21  20344448.799   108867362.80007      2154.211          47.600    20344451.173    84674685.33907      1675.500          46.800
R22  23006223.244   122808823.89807      3947.307          46.750    23006225.804    95518003.66506      3070.135          39.400
E12  24521404.432   128860887.80648      1605.317          50.950    24521403.705    96227319.51708      1198.719          50.350    24521400.965    98737574.97008      1230.016          51.900    24521401.702    97482439.12408      1214.381          48.300
C11  22789322.820   118670125.12207      2306.065          46.600    22789317.527    91763321.12608      1783.042          50.800
C12  22334793.956   116303159.17007      -397.703          46.000    22334790.349    89932977.84308      -307.605          51.050
C14  22838114.412   118924074.55707     -1495.471          47.050    22838110.650    91959639.53108     -1156.438          51.550
S20  37330696.652   196174195.07207         5.764          46.800
S33  37961392.708   199488467.31907         5.052          45.200
S35  41571069.873   218457407.60506         -.418          41.350
S38  38831171.743   204059181.58207          .273          46.950
> 2016 01 05 00 03  0.0000000  0 30
G03  24998568.407   131368324.22806      1129.631          41.650    24998569.490   102364915.15306       880.226          38.050    24998568.861   102364908.15005       880.228          34.300    24998571.902    98099707.19607       843.381          47.150
G08  24856465.089   130621604.14306      3533.926          41.150    24856466.719   101783072.64206      2753.718          40.200    24856465.350   101783075.63305      2753.717          35.950    24856466.701    97542114.13707      2639.065          47.250
G10  23770174.493   124913178.26907     -2396.573          46.900    23770170.722    97334967.15607     -1867.464          42.850    23770170.578    97334967.15406     -1867.462          38.150    23770170.897    93279347.33208     -1789.660          48.450
G14  20709980.464   108831806.20608     -1108.795          49.650                                                                    20709975.607    84804037.89007      -863.990          45.750
G16  21582745.543   113418176.49708      -345.701          50.150                                                                    21582743.629    88377697.61907      -269.384          45.900
G21  24117188.253   126736706.81807       -96.381          45.900                                                                    24117182.143    98755866.16405       -75.101          35.600
G22  22335908.723   117376022.57208     -1923.456          49.450                                                                    22335901.084    91461835.76407     -1498.801          43.750
G26  21803883.910   114580262.32708     -1446.518          49.350    21803884.841    89283355.75407     -1127.138          46.600    21803884.421    89283355.75307     -1127.138          44.350    21803885.600    85563235.68308     -1080.147          51.850
G27  22191901.496   116619309.57208      3092.748          49.000    22191900.278    90872220.79807      2409.939          46.200    22191899.481    90872216.79907      2409.939          44.050    22191900.458    87085886.11308      2309.565          51.250
G29  24102575.454   126659841.31307     -3056.438          46.800    24102576.322    98695954.57206     -2381.658          40.700    24102575.859    98695956.57606     -2381.655          38.850
G31  22774835.312   119682565.71708       759.292          48.800    22774834.818    93259141.87307       591.658          45.000    22774833.970    93259137.87307       591.658          43.750
G32  23015839.376   120949024.94807       -31.269          46.150                                                                    23015838.791    94246014.03716       -24.365          37.700
R01  23323837.528   124679237.97207      2601.757          42.600    23323843.933    96972740.05305      2023.581          34.300
R06  24644913.611   131509981.87807     -3770.714          43.500    24644918.677   102285561.28415     -2932.778          32.350
R07  21043519.416   112647673.52708     -3230.334          49.050    21043519.234    87614805.52507     -2512.455          47.500
R08  20420606.710   109351395.66708      -167.227          49.150    20420609.067    85051117.23608      -130.037          48.400
R09  24414618.576   130372729.70305      -189.548          34.750
R10  23098206.750   123126529.04306       -44.316          40.300    23098215.723    95765029.54505       -34.454          32.000
R11  23630378.726   126273721.80006        60.297          39.250    23630382.473    98212948.67905        46.899          32.500
R20  21370092.274   114275511.37407     -1093.131          43.600    21370095.716    88880946.11507      -850.212          45.250
R21  20332417.118   108802978.84007      2137.917          47.700    20332419.526    84624608.98007      1662.826          46.850
R22  22984031.561   122690363.40007      3950.002          46.950    22984033.745    95425867.92606      3072.231          37.200
E12  24512258.155   128812824.10348      1598.950          50.900    24512257.508    96191427.95508      1194.093          50.150    24512254.838    98700747.09008      1225.223          51.900    24512255.364    97446079.40308      1209.626          48.350
C11  22776059.371   118601059.71807      2298.162          46.450    22776053.973    91709915.35408      1777.132          50.700
C12  22337128.069   116315312.66907      -412.697          46.350    22337124.259    89942375.68708      -319.009          51.250
C14  22846749.569   118969037.81707     -1502.085          46.000    22846745.750    91994408.00008     -1161.589          50.550
S20  37330663.992   196174019.29407         5.793          46.400
S33  37961363.425   199488310.08907         5.146          46.100
S35  41571071.450   218457415.99206         -.334          41.100
S38  38831168.418   204059168.24207          .571          47.300
> 2016 01 05 00 03 30.0000000  0 28
G03  24992153.848   131334613.97907      1117.909          43.250    24992154.389   102338647.17306       871.088          36.550    24992153.813   102338640.18405       871.091          31.250    24992157.238    98074533.68807       834.967          46.450
G08  24836290.976   130515588.57407      3533.872          42.750    24836292.343   101700462.87906      2753.653          39.600    24836291.019   101700465.87205      2753.654          34.350    24836292.324    97462946.48607      2638.835          46.900
G10  23783841.609   124985000.77707     -2391.367          45.750    23783838.261    97390932.93907     -1863.401          44.100    23783838.158    97390932.93406     -1863.400          40.000    23783838.579    93332981.25708     -1785.660          49.400
G14  20716361.614   108865337.92908     -1126.701          49.700                                                                    20716356.321    84830166.68507      -877.944          46.150
G16  21584752.696   113428722.52108      -357.226          50.200                                                                    21584750.645    88385915.43707      -278.345          46.150
G21  24117746.099   126739638.66607       -99.145          45.250                                                                    24117740.229    98758150.76905       -77.254          35.500
G22  22346890.334   117433731.69508     -1923.733          49.750                                                                    22346882.671    91506804.08307     -1499.006          42.450
G26  21812152.988   114623721.34208     -1450.472          49.900    21812154.139    89317221.32208     -1130.205          48.450    21812153.674    89317221.31707     -1130.206          46.850    21812154.284    85595690.32808     -1083.173          52.550
G27  22174269.185   116526651.66208      3084.515          48.600    22174267.992    90800019.86407      2403.520          47.100    22174267.193    90800015.86107      2403.520          45.200    22174267.977    87016693.60108      2303.223          51.800
G29  24120048.247   126751660.44907     -3064.725          44.900    24120049.216    98767501.60107     -2388.102          43.400    24120048.679    98767503.60707     -2388.102          42.850
G31  22770491.532   119659739.55408       762.616          49.050    22770491.190    93241355.28307       594.247          44.800    22770490.296    93241351.28007       594.247          43.650
G32  23016048.339   120950118.75808       -41.738          49.550                                                                    23016047.229    94246865.87407       -32.488          43.100
R01  23309281.515   124601425.59607      2585.577          43.200    23309287.497    96912219.08505      2010.996          34.950
R07  21061646.893   112744711.64307     -3238.759          47.550    21061646.829    87690279.41507     -2519.053          45.400
R08  20421605.198   109356744.78407      -189.541          47.600    20421607.472    85055277.99307      -147.426          46.150
R09  24415664.438   130378299.25716      -183.895          37.300
R10  23098430.955   123127725.42006       -35.127          40.800    23098440.457    95765959.78105       -27.326          30.250
R11  23630019.528   126271803.09606        67.852          38.650    23630023.228    98211456.41205        52.777          33.200
R20  21376286.819   114308637.17906     -1115.374          38.350    21376290.603    88906710.06506      -867.548          37.950
R21  20320476.690   108739082.02807      2121.757          47.700    20320478.827    84574911.50207      1650.257          46.650
R22  22961824.864   122571822.67707      3952.752          47.000    22961826.802    95333669.80506      3074.370          40.850
E12  24503147.366   128764947.38448      1592.665          50.800    24503146.868    96155676.13908      1189.378          50.200    24503144.069    98664062.59308      1220.363          51.750    24503144.521    97409861.24407      1204.843          47.900
C11  22762841.280   118532230.53807      2290.370          46.000    22762835.907    91656692.21408      1771.227          50.100
C12  22339547.814   116327911.44007      -427.166          46.500    22339543.737    89952117.87408      -330.402          51.100
C14  22855422.963   119014202.10907     -1508.618          45.700    22855419.047    92029331.96808     -1166.658          49.900
S20  37330629.480   196173840.42407         5.964          46.450
S33  37961334.381   199488153.08007         5.143          47.500
S35  41571072.608   218457425.78506          .274          41.200
> 2016 01 05 00 04  0.0000000  0 29
G03  24985804.713   131301246.81007      1106.385          43.150    24985804.751   102312646.59406       862.111          37.000    24985803.848   102312639.57305       862.106          33.550    24985807.758    98049616.42507       826.172          46.800
G08  24816119.613   130409585.53907      3533.054          43.550    24816120.684   101617863.00106      2753.028          39.950    24816119.463   101617866.00705      2753.029          34.550    24816120.534    97383788.22807      2638.465          47.350
G10  23797478.456   125056666.06007     -2386.207          46.300    23797475.795    97446776.09207     -1859.389          43.950    23797475.684    97446776.08106     -1859.390          40.650    23797475.814    93386497.57808     -1781.831          49.400
G14  20722846.142   108899413.68508     -1145.020          49.900                                                                    20722840.535    84856719.38707      -892.220          46.150
G16  21586826.072   113439617.29008      -369.084          49.100                                                                    21586823.888    88394405.04807      -287.593          42.600
G21  24118320.864   126742659.65107      -102.405          45.050                                                                    24118314.927    98760504.83605       -79.796          35.550
G22  22357874.328   117491453.39808     -1924.317          49.550                                                                    22357866.660    91551781.84807     -1499.473          43.000
G26  21820445.625   114667303.95708     -1454.947          50.050    21820446.767    89351182.05507     -1133.720          47.850    21820446.309    89351182.05507     -1133.719          46.450    21820446.267    85628236.21708     -1086.427          52.400
G27  22156685.809   116434250.09008      3075.665          48.400    22156684.532    90728018.65807      2396.622          46.100    22156683.782    90728014.65307      2396.621          43.750    22156684.322    86947692.42608      2296.808          51.100
G29  24137570.102   126843737.41707     -3073.594          43.850    24137571.101    98839250.13606     -2395.005          39.400    24137570.180    98839252.13706     -2395.006          37.750
G31  22766129.622   119636817.82508       765.644          48.900    22766129.380    93223494.24507       596.607          45.000    22766128.435    93223490.23707       596.607          44.250
G32  23016316.190   120951526.05108       -52.124          50.400                                                                    23016314.487    94247963.20017       -40.549          44.600
R01  23294818.539   124524109.95907      2568.812          44.000    23294823.994    96852084.53105      1997.958          35.400
R06  24687224.385   131735765.92217     -3755.061          45.050
R07  21079821.762   112842002.38607     -3247.389          47.850    21079821.794    87765950.15707     -2525.734          46.550
R08  20422728.857   109362762.44308      -211.841          48.200    20422730.894    85059958.86507      -164.749          47.350
R09  24416683.405   130383731.06006      -178.576          38.600    24416687.473   101409579.10214      -138.876          27.250
R10  23098602.157   123128638.00606       -25.757          40.350    23098611.557    95766669.40604       -20.040          29.650
R11  23629618.809   126269660.55406        74.624          40.750    23629622.123    98209790.05205        58.043          33.400
R20  21382607.420   114342433.80907     -1137.730          42.350    21382611.758    88932999.13817      -884.903          44.550
R21  20308628.034   108675676.46408      2105.171          48.100    20308629.769    84525596.13407      1637.356          46.450
R22  22939603.526   122453205.36707      3955.033          46.250    22939605.613    95241412.00306      3076.145          39.950
E12  24494072.362   128717259.08548      1586.475          51.000    24494071.722    96120064.85808      1184.768          50.350    24494069.086    98627522.30908      1215.674          51.950    24494069.571    97373785.46508      1200.204          48.350
C11  22749669.282   118463640.66707      2282.219          46.100    22749663.885    91603654.49808      1764.811          49.700
C12  22342052.917   116340955.75007      -442.307          46.350    22342048.800    89962204.55708      -342.015          50.950
C14  22864134.453   119059565.02607     -1515.491          46.550    22864130.410    92064409.47508     -1171.795          50.450
S20  37330595.043   196173659.33007         5.867          47.050
S33  37961304.516   199487996.97807         4.661          44.300
S35  41571074.191   218457432.66206         -.441          40.750
> 2016 01 05 00 04 30.0000000  0 28
G03  24979520.560   131268222.37206      1095.252          41.500    24979520.444   102286913.02306       853.435          37.650    24979519.881   102286906.03405       853.434          32.250    24979523.634    98024955.08407       817.800          46.400
G08  24795950.706   130303597.65506      3532.658          40.900    24795951.823   101535275.35506      2752.727          38.150    24795950.464   101535278.36905      2752.731          35.950    24795951.779    97304641.79907      2638.057          47.400
G10  23811085.345   125128172.34507     -2380.797          46.650    23811083.135    97502495.20607     -1855.158          44.750    23811083.061    97502495.19406     -1855.157          40.400    23811083.084    93439895.09408     -1778.030          49.850
G14  20729433.940   108934032.79808     -1163.057          49.900                                                                    20729428.209    84883695.35307      -906.279          46.000
G16  21588965.181   113450857.97908      -380.402          50.650                                                                    21588962.721    88403164.03707      -296.427          44.900
G21  24118913.008   126745771.48507      -105.297          44.300                                                                    24118907.141    98762929.73805       -82.049          35.950
G22  22368860.330   117549185.57608     -1924.674          48.650                                                                    22368852.890    91596767.72306     -1499.760          41.350
G26  21828761.872   114711009.09008     -1458.882          49.250    21828763.029    89385238.04607     -1136.798          47.900    21828762.618    89385238.04907     -1136.797          45.900    21828762.276    85660873.24308     -1089.502          52.400
G27  22139151.806   116342107.81208      3067.019          48.700    22139150.339    90656219.48807      2389.887          46.850    22139149.552    90656215.48507      2389.888          43.850    22139150.192    86878884.90508      2290.291          51.800
G29  24155140.248   126936067.16207     -3081.941          45.700    24155141.119    98911194.68207     -2401.534          42.300    24155140.194    98911196.69106     -2401.533          40.600
G31  22761749.770   119613801.81408       768.712          49.200    22761749.587    93205559.74807       598.998          44.800    22761748.802    93205555.74507       598.998          43.500
G32  23016641.640   120953236.40908       -62.095          50.500                                                                    23016639.737    94249294.91007       -48.425          46.550
R01  23280448.515   124447293.21607      2552.301          43.250    23280453.980    96792337.99605      1985.116          35.150
R07  21098042.310   112939538.89207     -3255.270          47.700    21098042.346    87841811.02207     -2531.891          45.200
R08  20423976.751   109369445.21307      -233.872          47.300    20423978.729    85065156.45707      -181.883          46.250
R09  24417672.067   130389001.99906      -173.154          40.050    24417671.588   101413670.92314      -134.673          29.900
R10  23098720.520   123129267.36107       -16.262          47.700    23098729.854    95767176.71916       -12.649          38.350
R11  23629176.049   126267292.24606        82.873          40.950    23629179.054    98207948.09605        64.457          33.900
R20  21389053.269   114376900.99107     -1160.193          42.750    21389056.360    88959807.03206      -902.363          41.600
R21  20296872.018   108612766.26108      2088.659          48.700    20296873.475    84476666.06807      1624.516          46.750
R22  22917368.546   122334515.44107      3957.410          46.750    22917370.938    95149097.88106      3077.997          41.550
E12  24485033.771   128669761.18348      1580.128          50.850    24485032.908    96084595.61608      1179.932          50.250    24485030.476    98591127.79008      1210.678          51.900    24485031.071    97337853.58508      1195.270          48.300
C11  22736543.508   118395291.02107      2274.107          47.100    22736537.987    91550802.14108      1758.703          50.850
C12  22344643.413   116354445.63007      -457.104          46.350    22344639.504    89972635.78408      -353.469          51.100
C14  22872883.659   119105124.61507     -1521.891          45.750    22872879.407    92099639.24608     -1176.860          50.300
S20  37330560.340   196173478.48607         5.938          46.750
S33  37961274.281   199487839.41607         5.482          46.150
S35  41571076.785   218457441.31306         -.059          40.950
> 2016 01 05 00 05  0.0000000  0 28
G03  24973301.514   131235540.38607      1083.659          42.700    24973301.975   102261446.42206       844.403          37.550    24973301.183   102261439.39505       844.395          31.650    24973304.673    98000549.50007       809.304          46.950
G08  24775785.281   130197626.22707      3532.011          42.350    24775785.866   101452700.15206      2752.201          39.350    24775784.501   101452703.15705      2752.199          35.600    24775786.234    97225507.23107      2637.501          47.250
G10  23824661.926   125199518.05407     -2375.264          46.000    23824659.663    97558089.28507     -1850.868          42.750    23824659.681    97558089.28006     -1850.868          38.100    23824659.560    93493172.73208     -1773.904          48.050
G14  20736125.057   108969194.89608     -1181.175          49.800                                                                    20736119.273    84911094.48707      -920.391          46.050
G16  21591169.936   113462442.77108      -391.893          50.750                                                                    21591167.162    88412191.11007      -305.375          44.650
G21  24119522.792   126748975.90907      -108.438          43.950                                                                    24119516.602    98765426.83005       -84.489          34.850
G22  22379847.931   117606926.84908     -1924.946          49.250                                                                    22379841.088    91641760.91607     -1499.951          44.150
G26  21837101.279   114754834.70708     -1462.941          48.800    21837102.432    89419387.84107     -1139.966          47.100    21837102.105    89419387.84907     -1139.967          44.150    21837101.776    85693600.06408     -1092.350          51.750
G27  22121667.615   116250227.99108      3058.399          48.400    22121666.197    90584624.89907      2383.171          46.550    22121665.316    90584620.89807      2383.171          43.500    22121666.270    86810273.45308      2283.762          51.650
G29  24172758.274   127028649.60006     -3090.231          36.000    24172759.474    98983336.37305     -2407.996          32.350    24172758.594    98983338.39405     -2407.991          32.550
G31  22757352.437   119590693.08708       771.808          49.200    22757352.030    93187553.01707       601.412          44.900    22757351.258    93187549.01107       601.411          43.950
G32  23017025.887   120955254.57508       -72.469          48.650                                                                    23017024.248    94250867.28106       -56.505          41.900
R01  23266172.339   124370977.36007      2535.443          44.350    23266177.663    96732981.05705      1972.007          35.550
R07  21116308.856   113037319.79608     -3263.354          48.200    21116309.114    87917862.64507     -2538.164          46.350
R08  20425348.853   109376793.98007      -255.734          47.000    20425349.437                                          45.650
R09  24418627.882   130394113.61505      -167.917          33.600
R10  23098785.709   123129613.60307        -6.780          42.450    23098794.891    95767442.87715        -5.279          31.250
R11  23628690.678   126264696.78306        90.352          40.750    23628693.223    98205929.44705        70.275          32.900
R20  21395624.108   114412038.15107     -1182.472          43.800    21395627.618    88987135.97007      -919.686          44.300
R21  20285209.380   108550355.50608      2071.997          49.100    20285210.309    84428124.50507      1611.558          46.350
R22  22895120.962   122215756.73108      3959.712          48.250    22895123.271    95056730.32707      3079.788          42.850
E12  24476031.880   128622455.67048      1573.444          50.900    24476030.877    96049269.98608      1174.974          50.200    24476028.524    98554880.62608      1205.645          51.850    24476029.244    97302067.18308      1190.338          48.200
C11  22723464.360   118327183.71207      2266.124          47.550    22723458.659    91498136.77308      1752.325          51.100
C12  22347319.515   116368381.36507      -471.933          46.250    22347315.837    89983411.78908      -364.950          51.250
C14  22881669.993   119150878.47407     -1528.348          45.850    22881665.581    92135019.33908     -1181.924          49.650
S20  37330525.482   196173295.88407         5.857          46.650
S33  37961245.030   199487684.24607         5.016          46.550
S35  41571078.010   218457450.40806         -.336          41.750
> 2016 01 05 00 05 30.0000000  0 27
G03  24967147.664   131203200.31807      1072.268          42.400    24967148.029   102236246.20506       835.529          37.950    24967147.067   102236239.21005       835.529          33.250    24967151.231    97976399.29207       800.738          46.750
G08  24755623.632   130091674.01807      3531.026          44.200    24755623.811   101370139.85306      2751.438          41.100    24755622.747   101370142.83906      2751.436          36.200    24755623.945    97146386.90808      2637.052          48.350
G10  23838207.468   125270701.38307     -2370.221          45.700    23838205.305    97613556.69607     -1846.924          43.100    23838205.099    97613556.69106     -1846.923          40.300    23838205.189    93546329.00708     -1769.848          49.500
G14  20742919.271   109004898.98708     -1199.244          49.800                                                                    20742913.471    84938916.02507      -934.471          46.000
G16  21593439.678   113474370.11408      -403.208          49.300                                                                    21593436.883    88421485.39007      -314.174          43.800
G21  24120150.247   126752275.01607      -111.554          44.850                                                                    24120144.332    98767997.64905       -86.922          33.950
G22  22390837.021   117664674.63608     -1924.894          49.400                                                                    22390830.452    91686759.35507     -1499.907          42.800
G26  21845463.554   114798778.96308     -1466.752          48.350    21845464.582    89453630.18007     -1142.921          45.400    21845464.316    89453630.17607     -1142.920          42.650    21845464.059    85726415.71808     -1095.257          50.900
G27  22104233.886   116158613.31308      3049.273          48.750    22104232.449    90513236.88707      2376.057          47.600    22104231.666    90513232.88107      2376.057          45.350    22104232.630    86741859.92208      2277.182          51.900
G29  24190423.716   127121482.45007     -3098.637          44.450    24190425.216    99055740.70917     -2414.522          45.050    24190424.506    99055675.70207     -2414.533          42.250
G31  22752937.605   119567493.12908       774.810          48.900    22752937.217    93169475.19607       603.751          45.150    22752936.478    93169471.19107       603.750          44.400
G32  23017468.225   120957577.75108       -82.494          49.200                                                                    23017466.712    94252677.47206       -64.303          41.200
R01  23251990.304   124295165.14207      2518.664          44.300    23251995.622    96674015.85105      1958.956          35.850
R07  21134619.990   113135339.22907     -3271.223          47.900    21134620.128    87994099.66707     -2544.309          45.600
R08  20426844.601   109384803.04907      -278.081          47.750    20426845.762    85077087.26017      -216.317          45.050
R10  23098797.841   123129677.21606         2.525          41.400    23098807.187    95767489.05814         1.946          27.800
R11  23628162.282   126261872.34506        97.871          41.150    23628164.078    98203732.76405        76.126          32.400
R20  21402320.072   114447844.04907     -1204.742          43.700    21402323.718    89014984.78607      -937.049          44.800
R21  20273640.877   108488448.11608      2055.096          49.250    20273641.355    84379974.47107      1598.415          46.350
R22  22872860.692   122096931.95507      3961.860          47.900    22872863.325    94964311.22507      3081.459          44.200
E12  24467066.910   128575344.81048      1567.192          50.800    24467065.923    96014089.86108      1170.310          50.250    24467063.713    98518782.76608      1200.784          51.900    24467064.393    97266428.19308      1185.506          48.250
C11  22710432.616   118259321.55507      2258.091          46.950    22710426.890    91445660.64708      1746.069          49.800
C12  22350081.392   116382763.07607      -486.823          46.350    22350077.717    89994532.65308      -376.466          51.000
C14  22890493.059   119196824.37707     -1534.583          46.700    22890488.523    92170548.10108     -1186.771          50.200
S20  37330489.943   196173109.26907         6.116          46.200
S33  37961215.708   199487531.68007         5.211          46.700
S35  41571080.157   218457458.34906          .118          41.000
> 2016 01 05 00 06  0.0000000  0 27
G03  24961058.964   131171201.87107      1061.065          42.950    24961058.943   102211312.19906       826.799          38.850    24961058.239   102211305.20005       826.797          34.300    24961062.116    97952504.14907       792.242          47.100
G08  24735465.622   129985743.95707      3530.782          43.100    24735466.214   101287596.88006      2751.250          40.300    24735465.197   101287599.86205      2751.248          35.350    24735466.024    97067283.16007      2636.491          47.500
G10  23851722.312   125341720.34607     -2364.487          46.450    23851719.815    97668895.92707     -1842.460          42.900    23851719.451    97668895.91406     -1842.462          39.600    23851719.592    93599362.40108     -1765.808          49.000
G14  20749816.457   109041144.75908     -1217.174          49.850                                                                    20749810.818    84967159.62707      -948.442          46.900
G16  21595773.829   113486636.87308      -414.568          50.400                                                                    21595771.038    88431044.03807      -323.033          45.550
G21  24120796.269   126755670.29507      -114.843          44.800                                                                    24120790.475    98770643.42405       -89.483          35.300
G22  22401826.795   117722426.30408     -1925.006          48.850                                                                    22401820.173    91731760.64507     -1500.008          43.350
G26  21853847.967   114842839.98708     -1470.587          49.650    21853848.929    89487963.96708     -1145.896          48.800    21853848.600    89487963.96307     -1145.896          47.550    21853848.392    85759318.99208     -1098.236          52.450
G27  22086851.252   116067266.72708      3040.360          48.950    22086849.671    90442057.77808      2369.114          48.050    22086848.854    90442053.77607      2369.113          46.350    22086850.021    86673646.62108      2270.415          52.200
G31  22748505.682   119544203.27808       777.794          48.800    22748505.181    93151327.32007       606.075          45.250    22748504.497    93151323.31807       606.075          44.200
G32  23017968.223   120960204.35208       -92.920          49.900                                                                    23017966.302    94254724.00807       -72.422          43.900
R01  23237902.844   124219857.67507      2501.928          44.300    23237907.899    96615443.26306      1945.940          36.300
R07  21152974.772   113233591.93807     -3278.922          46.800    21152974.875    88070517.73107     -2550.288          44.000
R08  20428464.089   109393473.19608      -300.046          48.800    20428465.642    85083829.99507      -233.395          47.600
R09  24420453.973   130403864.37916      -157.119          37.100    24420457.576   101425237.68414      -122.202          29.450
R10  23098757.307   123129459.07007        11.924          44.850    23098766.713    95767319.25805         9.268          34.950
R11  23627590.600   126258817.44606       105.645          40.350    23627592.294    98201356.81405        82.173          32.750
R20  21409141.132   114484319.41007     -1226.743          43.250    21409144.835    89043354.33607      -954.137          45.050
R21  20262166.852   108427047.97008      2038.115          49.350    20262167.149    84332218.91107      1585.201          46.600
R22  22850588.850   121978045.36107      3963.857          47.600    22850591.539    94871843.96307      3083.000          42.450
E12  24458139.275   128528430.37148      1560.469          50.750    24458138.560    95979056.49908      1165.343          50.600    24458136.139    98482835.47408      1195.711          51.850    24458136.804    97230937.86708      1180.490          48.150
C11  22697448.610   118191707.96107      2249.688          45.850    22697443.204    91393377.06908      1739.419          49.800
C12  22352928.854   116397590.89807      -501.769          45.950    22352925.164    90005998.48808      -387.984          50.950
C14  22899352.501   119242958.91407     -1540.895          45.600    22899347.716    92206222.24308     -1191.590          49.350
S20  37330453.650   196172920.76707         6.477          46.150
S33  37961185.877   199487376.98107         4.882          47.300
S35  41571081.699   218457468.24706         -.290          40.500
> 2016 01 05 00 06 30.0000000  0 27
G03  24955034.856   131139544.49407      1049.672          43.100    24955034.927   102186643.93106       817.920          38.550    24955034.097   102186636.93405       817.924          33.650    24955038.048    97928863.70607       783.669          46.750
G08  24715312.427   129879838.63307      3529.810          43.250    24715313.258   101205073.27106      2750.502          39.750    24715312.319   101205076.25805      2750.502          34.200    24715313.313    96988198.08507      2635.715          47.700
G10  23865205.914   125412574.51907     -2359.144          47.200    23865203.004    97724107.27507     -1838.283          44.050    23865202.624    97724107.26506     -1838.284          40.750    23865202.630    93652273.31208     -1761.714          49.900
G14  20756816.438   109077931.42208     -1235.317          49.600                                                                    20756811.026    84995824.74707      -962.576          46.100
G16  21598172.263   113499240.69608      -425.836          49.800                                                                    21598169.333    88440865.12207      -331.831          43.850
G21  24121460.911   126759163.51207      -118.231          44.700                                                                    24121455.241    98773365.49105       -92.122          35.100
G22  22412816.863   117780179.72008     -1925.141          49.000                                                                    22412810.264    91776763.26607     -1500.107          42.800
G26  21862253.896   114887015.12508     -1474.414          49.350    21862254.902    89522386.93407     -1148.874          47.900    21862254.433    89522386.93007     -1148.873          46.150    21862254.090    85792307.87908     -1101.103          52.200
G27  22069520.026   115976191.10008      3031.339          48.900    22069518.611    90371089.79307      2362.085          47.750    22069517.918    90371085.78707      2362.085          46.150    22069519.023    86605635.62308      2263.607          52.150
G31  22744056.935   119520824.84708       780.762          49.050    22744056.283    93133110.43207       608.389          44.800    22744055.629    93133106.42707       608.389          44.100
G32  23018525.608   120963130.46108      -102.702          49.150                                                                    23018523.639    94257008.05316       -80.046          38.900
R01  23223910.174   124145057.66507      2484.750          44.000    23223914.989    96557265.40606      1932.583          36.350
R07  21171372.557   113332075.60407     -3286.626          47.600    21171372.921    88147116.00207     -2556.264          44.800
R08  20430206.756   109402801.94507      -321.924          47.500    20430208.306    85091093.92317      -250.406          45.000
R09  24421324.444   130408512.89506      -152.380          38.700
R10  23098663.871   123128959.57307        21.280          46.700    23098672.904    95766941.80315        16.550          34.150
R11  23626975.297   126255530.71007       113.601          42.200    23626977.380    98198800.54205        88.360          32.900
R20  21416087.429   114521464.40706     -1249.476          41.150    21416091.257    89072244.85906      -971.816          41.200
R21  20250788.192   108366159.11208      2021.085          49.550    20250788.467    84284860.94807      1571.956          46.400
R22  22828306.686   121859100.79007      3965.616          47.000    22828308.793    94779331.52306      3084.373          39.550
E12  24449249.436   128481714.05648      1553.746          50.900    24449248.771    95944171.06208      1160.225          50.850    24449246.094    98447039.96608      1190.474          52.050    24449246.880    97195597.39208      1175.358          48.700
C11  22684512.850   118124345.64007      2241.224          46.800    22684507.611    91341288.29608      1732.966          50.600
C12  22355861.997   116412864.98507      -516.658          45.950    22355858.390    90017809.41508      -399.516          51.050
C14  22908247.766   119289280.16207     -1547.127          45.950    22908242.989    92242040.50008     -1196.337          50.350
S20  37330417.204   196172732.53807         6.128          46.400
S33  37961156.547   199487221.15507         4.738          42.600
S35  41571082.256   218457477.69906         -.358          39.850
> 2016 01 05 00 07  0.0000000  0 27
G03  24949075.714   131108227.65107      1038.342          43.050    24949075.936   102162241.06506       809.093          39.100    24949075.150   102162234.06205       809.091          34.500    24949078.353    97905477.55607       775.358          46.950
G08  24695164.585   129773960.04507      3528.965          43.300    24695165.353   101122570.42806      2749.854          40.050    24695164.196   101122573.40705      2749.854          35.650    24695165.226    96909132.82707      2635.126          47.800
G10  23878657.365   125483261.26307     -2353.374          46.100    23878654.213    97779188.08806     -1833.796          40.900    23878653.947    97779188.07806     -1833.796          37.250    23878653.267    93705059.15007     -1757.467          46.950
G14  20763919.069   109115258.11308     -1253.172          49.750                                                                    20763913.776    85024910.67407      -976.494          46.550
G16  21600634.612   113512181.00808      -436.777          50.050                                                                    21600631.679    88450948.88507      -340.337          45.900
G21  24122144.638   126762756.24707      -121.366          45.550                                                                    24122138.611    98776165.11705       -94.569          35.950
G22  22423806.901   117837932.41808     -1925.131          48.350                                                                    22423800.089    91821765.26107     -1500.110          42.650
G26  21870680.782   114931301.37008     -1477.921          49.200    21870681.834    89556896.45808     -1151.601          48.650    21870681.402    89556896.45507     -1151.602          47.000    21870680.744    85825379.62208     -1103.682          52.350
G27  22052241.091   115885389.21308      3022.203          49.250    22052239.583    90300334.92207      2354.959          47.500    22052238.915    90300330.92007      2354.959          45.600    22052239.955    86537828.86808      2256.808          52.150
G31  22739591.488   119497359.19408       783.691          48.750    22739590.880    93114825.59007       610.671          44.850    22739590.116    93114821.58607       610.671          44.050
G32  23019140.047   120966358.10908      -112.671          49.100                                                                    23019137.979    94259522.89006       -87.778          40.800
R01  23210012.546   124070766.96707      2467.816          43.750    23210017.556    96499483.69906      1919.412          36.350
R07  21189812.546   113430784.41307     -3294.083          47.150    21189812.770    88223889.25807     -2562.067          44.250
R08  20432072.371   109412788.29808      -343.740          48.750    20432073.816    85098860.41307      -267.360          47.350
R09  24422167.633   130413011.36706      -147.394          38.300    24422169.792   101432348.29114      -114.629          29.200
R10  23098517.330   123128179.20506        30.710          39.700    23098527.596    95766330.64514        23.885          29.850
R11  23626315.985   126252010.31506       121.049          41.100    23626318.734    98196062.51805        94.152          33.950
R20  21423158.974   114559277.58107     -1271.503          43.000    21423162.670    89101654.92107      -988.969          43.800
R21  20239506.000   108305785.66608      2003.759          49.550    20239506.105    84237903.90007      1558.484          46.400
R22  22806013.957   121740102.12908      3967.519          48.600    22806016.163    94686777.08007      3085.852          42.850
E12  24440397.555   128435197.23748      1547.518          50.350    24440396.631    95909434.31008      1155.469          49.800    24440394.195    98411397.05908      1185.655          51.250    24440395.052    97160407.56407      1170.575          47.150
C11  22671625.393   118057235.46807      2232.911          46.900    22671620.091    91289394.24908      1726.529          50.750
C12  22358880.777   116428585.36207      -531.462          45.650    22358877.317    90029965.43408      -410.928          50.950
C14  22917178.595   119335786.15107     -1553.300          45.950    22917174.068    92278001.51208     -1201.063          50.250
S20  37330381.046   196172542.96407         6.514          46.150
S33  37961128.522   199487069.11307         4.877          44.650
S35  41571082.817   218457487.63206         -.115          40.250
> 2016 01 05 00 07 30.0000000  0 27
G03  24943181.390   131077250.84607      1027.041          44.500    24943181.223   102138103.10706       800.283          37.850    24943180.536   102138096.09805       800.283          32.200    24943184.007    97882345.32107       766.859          47.250
G08  24675022.341   129668111.42106      3528.198          40.600    24675022.818   101040091.18605      2749.240          35.550    24675021.759   101040094.16804      2749.239          29.850    24675022.802    96830090.29807      2634.136          42.950
G10  23892076.304   125553778.40007     -2347.647          46.550    23892072.991    97834136.42807     -1829.335          42.200    23892072.603    97834136.41706     -1829.337          38.250    23892071.537    93757718.00107     -1753.134          47.600
G14  20771124.330   109153123.71808     -1271.072          49.100                                                                    20771119.147    85054416.25107      -990.451          45.050
G16  21603160.181   113525454.93808      -447.992          49.300                                                                    21603157.387    88461292.80807      -349.070          42.400
G21  24122847.676   126766450.45807      -124.720          45.900                                                                    24122841.332    98779043.79905       -97.183          35.250
G22  22434796.582   117895682.51008     -1924.869          49.300                                                                    22434789.697    91866765.28507     -1499.886          42.350
G26  21879128.388   114975697.14008     -1481.577          49.550    21879129.440    89591491.59508     -1154.439          48.600    21879129.057    89591491.59407     -1154.439          46.850    21879128.282    85858533.59308     -1106.554          52.200
G27  22035014.840   115794864.36208      3012.796          49.450    22035013.274    90229796.07707      2347.636          47.750    22035012.552    90229792.07307      2347.636          46.250    22035013.681    86470229.11008      2249.876          52.050
G31  22735109.560   119473807.99408       786.516          48.800    22735109.177    93096474.08507       612.872          45.200    22735108.399    93096470.07907       612.872          43.750
G32  23019810.904   120969884.11107      -122.470          47.800                                                                    23019809.433    94262268.35817       -95.399          43.750
R01  23196210.651   123996988.14707      2450.889          42.300    23196215.559    96442100.25806      1906.251          36.200
R07  21208293.970   113529714.99107     -3301.282          47.300    21208293.788    88300835.37107     -2567.655          44.650
R08  20434060.319   109423430.44507      -365.661          47.650    20434061.674    85107137.42407      -284.415          46.550
R09  24422982.350   130417361.90805      -142.077          35.550    24422982.687   101435741.31014      -110.497          27.150
R10  23098318.447   123127118.82807        40.114          46.500    23098327.646    95765505.92706        31.195          37.300
R11  23625612.746   126248255.31506       128.842          39.650    23625616.274    98193141.98405       100.212          34.500
R20  21430355.110   114597758.83407     -1293.710          43.300    21430358.943    89131584.59807     -1006.212          45.800
R21  20228320.816   108245931.71408      1986.509          48.950    20228321.026    84191350.95807      1545.066          46.100
R22  22783712.045   121621052.93707      3969.212          47.600    22783714.140    94594183.25707      3087.160          42.300
E12  24431584.246   128388882.75948      1540.518          50.800    24431583.405    95874848.82808      1150.327          50.400    24431580.950    98375909.34508      1180.344          51.700    24431581.831    97125370.96207      1165.352          47.900
C11  22658786.830   117990380.90907      2224.340          46.450    22658781.672    91237698.25008      1719.897          50.850
C12  22361985.265   116444752.11707      -546.300          45.700    22361981.971    90042466.61008      -422.494          51.250
C14  22926144.830   119382475.40707     -1559.302          47.050    22926140.582    92314104.55908     -1205.776          51.050
S20  37330344.028   196172350.21607         6.539          47.150
S33  37961100.061   199486913.37407         5.259          47.150
S35  41571083.093   218457497.95706         -.301          41.450
> 2016 01 05 00 08  0.0000000  0 27
G03  24937351.413   131046613.65407      1015.281          43.400    24937351.265   102114229.80106       791.123          38.750    24937350.509   102114222.80705       791.123          33.500    24937354.192    97859466.68807       758.352          47.650
G08  24654886.040   129562295.19307      3526.512          45.000    24654886.643   100957637.36607      2747.953          42.400    24654885.778   100957640.35106      2747.955          36.300    24654886.587    96751072.11108      2633.446          49.000
G10  23905462.760   125624124.73607     -2342.277          46.150    23905459.466    97888951.71107     -1825.153          42.350    23905459.273    97888951.70406     -1825.153          39.000    23905457.794    93810249.29208     -1748.922          48.000
G14  20778432.284   109191527.98208     -1289.176          49.250                                                                    20778427.209    85084341.58907     -1004.549          46.200
G16  21605748.747   113539059.37208      -459.003          51.250                                                                    21605745.843    88471893.96108      -357.630          48.250
G21  24123570.217   126770247.71007      -128.200          45.200                                                                    24123563.982    98782002.76405       -99.894          34.600
G22  22445785.402   117953428.29208     -1924.816          48.950                                                                    22445778.254    91911762.26006     -1499.849          41.900
G26  21887596.155   115020199.45208     -1485.240          49.150    21887597.119    89626169.89907     -1157.298          47.100    21887596.768    89626169.89707     -1157.297          44.900    21887595.936    85891767.16908     -1109.032          51.650
G27  22017841.953   115704619.28008      3003.472          48.900    22017840.236    90159475.17207      2340.366          47.300    22017839.498    90159471.16707      2340.366          45.650    22017840.840    86402838.26508      2242.864          52.000
G31  22730611.708   119450172.69508       789.161          48.650    22730611.479    93078057.04807       614.933          44.950    22730610.607    93078053.04307       614.933          44.050
G32  23020538.440   120973707.92307      -132.065          43.850                                                                    23020537.265    94265248.57505      -102.934          33.050
R01  23182504.857   123923722.41807      2433.600          43.200    23182509.664    96385116.10506      1892.817          36.950
R07  21226815.470   113628862.19007     -3308.444          46.900    21226815.217    88377950.22507     -2573.238          44.350
R08  20436170.140   109434725.69008      -387.358          48.100    20436171.216    85115922.36307      -301.289          46.650
R09  24423769.948   130421566.67206      -137.590          37.050
R10  23098066.830   123125778.02507        49.298          43.700    23098075.815    95764456.80015        38.336          32.850
R11  23624865.423   126244263.71206       137.231          40.350    23624869.254    98190037.44705       106.736          33.500
R20  21437676.360   114636907.64507     -1316.063          42.050    21437679.618    89162033.33207     -1023.613          42.950
R21  20217233.242   108186601.04408      1968.859          48.800    20217233.500    84145205.00707      1531.340          46.400
R22  22761401.191   121501957.01207      3970.578          47.200    22761403.289    94501553.12807      3088.227          42.400
E12  24422809.743   128342772.68448      1533.437          50.700    24422809.089    95840416.37008      1145.184          50.650    24422806.368    98340578.60708      1175.062          51.800    24422807.172    97090489.36608      1160.106          48.100
C11  22645997.425   117923783.05007      2215.693          47.100    22645992.250    91186200.36408      1713.327          51.150
C12  22365175.592   116461365.22507      -561.356          45.950    22365172.342    90055312.93008      -433.955          51.250
C14  22935145.712   119429345.01607     -1565.332          46.250    22935141.652    92350347.07508     -1210.387          50.500
S20  37330305.949   196172155.00807         6.731          46.650
S33  37961071.380   199486762.01707         5.174          47.050
S35  41571084.804   218457508.70006         -.141          41.700
> 2016 01 05 00 08 30.0000000  0 27
G03  24931585.945   131016315.67307      1004.064          43.900    24931585.723   102090620.77706       782.382          38.900    24931584.961   102090613.79005       782.382          35.100    24931588.753    97836841.33707       750.046          47.000
G08  24634756.240   129456513.67107      3525.642          44.400    24634756.861   100875210.81406      2747.274          40.300    24634755.938   100875213.80505      2747.273          33.700    24634756.594    96672080.08307      2632.609          47.250
G10  23918816.214   125694298.97007     -2336.235          45.400    23918813.129    97943633.09106     -1820.436          40.600    23918813.081    97943633.08906     -1820.436          37.000    23918811.760    93862652.32607     -1744.489          46.400
G14  20785842.796   109230470.13408     -1307.029          49.550                                                                    20785837.669    85114686.15707     -1018.459          45.600
G16  21608399.871   113552992.35908      -469.975          50.150                                                                    21608396.857    88482750.88607      -366.209          45.650
G21  24124312.743   126774149.90707      -131.885          45.000                                                                    24124306.736    98785043.49506      -102.766          36.150
G22  22456772.558   118011166.82308     -1924.419          49.200                                                                    22456765.304    91956753.55006     -1499.545          41.750
G26  21896083.480   115064805.67208     -1488.430          49.050    21896084.385    89660929.05408     -1159.777          48.700    21896084.047    89660929.05507     -1159.778          47.250    21896083.213    85925078.24008     -1111.504          52.350
G27  22000722.825   115614656.95208      2994.031          49.300    22000720.957    90089374.68607      2333.015          47.800    22000720.129    90089370.68107      2333.014          45.700    22000721.574    86335658.62808      2235.841          52.150
G31  22726098.095   119426454.48308       792.018          48.700    22726098.006    93059575.41707       617.161          45.200    22726097.117    93059571.41307       617.161          43.300
G32  23021321.948   120977827.17808      -142.305          50.350                                                                    23021320.732    94268461.15817      -110.852          42.950
R01  23168895.093   123850971.02407      2416.491          42.650    23168899.856    96328531.60205      1879.485          35.300
R07  21245376.528   113728220.95107     -3315.430          47.550    21245376.255    88455229.21907     -2578.668          44.850
R08  20438401.563   109446673.01808      -409.170          48.000    20438402.389    85125215.02007      -318.230          46.250
R09  24424530.702   130425628.20006      -133.140          39.000
R10  23097763.284   123124158.96207        58.893          42.000    23097772.785    95763197.51805        45.817          35.150
R11  23624074.062   126240034.43906       144.955          40.900    23624078.180    98186748.04405       112.744          34.250
R20  21445122.337   114676723.92206     -1338.109          41.800    21445126.018    89193001.23407     -1040.771          43.800
R21  20206244.119   108127797.41308      1951.277          48.700    20206244.517    84099468.94107      1517.666          46.750
R22  22739082.708   121382818.20808      3971.905          48.000    22739084.506    94408889.49907      3089.258          43.000
E12  24414074.267   128296868.82848      1526.872          50.800    24414073.515    95806138.26308      1140.129          50.400    24414070.845    98305406.20408      1169.873          51.800    24414071.374    97055764.10808      1155.027          48.250
C11  22633257.706   117857444.55507      2206.976          47.000    22633252.774    91134902.93208      1706.592          51.450
C12  22368451.825   116478424.88007      -576.021          46.250    22368448.374    90068504.55508      -445.408          51.100
C14  22944180.641   119476392.16407     -1571.060          45.400    22944176.748    92386726.63508     -1214.842          50.200
S20  37330268.015   196171959.59807         6.517          46.550
S33  37961041.817   199486609.04607         5.217          46.950
S35  41571085.681   218457518.08607         -.436          42.250
> 2016 01 05 00 09  0.0000000  0 27
G03  24925885.261   130986356.15007       993.125          44.600    24925885.030   102067275.50206       773.858          40.050    24925884.337   102067268.49905       773.857          34.500    24925887.346    97814468.72207       741.520          46.850
G08  24614633.183   129350768.48207      3524.167          42.900    24614633.654   100792812.17706      2746.103          36.700    24614632.546   100792815.15905      2746.102          31.750    24614633.541    96593114.75307      2631.846          45.250
G10  23932136.552   125764299.49307     -2330.446          46.850    23932133.762    97998179.24107     -1815.918          43.650    23932133.815    97998179.23706     -1815.917          40.500    23932132.473    93914925.75308     -1740.273          49.050
G14  20793355.606   109269949.50908     -1324.951          49.500                                                                    20793350.249    85145449.39507     -1032.431          45.400
G16  21611113.028   113567251.82008      -480.638          49.700                                                                    21611110.109    88493862.34207      -374.520          44.050
G21  24125075.531   126778158.86507      -135.615          44.350                                                                    24125069.597    98788167.44705      -105.669          35.250
G22  22467757.788   118068895.22408     -1924.047          48.950                                                                    22467750.427    92001736.75306     -1499.251          41.800
G26  21904590.164   115109512.28808     -1491.877          50.250    21904590.787    89695765.68608     -1162.498          48.450    21904590.399    89695765.68507     -1162.498          46.900    21904589.558    85958463.50108     -1114.239          52.150
G27  21983658.033   115524980.14908      2984.393          49.600    21983655.962    90019496.61608      2325.498          48.300    21983655.108    90019492.61707      2325.498          46.650    21983656.708    86268692.13908      2228.659          52.300
G31  22721569.175   119402655.09308       794.589          48.700    22721569.065    93041030.54107       619.164          45.100    22721568.199    93041026.53507       619.164          43.700
G32  23022160.757   120982238.54708      -152.044          50.350                                                                    23022159.510    94271899.03207      -118.435          45.650
R01  23155381.736   123778736.11907      2399.116          42.350    23155386.792    96272348.34805      1865.961          34.500
R07  21263976.467   113827787.61208     -3322.341          48.100    21263976.327    88532670.03707     -2584.036          45.650
R08  20440753.563   109459269.70008      -430.635          48.200    20440754.617    85135013.10207      -334.925          46.400
R09  24425263.256   130429547.62605      -128.713          34.550
R10  23097407.237   123122261.13607        67.972          42.700
R11  23623238.400   126235565.75707       152.855          42.550    23623242.193    98183272.45705       118.890          33.200
R20  21452692.971   114717207.71407     -1360.581          44.700    21452697.161    89224488.54807     -1058.233          46.850
R21  20195354.240   108069525.22507      1933.592          47.750    20195354.763    84054146.35007      1503.911          45.800
R22  22716756.846   121263639.86107      3973.127          47.800    22716758.765    94316195.06806      3090.208          41.750
E12  24405378.052   128251172.31748      1519.832          50.850    24405377.235    95772014.79908      1134.929          50.850    24405374.600    98270392.50008      1164.545          52.000    24405375.041    97021195.52508      1149.762          48.750
C11  22620568.365   117791367.79107      2198.031          45.250    22620563.688    91083807.80308      1699.766          49.900
C12  22371813.862   116495931.02107      -590.949          45.950    22371810.246    90082041.44408      -456.985          51.200
C14  22953249.651   119523615.78207     -1577.090          47.150    22953245.898    92423242.98208     -1219.493          51.750
S20  37330229.858   196171762.95607         6.633          46.300
S33  37961012.636   199486455.56307         4.892          47.650
S35  41571087.328   218457529.45106         -.332          41.650
> 2016 01 05 00 09 30.0000000  0 27
G03  24920248.867   130956734.59907       981.710          43.850    24920248.706   102044193.54906       764.960          40.050    24920248.092   102044186.54506       764.961          37.050    24920251.093    97792348.46107       733.170          47.650
G08  24594517.807   129245063.00907      3522.854          45.000    24594518.328   100710444.33506      2745.074          38.800    24594517.124   100710447.30805      2745.073          35.900    24594518.074    96514178.96807      2630.703          47.350
G10  23945423.554   125834124.91307     -2324.646          47.500    23945420.922    98052589.24907     -1811.398          43.300    23945420.896    98052589.24406     -1811.399          39.050    23945420.004    93967068.80508     -1735.868          49.000
G14  20800970.314   109309964.72508     -1342.843          49.450                                                                    20800964.804    85176630.15607     -1046.367          44.650
G16  21613888.012   113581835.11408      -491.588          50.300                                                                    21613885.114    88505225.88107      -383.052          45.250
G21  24125858.972   126782276.01607      -139.129          45.800                                                                    24125853.346    98791375.65705      -108.409          34.750
G22  22478740.790   118126611.61108     -1923.662          49.200                                                                    22478733.365    92046710.48707     -1498.957          42.200
G26  21913115.840   115154316.28008     -1494.794          48.750    21913116.075    89730677.27607     -1164.794          46.700    21913115.603    89730677.27307     -1164.794          44.000    21913114.815    85991920.33408     -1116.571          51.100
G27  21966648.048   115435591.82708      2974.829          49.850    21966645.969    89949843.37408      2318.049          48.300    21966645.141    89949839.37407      2318.049          46.500    21966646.717    86201941.12108      2221.391          52.350
G31  22717025.036   119378775.76608       797.399          49.350    22717024.914    93022423.37507       621.353          45.300    22717024.130    93022419.36707       621.353          44.050
G32  23023055.338   120986942.28108      -161.938          49.200                                                                    23023054.282    94275564.98007      -126.145          42.650
R01  23141965.794   123707020.85407      2381.678          43.750    23141971.132    96216569.59505      1852.416          35.350
R07  21282614.435   113927557.61208     -3328.848          48.000    21282614.316    88610269.14407     -2589.105          44.650
R08  20443226.219   109472512.18507      -452.160          47.750    20443227.300    85145312.96307      -351.689          45.200
R09  24425969.041   130433327.94905      -123.917          32.500    24425971.219   101448140.53214       -96.371          25.800
R10  23096999.069   123120085.79207        76.941          43.900
R11  23622357.530   126230856.27307       161.136          42.650    23622361.066    98179609.57705       125.329          33.300
R20  21460388.471   114758357.18007     -1382.681          43.900    21460392.366    89256503.25717     -1075.426          44.650
R21  20184564.035   108011787.61407      1915.667          47.950    20184564.853    84009239.34407      1489.960          46.100
R22  22694424.588   121144426.59808      3974.283          48.100    22694426.425    94223473.51207      3091.108          43.100
E12  24396721.626   128205684.91948      1512.644          50.800    24396720.674    95738047.39108      1129.555          50.200    24396717.984    98235538.93008      1159.033          51.650    24396718.540    96986785.03807      1144.288          47.950
C11  22607929.855   117725556.19807      2189.231          46.550    22607925.519    91032918.24308      1692.738          50.950
C12  22375261.418   116513883.66007      -605.902          45.900    22375257.870    90095923.60008      -468.526          51.300
C14  22962351.925   119571012.98107     -1582.856          45.900    22962348.102    92459893.66008     -1223.876          50.300
S20  37330191.171   196171562.84507         6.663          46.650
S33  37960983.947   199486303.45207         5.171          46.900
S35  41571090.903   218457538.62206         -.315          41.200
> 2016 01 05 00 10  0.0000000  0 26
G03  24914676.473   130927450.39007       970.640          44.000    24914676.299   102021374.44306       756.336          38.750    24914675.378   102021367.44305       756.334          34.600    24914678.962    97770480.10507       724.662          47.750
G08  24574410.549   129139399.61007      3521.395          43.850    24574411.139   100628109.39006      2743.945          38.150    24574409.688   100628112.36804      2743.946          29.350    24574410.723    96435274.61507      2629.727          45.100
G10  23958676.684   125903772.27107     -2318.624          47.200    23958674.072    98106860.23207     -1806.716          44.200    23958674.005    98106860.23006     -1806.716          40.900    23958673.116    94019078.54808     -1731.311          49.400
G14  20808686.746   109350515.19208     -1360.588          49.050                                                                    20808681.268    85208227.94207     -1060.201          44.600
G16  21616724.700   113596741.78508      -502.338          49.750                                                                    21616721.708    88516841.98407      -391.393          45.000
G21  24126663.401   126786503.20107      -142.796          46.200                                                                    24126657.654    98794669.66306      -111.264          36.500
G22  22489721.111   118184314.33508     -1923.015          49.000                                                                    22489713.913    92091673.87807     -1498.446          43.250
G26  21921660.510   115199218.58308     -1498.417          48.450    21921660.596    89765666.16607     -1167.598          46.150    21921660.166    89765666.16407     -1167.599          43.650    21921659.442    86025451.26308     -1118.905          50.900
G27  21949693.408   115346494.93508      2965.024          49.500    21949691.413    89880417.28008      2310.412          48.050    21949690.526    89880413.27907      2310.412          46.100    21949692.005    86135407.75408      2214.201          52.100
G31  22712466.096   119354818.23908       799.981          48.950    22712465.819    93003755.26707       623.365          45.200    22712464.998    93003751.26607       623.365          43.900
G32  23024004.765   120991936.50508      -171.041          49.550                                                                    23024003.739    94279458.06206      -133.317          41.350
R01  23128647.396   123635826.46807      2364.450          44.250    23128653.064    96161196.01305      1839.011          35.700
R07  21301289.276   114027526.08707     -3335.438          47.650    21301288.954    88688022.27907     -2594.240          45.250
R08  20445819.168   109486399.46708      -473.547          48.000    20445820.441    85156114.57807      -368.297          45.900
R10  23096539.151   123117633.54907        86.395          47.800    23096548.300    95758128.13516        67.187          37.900
R11  23621431.200   126225904.80107       169.142          42.700    23621434.623    98175758.49005       131.557          34.100
R20  21468208.585   114800172.24107     -1404.856          43.500    21468212.489    89289025.65707     -1092.687          45.700
R21  20173874.836   107954588.48108      1897.603          48.300    20173875.804    83964751.02207      1475.914          46.750
R22  22672086.036   121025182.37907      3975.376          45.950    22672088.050    94130728.13206      3091.960          39.700
E12  24388105.475   128160407.71148      1505.921          50.750    24388104.125    95704236.32808      1124.485          50.300    24388101.552    98200845.85608      1153.769          51.600    24388102.530    96952532.97107      1139.149          47.900
C11  22595342.506   117660010.52907      2180.371          46.950    22595338.280    90982233.97208      1686.082          51.350
C12  22378794.661   116532282.74507      -620.662          45.800    22378791.188    90110150.96508      -479.950          51.100
C14  22971487.007   119618582.05807     -1588.625          45.250    22971483.183    92496677.68008     -1228.359          50.600
S20  37330152.095   196171360.40207         6.521          46.350
S33  37960955.313   199486151.97107         5.249          46.350
S35  41571093.098   218457550.06306         -.975          38.450
> 2016 01 05 00 10 30.0000000  0 27
G03  24909168.019   130898503.04107       959.413          43.650    24909167.686   101998817.81306       747.587          38.250    24909166.679   101998810.81805       747.588          35.600    24909171.063    97748863.30007       716.363          47.800
G08  24554311.840   129033780.67307      3519.719          43.650    24554312.453   100545808.97206      2742.647          40.700    24554311.059   100545811.96906      2742.651          36.550    24554311.882    96356403.46907      2628.474          47.150
G10  23971895.778   125973240.24307     -2312.462          46.900    23971893.068    98160991.13807     -1801.921          43.850    23971892.917    98160991.14106     -1801.920          38.800    23971892.443    94070954.02708     -1726.941          48.900
G14  20816504.793   109391600.49808     -1378.270          49.250                                                                    20816499.416    85240242.73807     -1073.967          44.750
G16  21619622.036   113611968.39208      -512.755          50.000                                                                    21619618.768    88528707.56007      -399.537          44.350
G21  24127489.023   126790842.12707      -146.210          44.750                                                                    24127483.289    98798050.73205      -113.927          35.850
G22  22500698.421   118242001.23008     -1922.537          49.600                                                                    22500691.437    92136624.82207     -1498.071          43.500
G26  21930223.148   115244215.16508     -1501.283          49.100    21930223.113    89800728.16308     -1169.826          49.500    21930222.711    89800728.16007     -1169.825          47.650    21930222.099    86059052.34108     -1121.181          52.750
G27  21932794.628   115257692.31908      2955.290          49.400    21932792.897    89811220.45108      2302.827          48.650    21932791.931    89811216.44507      2302.826          47.150    21932793.410    86069094.16008      2206.768          52.450
G31  22707892.542   119330783.94108       802.444          48.700    22707892.147    92985027.34407       625.285          45.200    22707891.284    92985023.34107       625.284          44.600
G32  23025008.815   120997216.25007      -180.544          46.550                                                                    23025007.616    94283572.20507      -140.659          42.250
R01  23115426.729   123565154.63107      2346.956          44.950    23115432.725    96106228.69906      1825.398          36.050
R07  21320000.538   114127688.55007     -3341.906          47.800    21320000.168    88765926.00107     -2599.267          44.400
R08  20448532.093   109500929.46708      -494.955          48.300    20448533.218    85167416.13907      -384.936          46.050
R10  23096027.312   123114905.60807        95.775          45.850
R11  23620458.980   126220709.55607       177.672          42.350    23620462.096    98171717.77905       138.191          33.550
R20  21476152.804   114842653.16007     -1426.986          44.600    21476157.060    89322066.22907     -1109.874          45.650
R21  20163287.224   107897932.30507      1879.493          47.600    20163288.246    83920685.02707      1461.826          46.050
R22  22649742.459   120905910.92107      3976.249          47.650    22649744.618    94037961.61507      3092.651          42.950
E12  24379530.152   128115343.74348      1498.652          50.900    24379528.691    95670584.54808      1119.105          50.850    24379526.057    98166316.21508      1148.285          51.700    24379527.348    96918442.25908      1133.680          48.250
C11  22582806.905   117594733.87807      2171.527          45.600    22582802.763    90931757.90108      1678.996          50.100
C12  22382413.755   116551128.32507      -635.568          45.750    22382410.232    90124723.63908      -491.465          51.000
C14  22980654.285   119666320.28607     -1593.891          45.750    22980650.418    92533592.57308     -1232.536          49.650
S20  37330113.654   196171158.28107         6.640          46.550
S33  37960927.065   199486003.31407         4.829          45.400
S35  41571094.465   218457561.08506         -.015          37.300
S36  39143311.612   205699491.12817          .063          46.750
> 2016 01 05 00 11  0.0000000  0 28
G03  24903723.494   130869892.02407       948.202          43.850    24903723.427   101976523.25806       738.851          38.250    24903722.754   101976516.25305       738.848          33.500    24903726.788    97727497.63507       707.919          47.100
G08  24534221.999   128928209.37807      3518.247          44.250    24534222.734   100463545.95606      2741.509          41.900    24534221.428   100463548.94306      2741.508          36.950    24534222.429    96277568.06608      2627.239          48.400
G10  23985080.754   126042527.58607     -2306.546          47.150    23985077.910    98214981.27807     -1797.297          42.700    23985077.790    98214981.27906     -1797.295          38.750    23985077.261    94122694.56608     -1722.382          49.100
G14  20824424.355   109433219.64808     -1396.128          49.150                                                                    20824418.883    85272673.56507     -1087.883          45.750
G16  21622579.534   113627511.49908      -523.412          48.750                                                                    21622576.143    88540819.15207      -407.847          42.600
G21  24128336.243   126795294.89707      -150.345          45.000                                                                    24128330.552    98801520.59606      -117.145          36.300
G22  22511672.293   118299670.53508     -1921.989          48.200                                                                    22511665.386    92181562.34807     -1497.644          42.650
G26  21938803.426   115289304.48608     -1504.468          49.500    21938803.470    89835862.64308     -1172.321          49.600    21938803.151    89835862.64408     -1172.320          48.050    21938802.487    86092722.87808     -1123.446          52.800
G27  21915952.316   115169186.80108      2945.194          49.250    21915950.857    89742255.12707      2294.957          47.900    21915949.913    89742251.11607      2294.957          46.500    21915951.348    86003002.37508      2199.329          52.300
G31  22703304.677   119306674.78808       804.885          49.000    22703304.201    92966241.10107       627.188          44.800    22703303.306    92966237.09807       627.188          44.100
G32  23026067.973   121002782.88008      -190.415          49.450                                                                    23026066.453    94287892.14515      -148.305          34.250
R01  23102304.485   123495007.80707      2329.495          45.800    23102310.723    96051669.99706      1811.824          36.250
R07  21338747.652   114228041.70907     -3348.231          47.650    21338746.808    88843978.54807     -2604.170          44.700
R08  20451364.370   109516098.81708      -516.213          48.400    20451365.508    85179214.49107      -401.508          46.800
R09  24427939.085   130443826.47216      -110.230          37.300
R10  23095463.428   123111900.48007       104.621          42.500    23095473.920    95753667.83015        81.376          32.650
R11  23619440.543   126215269.33006       185.395          40.900    23619443.842    98167486.51105       144.199          32.750
R20  21484221.463   114885798.86807     -1449.143          42.300    21484225.517    89355624.14506     -1127.116          41.250
R21  20152802.133   107841823.07908      1861.157          48.600    20152802.901    83877044.69907      1447.574          46.750
R22  22627394.221   120786615.63607      3976.828          47.050    22627396.537    93945176.45306      3093.091          40.950
E12  24370995.780   128070495.27348      1491.187          50.850    24370994.362    95637093.99908      1113.638          51.000    24370991.625    98131951.97608      1142.683          51.900    24370992.885    96884514.86508      1128.172          48.600
C11  22570323.497   117529729.08607      2162.226          46.050    22570319.246    90881492.38108      1671.916          51.000
C12  22386118.628   116570420.38107      -650.571          46.150    22386114.988    90139641.56808      -503.047          51.100
C14  22989853.358   119714223.77607     -1599.448          45.700    22989849.194    92570634.58008     -1236.762          50.050
S20  37330074.938   196170955.04607         6.817          46.250
S33  37960898.449   199485852.65607         4.978          44.500
S35  41571097.625   218457571.89305         -.217          35.750
S36  39143311.776   205699487.77607          .427          47.600
> 2016 01 05 00 11 30.0000000  0 27
G03  24898342.976   130841616.65307       936.852          44.050    24898343.120   101954490.25006       730.006          38.150    24898342.407   101954483.24105       730.004          34.600    24898346.010    97706382.59507       699.583          47.050
G08  24514141.928   128822687.93407      3516.676          45.250    24514142.381   100381321.79606      2740.280          40.350    24514141.164   100381324.79405      2740.281          34.900    24514142.510    96198770.03207      2625.974          47.350
G10  23998231.219   126111632.93907     -2300.495          47.150    23998228.203    98268829.69507     -1792.584          43.150    23998228.092    98268829.68806     -1792.583          40.050    23998227.556    94174299.30608     -1717.895          49.350
G14  20832445.293   109475371.81608     -1413.888          49.200                                                                    20832439.913    85305520.06907     -1101.707          45.000
G16  21625597.030   113643368.67308      -533.742          50.150                                                                    21625593.529    88553174.96207      -415.926          43.650
G21  24129205.389   126799862.89207      -154.295          44.850                                                                    24129199.496    98805080.25805      -120.223          35.000
G22  22522642.247   118357319.09008     -1921.292          49.050                                                                    22522635.297    92226483.58407     -1497.099          42.950
G26  21947400.841   115334482.74208     -1507.364          49.750    21947400.763    89871065.92408     -1174.598          49.300    21947400.662    89871065.91907     -1174.598          47.550    21947399.826    86126459.16908     -1125.620          52.550
G27  21899167.214   115080980.99108      2935.254          49.000    21899165.877    89673523.16907      2287.205          47.100    21899164.975    89673519.16807      2287.206          45.350    21899166.359    85937134.22808      2191.828          51.850
G31  22698702.787   119282491.59308       807.408          48.900    22698702.104    92947397.14807       629.153          44.850    22698701.271    92947393.14407       629.153          43.900
G32  23027181.646   121008636.64608      -199.778          49.400                                                                    23027179.899    94292455.45607      -155.627          42.200
R01  23089280.505   123425386.92607      2311.842          46.800    23089287.004    95997520.21306      1798.096          37.800
R07  21357529.236   114328580.22607     -3354.235          46.850    21357528.446    88922175.06607     -2608.860          43.400
R08  20454315.848   109531905.86007      -537.518          47.750    20454317.453    85191508.81307      -418.042          46.600
R10  23094848.175   123108621.38207       114.095          46.250    23094858.267    95751127.46415        88.755          34.700
R11  23618376.073   126209582.76706       193.687          40.850    23618379.046    98163063.66205       150.647          32.300
R20  21492414.212   114929608.12707     -1471.318          42.700    21492418.180    89389697.97807     -1144.351          44.300
R21  20142419.695   107786263.82608      1842.668          48.650    20142420.359    83833831.96107      1433.183          46.700
R22  22605042.198   120667300.38007      3977.393          46.700    22605044.585    93852375.78607      3093.528          42.400
E12  24362502.518   128025863.61848      1484.288          50.800    24362501.063    95603765.39508      1108.287          50.650    24362498.471    98097753.90008      1137.265          51.800    24362499.551    96850751.52408      1122.789          48.350
C11  22557892.356   117464997.72507      2153.143          45.700    22557887.991    90831438.35008      1664.839          51.100
C12  22389909.172   116590158.71607      -665.412          45.900    22389905.502    90154904.63708      -514.559          51.200
C14  22999084.137   119762291.47607     -1605.057          45.050    22999079.768    92607803.58308     -1241.036          50.350
S20  37330035.676   196170748.20107         6.984          46.200
S33  37960869.960   199485703.31907         4.842          47.800
S35  41571099.445   218457582.89005         -.210          34.500
S36  39143308.219   205699479.26307          .092          47.800
> 2016 01 05 00 12  0.0000000  0 27
G03  24893026.328   130813676.22807       925.816          44.850    24893026.490   101932718.21406       721.405          37.550    24893025.749   101932711.22305       721.408          33.900    24893029.728    97685517.66307       691.509          47.300
G08  24494071.357   128717218.87007      3514.550          43.150    24494071.872   100299138.49006      2738.616          40.900    24494070.784   100299141.48906      2738.617          36.600    24494072.123    96120011.07407      2624.576          47.450
G10  24011346.689   126180554.84507     -2294.196          47.100    24011343.455    98322535.24807     -1787.672          42.600    24011343.305    98322535.24006     -1787.673          40.050    24011342.772    94225767.16208     -1713.238          48.900
G14  20840567.198   109518054.33108     -1431.731          49.050                                                                    20840561.677    85338779.24207     -1115.636          43.100
G16  21628674.306   113659537.39508      -544.285          50.050                                                                    21628670.560    88565772.81506      -424.154          41.050
G21  24130096.790   126804547.80307      -158.136          44.850                                                                    24130090.975    98808730.97405      -123.217          34.550
G22  22533607.598   118414944.59408     -1920.494          49.100                                                                    22533600.806    92271386.79507     -1496.480          42.400
G26  21956015.297   115379749.80508     -1510.418          48.650    21956015.214    89906338.91407     -1176.952          46.650    21956015.192    89906338.91007     -1176.952          44.100    21956014.527    86160262.47508     -1127.999          51.050
G27  21882439.835   114993078.18308      2924.991          49.300    21882438.587    89605027.36208      2279.215          48.200    21882437.929    89605023.35607      2279.215          46.150    21882439.212    85871492.38108      2184.296          52.400
G31  22694087.087   119258236.12008       809.702          49.050    22694086.321    92928496.87307       630.941          44.700    22694085.461    92928492.87207       630.941          43.600
G32  23028347.864   121014768.91708      -209.179          48.600                                                                    23028345.940    94297233.56106      -162.977          39.600
R01  23076355.316   123356294.62607      2294.101          45.200    23076362.182    95943781.60205      1784.296          34.300
R07  21376344.512   114429299.79207     -3360.459          47.700    21376344.045    89000512.09807     -2613.703          44.600
R08  20457386.279   109548348.61508      -558.616          48.200    20457387.934    85204297.61507      -434.482          47.400
R09  24429131.434   130450194.97616      -101.740          40.650    24429134.526   101461266.05915       -79.131          31.900
R10  23094181.771   123105068.32208       122.993          48.100    23094191.959    95748359.09616        95.665          37.100
R11  23617265.167   126203648.70706       201.781          40.050    23617268.048    98158448.29805       156.943          32.100
R20  21500730.772   114974080.35907     -1493.551          43.750    21500734.975    89424287.34707     -1161.658          44.650
R21  20132140.410   107731258.51907      1824.227          47.850    20132141.263    83791049.94307      1418.836          46.350
R22  22582687.379   120547969.31707      3977.828          47.650    22582689.749    93759562.80607      3093.872          43.400
E12  24354050.764   127981450.34148      1476.756          50.750    24354049.500    95570599.66608      1102.818          51.050    24354046.737    98063722.97308      1131.602          51.800    24354047.876    96817153.19808      1117.224          48.550
C11  22545514.065   117400542.06207      2144.005          46.050    22545509.391    90781597.53108      1657.821          50.700
C12  22393785.286   116610343.28307      -680.341          46.150    22393781.591    90170512.79008      -526.062          51.000
C14  23008345.860   119810520.97007     -1610.309          44.950    23008341.535    92645097.58208     -1245.154          50.400
S20  37329996.271   196170539.44607         6.812          46.250
S33  37960841.207   199485553.96907         4.783          45.100
S36  39143308.208   205699475.00207         -.194          46.550
> 2016 01 05 00 12 30.0000000  0 26
G03  24887773.613   130786070.20907       914.495          44.550    24887773.332   101911206.78606       712.584          37.000    24887772.227   101911199.76805       712.585          32.000    24887776.737    97664902.48107       683.104          47.300
G08  24474011.396   128611804.93107      3512.778          44.050    24474011.970   100216998.25707      2737.236          42.900    24474010.914   100217001.25806      2737.239          38.850    24474011.952    96041293.49208      2623.355          48.900
G10  24024426.556   126249291.20307     -2287.917          45.900    24024423.270    98376096.05406     -1782.795          41.850    24024422.958    98376096.06206     -1782.793          36.750    24024422.613    94277096.29608     -1708.572          49.200
G14  20848790.073   109561267.69608     -1449.337          49.300                                                                    20848784.629    85372452.26307     -1129.348          45.650
G16  21631811.117   113676017.58708      -554.431          51.200                                                                    21631807.207    88578613.78607      -432.048          45.800
G21  24131010.799   126809351.48607      -161.875          45.450                                                                    24131004.784    98812474.32306      -126.128          36.250
G22  22544568.385   118472545.54908     -1919.611          48.350                                                                    22544561.488    92316270.96406     -1495.800          41.350
G26  21964645.922   115425102.27008     -1513.191          49.200    21964645.731    89941678.48808     -1179.095          48.450    21964645.651    89941678.48807     -1179.096          47.000    21964645.300    86194129.52308     -1129.984          52.400
G27  21865770.804   114905481.33508      2914.763          49.250    21865769.521    89536770.07907      2271.244          47.650    21865768.829    89536766.07907      2271.244          45.700    21865770.277    85806079.19908      2176.622          52.250
G31  22689457.786   119233910.22908       812.060          48.850    22689457.119    92909541.74007       632.778          45.050    22689456.325    92909537.73807       632.779          43.650
G32  23029567.918   121021183.38808      -218.332          49.500                                                                    23029566.066    94302232.27707      -170.102          42.350
R01  23063529.370   123287733.15407      2276.687          45.250    23063536.427    95890456.35505      1770.767          35.450
R07  21395192.735   114530196.75007     -3366.210          47.200    21395192.691    89078987.51807     -2618.163          44.200
R08  20460574.896   109565423.69008      -579.557          48.450    20460576.656    85217577.87208      -450.764          48.600
R09  24429692.473   130453184.70306       -97.292          38.100    24429695.364   101463591.46504       -75.670          28.150
R11  23616107.578   126197465.52406       210.030          40.950    23616110.630    98153639.15905       163.359          32.150
R20  21509171.208   115019214.74407     -1515.409          45.100    21509175.246    89459391.72007     -1178.658          45.850
R21  20121965.994   107676811.48208      1805.562          48.750    20121966.534    83748702.35507      1404.332          46.650
R22  22560330.197   120428626.41608      3978.200          48.650    22560332.967    93666740.71707      3094.165          44.600
E12  24345640.983   127937257.25248      1469.317          51.100    24345640.020    95537598.21108      1097.150          51.700    24345636.860    98029860.62708      1125.806          52.350    24345638.287    96783721.29608      1111.487          49.600
C11  22533188.968   117336364.56707      2134.499          46.850    22533184.141    90731971.94708      1650.597          51.300
C12  22397747.139   116630974.03907      -695.108          46.550    22397743.272    90186466.00408      -537.512          51.000
C14  23017638.446   119858910.99907     -1615.597          45.650    23017634.235    92682516.25508     -1249.245          50.050
S20  37329956.723   196170330.58907         7.036          46.100
S33  37960811.806   199485404.80907         5.152          45.600
S36  39143307.508   205699474.42207          .000          47.150
> 2016 01 05 00 13  0.0000000  0 27
G03  24882584.013   130758798.01307       903.685          44.400    24882583.614   101889955.47706       704.161          38.000    24882582.332   101889948.47305       704.163          33.650    24882587.499    97644536.61507       674.702          47.350
G08  24453962.246   128506447.83607      3510.934          44.200    24453962.878   100134902.11307      2735.800          42.650    24453961.917   100134905.11306      2735.801          38.000    24453962.421    95962618.10908      2621.802          49.300
G10  24037470.827   126317839.85507     -2281.825          45.950    24037467.549    98429510.11406     -1778.060          41.950    24037467.227    98429510.11806     -1778.062          38.650    24037466.968    94328284.70008     -1704.017          49.150
G14  20857113.600   109605009.96408     -1466.909          49.000                                                                    20857108.416    85406537.15007     -1143.046          45.250
G16  21635006.751   113692806.60308      -564.772          50.900                                                                    21635002.661    88591695.53207      -440.091          45.250
G21  24131947.552   126814275.35607      -166.247          44.600                                                                    24131941.439    98816311.26805      -129.544          35.650
G22  22555523.932   118530118.46308     -1918.632          48.250                                                                    22555516.967    92361132.86206     -1495.037          41.200
G26  21973292.207   115470537.23908     -1515.864          49.950    21973291.705    89977081.94608     -1181.200          48.600    21973291.472    89977081.95107     -1181.199          46.950    21973291.582    86228057.86008     -1131.997          52.700
G27  21849160.417   114818193.03008      2904.462          48.450    21849159.133    89468753.22007      2263.214          46.700    21849158.586    89468749.21907      2263.214          44.300    21849159.848    85740896.33908      2168.923          51.500
G31  22684815.451   119209515.07208       814.305          49.000    22684814.871    92890532.63907       634.528          45.000    22684814.038    92890528.63607       634.528          43.900
G32  23030841.106   121027875.50207      -227.812          46.600                                                                    23030839.142    94307446.60506      -177.545          38.200
R01  23050802.793   123219702.59607      2258.893          45.700    23050809.549    95837543.84205      1756.910          35.600
R07  21414073.430   114631267.10107     -3371.905          47.350    21414073.705    89157598.16607     -2622.572          44.650
R08  20463881.642   109583130.01507      -600.798          44.750    20463883.510    85231349.27007      -467.323          42.450
R09  24430230.078   130456050.88506       -93.509          39.650
R10  23092694.843   123097061.92318       141.227          48.200    23092704.697    95742190.65116       109.823          39.000
R11  23614903.444   126191031.88606       218.607          40.950    23614906.535    98148635.23905       170.028          31.500
R20  21517735.334   115065010.13007     -1537.697          43.400    21517739.430    89495009.88407     -1196.004          44.350
R21  20111896.258   107622926.08408      1786.720          48.850    20111896.722    83706791.62507      1389.670          46.500
R22  22537971.825   120309275.54307      3978.450          47.900    22537974.399    93573912.24707      3094.348          44.300
E12  24337273.643   127893286.46748      1462.177          50.200    24337272.801    95504762.80508      1091.722          51.400    24337269.548    97996168.66108      1120.174          51.950    24337271.076    96750457.61608      1105.922          48.800
C11  22520917.645   117272466.93107      2125.255          45.900    22520912.512    90682562.59608      1643.329          50.550
C12  22401794.584   116652050.57407      -710.093          46.200    22401790.572    90202763.88708      -549.054          50.950
C14  23026961.211   119907457.97707     -1620.983          45.550    23026956.842    92720056.02708     -1253.398          50.150
S20  37329916.096   196170120.46607         7.223          46.200
S33  37960782.033   199485256.12707         5.122          47.750
S36  39143306.825   205699469.99507          .409          46.450
> 2016 01 05 00 13 30.0000000  0 27
G03  24877457.941   130731858.72007       892.382          43.950    24877457.489   101868963.56006       695.357          37.300    24877456.189   101868956.55005       695.353          35.150    24877461.038    97624419.30407       666.422          46.500
G08  24433924.248   128401150.03407      3509.063          42.700    24433925.087   100052851.79406      2734.334          40.800    24433924.280   100052854.78505      2734.333          34.700    24433924.729    95883986.53107      2620.243          47.300
G10  24050479.490   126386200.54307     -2275.724          45.550    24050476.184    98482777.96106     -1773.301          40.350    24050475.844    98482777.95706     -1773.301          37.150    24050475.564    94379332.96407     -1699.181          47.300
G14  20865538.085   109649281.44708     -1484.511          49.800                                                                    20865532.867    85441034.78407     -1156.747          46.000
G16  21638260.737   113709901.98608      -575.016          50.050                                                                    21638256.400    88605016.05307      -448.087          43.050
G21  24132907.203   126819320.80007      -170.360          42.300                                                                    24132901.472    98820242.88206      -132.746          36.500
G22  22566474.177   118587663.24308     -1917.660          48.750                                                                    22566467.099    92405973.31307     -1494.272          42.350
G26  21981953.878   115516052.58808     -1518.373          48.600    21981953.186    90012548.03307     -1183.167          45.900    21981952.703    90012548.03107     -1183.168          43.250    21981953.169    86262045.95608     -1133.800          51.500
G27  21832609.421   114731216.37008      2893.935          48.750    21832608.024    89400979.22107      2255.017          46.750    21832607.365    89400975.22107      2255.017          44.750    21832608.888    85675946.26808      2161.123          51.700
G31  22680160.292   119185052.19608       816.581          49.350    22680159.669    92871470.79307       636.302          45.100    22680158.804    92871466.78807       636.302          43.850
G32  23032167.303   121034844.57008      -236.662          48.050                                                                    23032165.342    94312876.63506      -184.413          41.750
R01  23038176.099   123152204.39607      2241.136          47.200    23038182.446    95785044.80806      1743.083          36.200
R07  21432985.477   114732505.56507     -3377.365          47.650    21432985.713    89236339.36107     -2626.834          43.950
R08  20467305.782   109601464.87608      -621.631          48.150    20467307.651    85245609.46207      -483.479          47.100
R09  24430744.637   130458795.60006       -89.713          38.800
R10  23091875.287   123092690.12407       150.339          47.050    23091885.149    95738790.12506       116.915          37.050
R11  23613652.494   126184346.63707       226.977          42.100    23613655.005    98143435.62005       176.540          32.150
R20  21526423.241   115111466.96707     -1559.496          45.300    21526427.657    89531142.91507     -1212.924          46.550
R21  20101932.258   107569606.46708      1767.843          48.900    20101932.682    83665321.11907      1375.002          46.450
R22  22515612.584   120189920.40108      3978.437          48.400    22515615.102    93481080.53007      3094.344          43.850
E12  24328948.927   127849540.59348      1454.341          50.950    24328948.294    95472095.74708      1086.132          51.800    24328945.056    97962649.37808      1114.414          52.350    24328946.250    96717364.43908      1100.296          49.550
C11  22508700.480   117208851.22307      2115.847          46.150    22508695.150    90633370.94808      1636.121          50.650
C12  22405927.685   116673572.84807      -724.958          46.400    22405923.517    90219406.37408      -560.468          50.800
C14  23036313.578   119956159.90107     -1625.878          44.200    23036309.336    92757715.64008     -1257.288          49.200
S20  37329875.815   196169906.64507         7.187          46.600
S33  37960753.216   199485108.29707         4.590          45.950
S36  39143304.968   205699459.74308          .161          48.550
> 2016 01 05 00 14  0.0000000  0 27
G03  24872395.070   130705251.70007       881.284          44.100    24872394.624   101848230.56106       686.706          37.750    24872393.069   101848223.55505       686.703          34.800    24872398.056    97604550.13807       658.289          46.750
G08  24413898.577   128295915.01607      3506.841          45.650    24413899.499    99970850.53707      2732.609          42.350    24413898.642    99970853.53706      2732.610          37.600    24413899.102    95805402.03508      2618.687          48.500
G10  24063452.208   126454371.65407     -2268.999          45.050    24063448.774    98535898.21506     -1768.053          41.550    24063448.418    98535898.20506     -1768.053          36.650    24063448.300    94430239.84908     -1694.499          48.400
G14  20874062.885   109694079.96608     -1501.878          49.100                                                                    20874057.628    85475942.95807     -1170.294          44.850
G16  21641572.306   113727301.21808      -584.912          50.050                                                                    21641567.993    88618573.52306      -455.792          41.300
G21  24133890.603   126824490.15807      -174.274          43.150                                                                    24133884.873    98824271.09405      -135.790          35.850
G22  22577418.467   118645176.29908     -1916.396          48.650                                                                    22577411.036    92450788.89306     -1493.283          41.600
G26  21990630.800   115561647.14808     -1521.020          49.400    21990629.848    90048076.07707     -1185.219          46.800    21990629.358    90048076.07307     -1185.221          44.700    21990629.934    86296093.65408     -1135.880          51.850
G27  21816118.132   114644554.02108      2883.494          49.550    21816116.728    89333450.18608      2246.884          48.650    21816115.922    89333446.18207      2246.884          47.100    21816117.583    85611230.97108      2153.219          52.500
G31  22675492.465   119160523.33308       818.873          48.700    22675491.846    92852357.55907       638.089          44.900    22675491.031    92852353.55407       638.089          44.050
G32  23033546.021   121042087.33407      -246.079          47.100                                                                    23033544.050    94318518.99906      -191.793          39.400
R01  23025649.468   123085239.25007      2223.432          47.300    23025655.611    95732959.42606      1729.292          37.150
R07  21451928.038   114833907.75907     -3382.747          46.800    21451928.355    89315207.88107     -2631.031          43.550
R08  20470847.036   109620426.50907      -642.356          47.750    20470848.798    85260357.59007      -499.590          47.100
R09  24431236.477   130461421.13506       -85.426          36.550
R10  23091004.723   123088047.78507       159.370          45.850    23091014.219    95735179.25705       123.935          30.950
R11  23612354.257   126177408.48406       235.533          40.900    23612356.854    98138039.29305       183.192          32.650
R20  21535234.275   115158583.28107     -1581.543          43.250    21535238.406    89567788.82907     -1230.095          42.000
R21  20092074.669   107516856.11908      1748.839          49.200    20092074.692    83624293.41907      1360.213          46.350
R22  22493253.280   120070565.26108      3978.471          48.450    22493255.943    93388248.82007      3094.362          43.250
E12  24320667.185   127806020.25148      1446.794          50.500    24320666.495    95439596.93008      1080.375          51.250    24320663.368    97929302.74208      1108.637          52.200    24320664.471    96684441.71208      1094.540          49.200
C11  22496538.171   117145520.03207      2106.320          46.250    22496532.763    90584399.23708      1628.711          51.150
C12  22410146.214   116695540.48707      -739.610          45.900    22410141.901    90236393.13008      -571.919          50.800
C14  23045695.365   120005015.08107     -1630.960          45.050    23045691.341    92795493.94308     -1261.184          49.800
S20  37329834.817   196169690.90607         7.269          46.400
S33  37960724.840   199484960.17107         5.132          45.300
S36  39143303.454   205699449.44307          .603          46.500
> 2016 01 05 00 14 30.0000000  0 27
G03  24867395.425   130678976.45907       870.215          44.500    24867394.838   101827756.11206       678.081          38.700    24867393.405   101827749.12905       678.085          32.550    24867398.413    97584928.76707       649.918          47.850
G08  24393885.342   128190744.93207      3504.507          43.500    24393886.365    99888899.92306      2730.789          41.300    24393885.606    99888902.90905      2730.788          35.900    24393885.370    95726866.02407      2617.038          47.600
G10  24076388.217   126522351.57507     -2262.746          44.700    24076384.958    98588869.59006     -1763.186          40.350    24076384.819    98588869.58606     -1763.185          37.000    24076384.739    94481004.10107     -1689.810          47.550
G14  20882687.780   109739404.53508     -1519.612          49.550                                                                    20882682.431    85511260.83407     -1184.118          44.800
G16  21644941.017   113745001.87108      -595.091          50.350                                                                    21644936.964    88632365.84907      -463.726          43.400
G21  24134897.865   126829785.06907      -178.571          44.200                                                                    24134892.190    98828397.07305      -139.145          34.550
G22  22588356.509   118702656.37608     -1915.394          48.800                                                                    22588348.725    92495578.90906     -1492.501          40.800
G26  21999322.067   115607318.12407     -1523.581          46.650    21999320.998    90083663.77007     -1187.191          43.250    21999320.755    90083663.76606     -1187.191          39.500    21999321.299    86330198.54808     -1137.667          49.000
G27  21799687.409   114558208.87308      2872.883          48.800    21799685.761    89266168.32207      2238.616          47.700    21799685.095    89266164.31607      2238.616          45.350    21799686.573    85546752.51208      2145.345          52.250
G31  22670812.424   119135930.38908       820.756          49.000    22670811.930    92833194.41807       639.557          44.850    22670811.125    92833190.40907       639.557          43.750
G32  23034977.235   121049606.17208      -255.145          49.150                                                                    23034975.431    94324377.71707      -198.836          43.350
R01  23013223.636   123018811.19107      2205.339          45.650    23013229.850    95681291.98206      1715.243          37.650
R07  21470900.630   114935469.48407     -3388.033          47.650    21470900.687    89394200.51007     -2635.130          44.050
R08  20474504.686   109640012.42007      -663.378          46.600    20474506.385    85275591.58307      -515.917          44.400
R09  24431705.457   130463929.56306       -81.598          36.900    24431706.149   101471967.08514       -63.461          26.900
R10  23090083.473   123083135.02305       168.413          35.950    23090093.002                                          27.000
R11  23611008.701   126170216.29606       243.965          40.550    23611011.177    98132445.36605       189.750          33.250
R20  21544168.266   115206358.29107     -1603.361          44.950    21544172.497    89604946.88507     -1247.092          44.650
R21  20082323.983   107464678.31908      1729.594          48.700    20082323.621    83583710.92307      1345.246          46.550
R22  22470894.756   119951214.20807      3978.200          47.850    22470897.107    93295420.34407      3094.160          43.300
E12  24312428.622   127762727.72648      1439.427          49.800    24312427.938    95407268.26408      1074.833          50.850    24312425.030    97896130.70408      1102.876          51.650    24312425.933    96651691.36508      1088.857          48.050
C11  22484431.201   117082475.65207      2096.627          45.800    22484425.648    90535649.22408      1621.244          50.200
C12  22414450.394   116717953.36407      -754.522          46.100    22414445.968    90253724.11308      -583.430          50.650
C14  23055106.209   120054020.70807     -1636.060          45.600    23055101.975    92833388.63608     -1265.068          49.800
S20  37329793.505   196169474.56407         7.031          46.650
S33  37960696.887   199484812.43307         4.523          46.900
S36  39143304.135   205699445.92207          .077          46.650
> 2016 01 05 00 15  0.0000000  0 27
G03  24862458.275   130653032.04507       859.693          44.250    24862458.144   101807539.48406       669.885          39.050    24862457.141   101807532.47805       669.887          32.800    24862461.754    97565554.43407       641.701          47.050
G08  24373884.917   128085643.38407      3502.223          44.700    24373886.266    99807002.99507      2729.014          43.200    24373885.374    99807005.98706      2729.015          38.500    24373885.044    95648381.54008      2615.334          49.600
G10  24089287.623   126590138.32507     -2256.088          45.550    24089284.602    98641690.24506     -1757.989          41.750    24089284.325    98641690.22306     -1757.987          37.600    24089284.432    94531623.81808     -1684.823          48.700
G14  20891412.687   109785253.95408     -1537.018          48.950                                                                    20891407.377    85546987.57007     -1197.677          44.350
G16  21648366.586   113763001.69308      -604.905          50.550                                                                    21648362.585    88646391.40407      -471.366          43.100
G21  24135929.371   126835207.03107      -182.446          42.850                                                                    24135924.070    98832622.05705      -142.158          33.150
G22  22599287.756   118760100.84208     -1914.131          49.300                                                                    22599279.974    92540341.11407     -1491.522          42.450
G26  22008027.119   115653063.69708     -1525.834          50.650    22008026.193    90119309.91308     -1188.951          50.150    22008026.153    90119309.91808     -1188.951          49.300    22008026.637    86364359.49108     -1139.556          53.100
G27  21783317.372   114472183.61608      2862.171          50.250    21783315.678    89199135.65608      2230.264          48.550    21783314.914    89199131.65107      2230.265          47.100    21783316.488    85482512.88508      2137.362          52.650
G31  22666120.382   119111274.45608       822.953          48.750    22666119.950    92813982.24007       641.272          44.850    22666119.129    92813978.23307       641.272          43.600
G32  23036460.072   121057395.19807      -263.947          46.650                                                                    23036458.069    94330446.31306      -205.705          40.800
R01  23000898.635   122952921.72707      2187.477          46.550    23000904.855    95630043.83106      1701.352          37.050
R07  21489902.365   115037186.25007     -3393.072          47.950    21489901.946    89473313.58707     -2639.045          44.300
R08  20478278.107   109660219.99907      -683.932          47.200    20478279.587    85291309.47107      -531.901          46.450
R09  24432153.135   130466323.53806       -77.994          37.350    24432155.355   101473814.15114       -60.657          27.550
R10  23089111.310   123077952.78207       177.384          44.500    23089120.122    95727325.13415       137.948          33.150
R11  23609615.342   126162768.53906       252.476          41.150    23609617.831    98126652.68505       196.370          33.950
R20  21553225.875   115254791.24907     -1625.576          43.350    21553230.398    89642616.67307     -1264.339          43.300
R21  20072680.792   107413076.30608      1710.608          49.350    20072680.291    83543576.01207      1330.475          47.500
R22  22448537.599   119831870.88708      3978.040          48.900    22448539.961    93202597.79207      3094.029          45.350
E12  24304233.863   127719664.46048      1431.514          50.050    24304233.242    95375110.58308      1069.098          51.000    24304230.327    97863134.12808      1096.945          51.850    24304231.278    96619114.23408      1083.015          48.550
C11  22472379.814   117019719.79307      2086.964          46.100    22472374.300    90487121.95708      1613.856          50.350
C12  22418840.065   116740811.87807      -769.384          45.600    22418835.748    90271399.88108      -594.850          50.650
C14  23064545.724   120103175.16007     -1640.807          47.450    23064541.099    92871398.79208     -1268.709          51.450
S20  37329752.428   196169257.35507         7.825          46.050
S33  37960668.927   199484664.43607         4.893          47.300
S36  39143303.667   205699441.79907          .138          46.500
> 2016 01 05 00 15 30.0000000  0 27
G03  24857583.896   130627417.74507       848.265          43.750    24857584.285   101787580.07106       660.977          38.100    24857583.334   101787573.08106       660.976          36.600    24857587.370    97546426.58907       633.675          46.300
G08  24353897.782   127980611.59807      3499.865          44.800    24353898.896    99725160.27207      2727.173          42.050    24353897.950    99725163.26306      2727.173          36.900    24353897.983    95569948.99308      2613.575          48.750
G10  24102150.065   126657731.13907     -2249.866          45.350    24102147.340    98694359.99707     -1753.141          42.800    24102147.257    98694359.98506     -1753.141          37.950    24102147.170    94582099.01308     -1680.088          48.600
G14  20900237.409   109831627.68308     -1554.458          50.000                                                                    20900231.991    85583122.89507     -1211.268          46.100
G16  21651848.578   113781298.39308      -614.777          50.650                                                                    21651844.646    88660648.34307      -479.058          43.250
G21  24136985.474   126840757.53807      -186.916          42.300                                                                    24136980.244    98836947.14905      -145.652          35.650
G22  22610211.801   118817507.35708     -1912.759          48.350                                                                    22610204.064    92585073.59906     -1490.457          38.900
G26  22016745.328   115698878.13708     -1528.341          50.050    22016744.386    90155008.34508     -1190.942          50.300    22016744.349    90155008.34908     -1190.943          49.450    22016744.883    86398570.19408     -1141.085          53.300
G27  21767009.035   114386481.28008      2851.450          50.200    21767007.077    89132354.65208      2221.908          48.850    21767006.380    89132350.64807      2221.907          47.350    21767007.678    85418514.43608      2129.250          52.650
G31  22661416.869   119086557.84408       824.924          49.050    22661416.312    92794722.77907       642.804          45.200    22661415.527    92794718.77507       642.805          44.350
G32  23037994.441   121065454.02008      -273.013          49.650                                                                    23037992.395    94336724.98006      -212.705          40.150
R01  22988674.545   122887573.17707      2169.384          46.250    22988680.906    95579216.83406      1687.291          36.200
R07  21508932.127   115139054.50808     -3397.944          48.300    21508931.788    89552544.78307     -2642.826          44.500
R08  20482166.928   109681046.69108      -704.557          48.350    20482168.260    85307509.12607      -547.974          46.000
R09  24432579.549   130468605.17905       -74.101          35.250    24432584.956   101475588.92504       -57.629          27.650
R10  23088089.095   123072503.25906       186.304          41.400    23088098.557    95723097.71915       144.893          32.250
R11  23608173.417   126155063.96906       261.159          40.850    23608176.074    98120660.25405       203.126          33.500
R20  21562406.179   115303881.53907     -1647.227          45.450    21562410.671    89680797.92307     -1281.168          46.150
R21  20063146.011   107362054.80908      1691.085          49.350    20063145.677    83503892.80307      1315.297          46.600
R22  22426182.729   119712539.52507      3977.507          46.500    22426185.519    93109784.59406      3093.622          39.400
E12  24296083.204   127676832.76348      1423.796          50.000    24296082.670    95343125.95108      1063.228          50.550    24296079.699    97830315.10808      1090.889          51.600    24296080.631    96586712.40907      1077.010          47.950
C11  22460384.635   116957256.09207      2077.054          46.050    22460379.294    90438820.94008      1606.286          50.650
C12  22423314.964   116764115.74307      -784.250          45.400    22423310.961    90289420.19708      -606.374          50.950
C14  23074012.692   120152473.98707     -1645.750          45.200    23074007.769    92909519.84008     -1272.515          49.600
S20  37329709.991   196169036.13207         7.353          46.650
S33  37960641.266   199484517.62607         5.191          44.650
S36  39143302.252   205699435.44107          .452          47.650
> 2016 01 05 00 16  0.0000000  0 28
G03  24852772.500   130602132.83907       837.137          44.600    24852773.199   101767877.29806       652.304          39.600    24852772.015   101767870.31105       652.306          35.000    24852775.734    97527544.68807       625.251          47.200
G08  24333924.708   127875652.79607      3497.459          44.850    24333925.552    99643374.36907      2725.301          43.200    24333924.643    99643377.36606      2725.301          37.850    24333924.771    95491570.87308      2611.725          49.100
G10  24114975.208   126725127.87107     -2243.287          45.250    24114972.649    98746876.82307     -1748.024          43.100    24114972.516    98746876.81106     -1748.024          39.950    24114972.367    94632427.59408     -1675.228          49.150
G14  20909161.741   109878525.03008     -1571.794          49.600                                                                    20909156.159    85619666.66407     -1224.758          46.150
G16  21655386.514   113799889.88408      -624.565          50.100                                                                    21655382.755    88675135.15207      -486.671          44.050
G21  24138066.606   126846438.88407      -191.340          43.850                                                                    24138061.379    98841374.22506      -149.095          36.750
G22  22621128.265   118874874.90808     -1911.550          49.200                                                                    22621120.527    92629776.04507     -1489.491          43.700
G26  22025477.072   115744760.67008     -1530.643          50.500    22025476.120    90190759.20408     -1192.748          49.050    22025475.897    90190759.20208     -1192.748          48.000    22025477.030    86432831.12308     -1142.879          52.900
G27  21750762.214   114301104.78308      2840.341          49.400    21750760.505    89065827.64608      2213.257          48.100    21750759.839    89065823.64707      2213.258          46.650    21750760.958    85354759.39408      2121.039          52.100
G29  24571556.581   129124403.58718     -3253.640          49.150    24571556.012   100616415.42617     -2535.287          44.250    24571555.484   100616413.42417     -2535.292          44.300
G31  22656702.001   119061781.30408       827.030          48.800    22656701.201    92775416.56407       644.445          45.050    22656700.359    92775412.56307       644.445          43.800
G32  23039580.415   121073783.12808      -282.020          50.000                                                                    23039578.007    94343215.28407      -219.721          44.600
R01  22976551.747   122822766.51307      2151.160          46.500    22976558.237    95528811.57806      1673.127          36.250
R07  21527989.262   115241069.19207     -3402.934          47.800    21527989.134    89631889.61907     -2646.735          44.050
R08  20486170.381   109702487.51808      -724.755          48.800    20486171.301    85324185.41807      -563.713          47.050
R09  24432985.679   130470776.42106       -70.480          37.200
R10  23087016.623   123066785.41908       195.084          49.300    23087026.389    95718656.16216       151.710          40.100
R11  23606683.394   126147101.73906       269.694          40.400    23606686.180    98114467.37905       209.760          33.400
R20  21571708.975   115353626.96906     -1669.037          41.800    21571713.195    89719488.41406     -1298.151          40.700
R21  20053720.562   107311617.41508      1671.582          49.450    20053720.155    83464664.05407      1300.119          46.750
R22  22403830.885   119593224.31008      3976.975          48.800    22403833.377    93016983.97807      3093.205          43.500
E12  24287976.988   127634234.49948      1416.378          50.000    24287976.419    95311315.81708      1057.454          50.500    24287973.489    97797675.11108      1085.056          51.450    24287974.290    96554487.34307      1071.265          47.750
C11  22448445.815   116895086.58707      2067.343          45.400    22448440.689    90390747.74608      1598.601          50.800
C12  22427875.310   116787863.93307      -798.930          46.200    22427871.442    90307783.93708      -617.785          51.400
C14  23083507.521   120201917.38707     -1650.420          46.850    23083502.466    92947753.23508     -1276.336          50.700
S20  37329667.936   196168813.30407         7.374          45.900
S33  37960613.197   199484369.24707         4.987          46.950
S36  39143301.228   205699434.02607          .131          47.100
> 2016 01 05 00 16 30.0000000  0 28
G03  24848023.825   130577176.49507       826.577          44.550    24848024.127   101748430.50506       644.077          37.850    24848023.010   101748423.50605       644.077          35.250    24848026.620    97508908.12807       617.119          47.050
G08  24313965.947   127770769.27707      3494.625          42.800    24313966.811    99561646.99706      2723.090          41.500    24313965.994    99561649.98306      2723.090          38.300    24313966.013    95413248.80907      2609.875          47.400
G10  24127762.949   126792327.18307     -2236.661          45.600    24127760.463    98799239.69306     -1742.871          40.100    24127760.183    98799239.68105     -1742.872          35.800    24127759.888    94682608.68907     -1670.377          46.400
G14  20918185.233   109925943.54208     -1589.267          49.750                                                                    20918179.405    85656616.38607     -1238.388          45.800
G16  21658979.842   113818773.45008      -634.342          50.050                                                                    21658976.380    88689849.45207      -494.295          43.800
G21  24139173.017   126852252.28707      -195.603          43.300                                                                    24139167.560    98845904.15805      -152.416          35.050
G22  22632036.525   118932200.67508     -1910.137          49.150                                                                    22632028.742    92674446.00507     -1488.412          44.050
G26  22034222.131   115790711.70407     -1532.904          47.300    22034221.455    90226564.17107     -1194.477          46.750    22034220.962    90226564.16107     -1194.477          44.250    22034222.866    86467144.03408     -1144.675          52.000
G27  21734578.172   114216056.85108      2829.425          49.550    21734576.360    88999556.64907      2204.753          47.850    21734575.646    88999552.65107      2204.753          46.350    21734576.760    85291249.75608      2112.872          52.200
G29  24590149.937   129222112.94805     -3260.380          35.900
G31  22651975.888   119036946.56308       828.774          48.050    22651974.982    92756064.94307       645.801          44.600    22651974.158    92756060.94307       645.801          43.800
G32  23041216.594   121082379.42607      -291.004          47.750                                                                    23041214.113    94349914.53606      -226.728          39.800
R01  22964530.120   122758503.74607      2132.979          46.400    22964536.695    95478829.91605      1658.997          35.800
R07  21547072.839   115343225.68907     -3407.542          47.400    21547072.805    89711344.56307     -2650.308          43.950
R08  20490288.367   109724541.20008      -745.253          48.800    20490289.337    85341338.06107      -579.640          47.550
R09  24433372.552   130472840.27305       -66.923          35.850
R10  23085894.174   123060800.75306       203.899          38.200
R11  23605144.784   126138880.71106       278.552          40.800    23605147.847    98108073.28105       216.652          33.600
R20  21581134.263   115404027.54407     -1690.932          43.500    21581138.776    89758688.50007     -1315.173          44.400
R21  20044404.787   107261766.59708      1651.830          49.650    20044404.142    83425891.29707      1284.764          46.550
R22  22381482.659   119473928.76308      3976.135          48.800    22381485.028    92924198.63007      3092.551          42.500
E12  24279915.437   127591870.73948      1407.964          49.850    24279914.749    95279680.47008      1051.568          50.600    24279911.774    97765214.50208      1078.983          51.650    24279912.635    96522439.36708      1065.267          48.100
C11  22436563.620   116833212.73707      2057.542          46.800    22436558.557    90342902.99208      1591.059          51.100
C12  22432520.990   116812056.24007      -813.845          45.750    22432517.154    90326490.91408      -629.224          51.000
C14  23093029.520   120251500.78007     -1654.930          45.000    23093023.941    92986094.29808     -1279.830          49.550
S20  37329626.273   196168590.14707         7.511          46.200
S33  37960586.106   199484222.14107         4.759          43.300
S36  39143299.186   205699427.16907          .352          47.200
> 2016 01 05 00 17  0.0000000  0 28
G03  24843337.442   130552547.89007       815.402          44.800    24843337.757   101729239.04506       635.366          39.750    24843336.682   101729232.04406       635.368          36.000    24843340.319    97490516.24007       609.060          47.100
G08  24294022.076   127665963.90707      3492.299          44.950    24294023.051    99479980.63107      2721.269          43.300    24294022.347    99479983.61706      2721.269          38.550    24294021.767    95334985.21308      2607.836          48.550
G10  24140513.261   126859327.51107     -2230.051          47.150    24140510.412    98851447.43107     -1737.714          43.550    24140510.041    98851447.42906     -1737.712          39.850    24140509.756    94732640.98008     -1665.227          48.900
G14  20927307.725   109973882.33808     -1606.620          50.550                                                                    20927301.689    85693971.14507     -1251.918          47.350
G16  21662628.427   113837947.46608      -643.906          50.550                                                                    21662625.111    88704790.53107      -501.734          44.400
G21  24140304.691   126858199.52107      -200.344          44.850                                                                    24140299.190    98850538.41906      -156.113          36.400
G22  22642936.413   118989481.45907     -1908.690          47.350                                                                    22642928.614    92719080.27906     -1487.292          41.250
G26  22042979.794   115836729.86408     -1534.972          49.250    22042979.449    90262422.63007     -1196.072          47.500    22042979.028    90262422.62707     -1196.072          45.300    22042981.089    86501508.35408     -1146.214          51.950
G27  21718456.886   114131340.70208      2818.360          50.300    21718455.351    88933544.48908      2196.141          49.000    21718454.745    88933540.48507      2196.142          47.650    21718455.635    85227988.14408      2104.633          52.500
G29  24608779.676   129320016.04406     -3266.547          41.300    24608780.035   100768838.61015     -2545.340          34.650    24608780.427   100768843.60015     -2545.339          32.600
G31  22647238.965   119012055.47108       830.673          48.650    22647238.105    92736669.37107       647.279          45.000    22647237.215    92736665.37507       647.279          43.950
G32  23042902.804   121091240.91008      -299.555          50.100                                                                    23042900.177    94356820.46407      -233.357          46.000
R01  22952609.882   122694784.29307      2115.009          46.400    22952616.540    95429270.49806      1645.000          36.350
R07  21566182.565   115445521.67507     -3412.016          46.700    21566182.546    89790908.71107     -2653.761          44.050
R08  20494520.584   109747205.67408      -765.558          48.550    20494521.835    85358965.89607      -595.436          47.200
R09  24433738.722   130474798.70805       -63.605          33.650
R10  23084721.828   123054550.55607       212.751          43.550    23084732.037    95709137.29915       165.484          31.300
R11  23603557.377   126130399.08006       287.156          40.950    23603560.224    98101476.46405       223.343          33.250
R20  21590681.925   115455082.16107     -1712.594          44.500    21590686.663    89798397.48307     -1332.026          43.800
R21  20035199.197   107212507.12608      1632.067          48.750    20035198.770    83387578.67707      1269.390          46.000
R22  22359139.148   119354657.19308      3975.272          48.200    22359141.407    92831431.88107      3091.879          42.900
E12  24271898.929   127549743.72148      1400.341          50.700    24271898.152    95248221.90308      1045.683          50.800    24271895.110    97732935.27708      1073.068          51.850    24271896.181    96490570.46908      1059.388          48.550
C11  22424738.670   116771636.65207      2047.611          46.100    22424733.576    90295288.38408      1583.262          50.800
C12  22437251.898   116836692.66107      -828.540          44.950    22437248.330    90345541.27108      -640.750          50.600
C14  23102578.039   120301223.58807     -1659.715          45.250    23102572.364    93024543.35608     -1283.309          49.900
S20  37329583.039   196168365.83707         7.330          46.400
S33  37960558.413   199484074.96607         5.180          43.650
S36  39143297.930   205699420.13307          .255          47.000
> 2016 01 05 00 17 30.0000000  0 28
G03  24838713.392   130528246.32207       804.541          44.750    24838713.828   101710302.42906       626.904          40.350    24838712.837   101710295.42706       626.903          36.100    24838716.111    97472368.58107       600.926          47.100
G08  24274093.421   127561238.49507      3489.395          45.300    24274094.394    99398376.38107      2719.012          43.850    24274093.614    99398379.38706      2719.014          39.100    24274093.025    95256781.14708      2605.857          49.000
G10  24153225.801   126926127.83307     -2223.402          47.550    24153222.370    98903499.44207     -1732.525          43.600    24153221.885    98903499.42806     -1732.525          39.000    24153221.863    94782524.11608     -1660.287          49.450
G14  20936529.019   110022340.54908     -1623.975          50.150                                                                    20936522.828    85731730.96407     -1265.428          45.950
G16  21666331.644   113857409.10308      -653.492          49.700                                                                    21666328.387    88719956.03607      -509.191          42.650
G21  24141462.385   126864282.37307      -204.879          44.000                                                                    24141456.517    98855278.34305      -159.649          35.350
G22  22653827.953   119046716.11208     -1907.022          48.600                                                                    22653819.925    92763678.64607     -1485.996          42.250
G26  22051749.093   115882811.38907     -1537.073          47.950    22051749.104    90298330.93107     -1197.680          47.150    22051749.023    90298330.92607     -1197.681          44.000    22051750.593    86535920.48408     -1147.745          51.550
G27  21702399.401   114046958.50808      2806.983          49.650    21702397.679    88867792.45708      2187.262          48.000    21702397.098    88867788.44607      2187.262          46.350    21702397.977    85164975.83808      2096.261          52.050
G29  24627445.988   129418109.39806     -3273.015          41.700    24627445.797   100845277.20116     -2550.393          41.100    24627445.555   100845280.21606     -2550.392          38.200
G31  22642491.929   118987109.85008       832.477          48.950    22642490.983    92717231.33907       648.691          45.100    22642490.155    92717227.33507       648.690          44.300
G32  23044638.186   121100365.80508      -308.702          48.450                                                                    23044635.484    94363932.32307      -240.509          42.550
R01  22940791.587   122631610.25707      2096.639          45.900    22940798.211    95380135.04005      1630.702          35.650
R07  21585316.720   115547951.34707     -3416.564          47.600    21585316.767    89870576.89007     -2657.319          44.700
R08  20498866.640   109770479.08408      -785.828          48.550    20498867.836    85377067.69807      -611.203          46.200
R09  24434085.293   130476654.05106       -60.245          37.700    24434086.190   101481849.82914       -46.849          28.150
R10  23083499.969   123048044.56917       221.641          47.550    23083510.358    95704074.80815       172.375          35.800
R11  23601921.337   126121656.09006       295.872          40.500    23601924.168    98094676.39505       230.124          32.150
R20  21600351.727   115506789.14907     -1734.345          44.250    21600356.087    89838613.82407     -1348.938          43.850
R21  20026104.622   107163841.72408      1612.330          48.750    20026104.233    83349728.00307      1254.038          46.850
R22  22336800.860   119235413.92208      3974.279          48.450    22336802.738    92738687.15007      3091.106          43.650
E12  24263927.909   127507855.14248      1392.476          50.300    24263927.013    95216941.33908      1039.678          50.500    24263923.990    97700838.71608      1066.903          51.700    24263925.252    96458881.90708      1053.289          48.200
C11  22412971.320   116710359.78907      2037.474          45.450    22412966.161    90247904.54908      1575.637          50.150
C12  22442068.297   116861773.11807      -843.396          46.100    22442064.909    90364935.06808      -652.161          51.350
C14  23112152.469   120351081.34207     -1664.218          46.700    23112146.861    93063095.89208     -1286.797          50.950
S20  37329539.100   196168138.52307         7.420          46.250
S33  37960531.859   199483929.92007         4.772          46.600
S36  39143297.449   205699414.70208          .123          48.700
> 2016 01 05 00 18  0.0000000  0 28
G03  24834151.217   130504270.73607       793.674          45.350    24834152.027   101691619.83406       618.438          40.500    24834151.076   101691612.81905       618.434          35.350    24834153.945    97454464.34007       592.619          47.600
G08  24254180.688   127456596.65707      3486.613          45.650    24254181.394    99316837.38607      2716.845          43.200    24254180.550    99316840.38206      2716.845          39.050    24254180.526    95178639.64508      2603.725          49.550
G10  24165899.474   126992726.67807     -2216.699          46.800    24165895.982    98955394.36407     -1727.307          42.600    24165895.545    98955394.36406     -1727.305          39.000    24165895.490    94832256.70708     -1655.229          49.150
G14  20945848.907   110071316.42008     -1641.184          50.100                                                                    20945842.566    85769894.04707     -1278.842          45.250
G16  21670089.020   113877156.62908      -662.940          50.600                                                                    21670085.892    88735344.73907      -516.545          45.100
G21  24142646.269   126870502.44307      -209.710          45.700                                                                    24142640.430    98860125.15106      -163.412          36.700
G22  22664710.374   119103902.24508     -1905.456          49.900                                                                    22664701.940    92808238.97207     -1484.777          43.600
G26  22060529.578   115928953.35608     -1539.075          49.400    22060529.652    90334286.11807     -1199.255          47.950    22060529.683    90334286.12107     -1199.255          45.850    22060530.811    86570377.80908     -1149.410          52.050
G27  21686405.640   113962912.73508      2795.762          50.150    21686404.045    88802302.32708      2178.515          49.150    21686403.407    88802298.32807      2178.515          47.350    21686404.166    85102214.49508      2087.847          52.650
G29  24646147.979   129516390.86807     -3279.268          42.650    24646147.783   100921860.16606     -2555.281          41.050    24646147.904   100921863.17506     -2555.281          38.850
G31  22637734.865   118962111.28108       834.144          49.050    22637733.837    92697752.10607       649.994          44.650    22637732.958    92697748.10307       649.993          43.500
G32  23046422.621   121109749.54807      -317.199          47.650                                                                    23046419.957    94371245.07806      -247.178          38.500
R01  22929075.824   122568983.12607      2078.313          45.100    22929082.495    95331424.76205      1616.450          34.950
R07  21604474.958   115650509.89307     -3420.752          47.350    21604475.273    89950344.87007     -2660.565          44.100
R08  20503325.648   109794357.29107      -806.164          47.950    20503326.528    85395639.41107      -627.018          45.850
R09  24434413.540   130478408.57605       -56.779          34.950
R10  23082228.875   123041266.34517       230.324          42.200    23082238.983    95698806.64216       179.141          38.550
R11  23600236.078   126112650.67806       304.496          41.600    23600238.483    98087672.21205       236.832          30.800
R20  21610143.350   115559147.68707     -1756.148          44.500    21610147.659    89879336.94307     -1365.901          44.100
R21  20017121.372   107115774.01208      1592.187          48.800    20017121.414    83312342.12107      1238.371          46.550
R22  22314468.527   119116202.68908      3973.134          49.200    22314470.483    92645967.34007      3090.215          44.300
E12  24256002.763   127466207.43848      1384.037          50.650    24256001.753    95185840.93908      1033.602          50.600    24255998.760    97668926.98808      1060.533          51.750    24255999.863    96427375.84008      1047.096          48.250
C11  22401262.236   116649385.71807      2027.274          46.750    22401257.187    90200755.02908      1567.679          51.400
C12  22446970.000   116887297.18207      -858.275          45.300    22446966.512    90384671.94708      -663.596          51.100
C14  23121753.217   120401073.10907     -1668.730          45.700    23121747.647    93101752.02108     -1290.329          50.400
S20  37329495.090   196167909.36307         7.574          46.700
S33  37960504.807   199483784.89007         4.967          43.800
S36  39143295.850   205699408.15207          .178          46.600
> 2016 01 05 00 18 30.0000000  0 28
G03  24829651.036   130480620.60907       782.752          44.550    24829651.869   101673190.79406       609.924          40.000    24829650.968   101673183.79905       609.925          35.200    24829654.016    97436803.09307       584.632          47.350
G08  24234284.455   127352041.15407      3483.647          43.500    24234285.159    99235365.87807      2714.547          42.200    24234284.376    99235368.86106      2714.545          38.150    24234284.201    95100562.81808      2601.401          48.250
G10  24178534.260   127059123.17007     -2209.821          46.250    24178530.954    99007131.99907     -1721.935          42.250    24178530.544    99007131.99106     -1721.935          40.500    24178530.620    94881838.59408     -1650.097          48.750
G14  20955266.999   110120808.98108     -1658.497          50.050                                                                    20955260.630    85808459.63307     -1292.337          45.950
G16  21673899.757   113897185.22508      -672.330          49.200                                                                    21673896.446    88750951.64806      -523.897          40.750
G21  24143856.500   126876861.45707      -214.728          45.200                                                                    24143850.344    98865080.25906      -167.321          36.400
G22  22675583.395   119161038.11908     -1903.732          49.350                                                                    22675574.820    92852759.85306     -1483.447          41.950
G26  22069320.828   115975153.69508     -1540.920          48.300    22069320.926    90370287.18907     -1200.668          46.400    22069320.799    90370287.19307     -1200.669          43.800    22069321.673    86604878.91308     -1150.710          51.700
G27  21670476.798   113879206.63608      2784.496          49.850    21670475.146    88737076.84108      2169.743          48.400    21670474.532    88737072.84007      2169.742          46.800    21670475.224    85039706.77008      2079.353          52.550
G29  24664885.141   129614858.08306     -3285.495          38.850    24664885.497   100998584.85616     -2560.150          36.100    24664885.111   100998590.83606     -2560.160          36.250
G31  22632967.999   118937061.54308       835.836          49.200    22632966.924    92678233.04107       651.312          45.400    22632966.110    92678229.03807       651.312          44.650
G32  23048256.757   121119394.12307      -326.102          44.200                                                                    23048254.260    94378762.09105      -254.053          35.150
R01  22917462.725   122506904.10107      2060.147          46.700    22917469.667    95283140.33806      1602.311          37.200
R07  21623656.989   115753194.55308     -3424.925          48.300    21623657.357    90030211.47607     -2663.812          44.800
R08  20507897.486   109818839.35307      -826.258          47.500    20507898.374    85414681.63507      -642.624          44.350
R09  24434723.826   130480064.79705       -53.679          34.000
R10  23080907.340   123034226.42507       238.925          46.500
R11  23598501.711   126103381.31506       313.359          41.900    23598503.231    98080462.72005       243.724          31.250
R20  21620056.313   115612156.67207     -1777.848          43.850    21620060.994    89920566.04007     -1382.771          45.400
R21  20008250.738   107068307.32208      1571.982          49.100    20008250.857    83275423.56407      1222.658          47.200
R22  22292143.126   118997028.04207      3971.599          47.700    22292145.093    92553276.05107      3089.026          42.750
E12  24248123.648   127424801.52148      1376.117          51.250    24248122.392    95154920.93208      1027.649          50.850    24248119.473    97637200.37208      1054.436          51.950    24248120.529    96396052.52908      1041.043          48.600
C11  22389611.814   116588717.31407      2017.017          46.050    22389607.041    90153842.35408      1559.816          50.850
C12  22451956.671   116913264.55107      -873.031          45.200    22451953.227    90404751.64108      -675.014          50.750
C14  23131379.549   120451197.61207     -1673.176          45.200    23131374.238    93140511.12608     -1293.670          49.400
S20  37329450.879   196167679.65907         7.570          46.300
S33  37960477.953   199483642.95107         4.723          45.450
S36  39143294.769   205699399.42407          .188          45.850
> 2016 01 05 00 19  0.0000000  0 28
G03  24825212.555   130457294.76807       772.152          44.650    24825213.576   101655014.45906       601.666          39.950    24825212.561   101655007.43806       601.664          37.350    24825215.554    97419383.99907       576.569          46.750
G08  24214404.696   127247573.63007      3480.538          44.400    24214405.554    99153962.69307      2712.111          42.600    24214404.764    99153965.67906      2712.110          39.400    24214404.516    95022551.43808      2599.263          48.300
G10  24191130.198   127125315.18307     -2202.993          46.500    24191126.917    99058710.19107     -1716.620          43.850    24191126.756    99058710.18806     -1716.619          40.650    24191126.461    94931267.73008     -1645.051          49.400
G14  20964783.075   110170816.85508     -1675.613          50.250                                                                    20964776.875    85847426.60907     -1305.674          46.100
G16  21677763.856   113917493.34408      -681.505          50.000                                                                    21677760.563    88766776.00307      -531.048          43.050
G21  24145093.245   126883360.78107      -219.210          44.550                                                                    24145086.982    98870144.63706      -170.820          36.500
G22  22686446.706   119218122.51108     -1901.959          49.000                                                                    22686438.320    92897240.99206     -1482.047          40.900
G26  22078122.424   116021410.07008     -1542.749          50.450    22078122.435    90406331.82207     -1202.147          47.900    22078122.064    90406331.82307     -1202.148          46.800    22078122.720    86639421.86008     -1151.950          52.000
G27  21654612.995   113795842.95708      2773.083          49.150    21654611.475    88672118.16007      2160.847          47.700    21654610.738    88672114.15207      2160.847          46.800    21654611.507    84977454.68808      2070.747          52.200
G29  24683657.096   129713508.75606     -3291.506          41.350    24683658.132   101075455.81507     -2564.803          43.550    24683657.608   101075461.81606     -2564.805          40.900
G31  22628191.694   118911962.08208       837.364          49.000    22628190.491    92658675.14407       652.492          44.300    22628189.668    92658671.13807       652.492          42.800
G32  23050139.245   121129295.08607      -334.440          47.650                                                                    23050137.118    94386478.63006      -260.570          37.000
R01  22905952.837   122445375.33607      2041.823          46.050    22905959.775    95235284.16805      1588.070          35.850
R07  21642861.520   115855998.84508     -3428.764          48.300    21642861.419    90110170.38707     -2666.817          44.000
R08  20512581.034   109843922.10908      -846.003          48.550    20512581.897    85434191.20707      -657.998          47.350
R09  24435016.094   130481624.95905       -50.207          34.800
R10  23079537.118   123026924.81305       247.629          35.900    23079546.750                                          30.350
R11  23596718.050   126093847.18506       322.335          40.900    23596719.085    98073047.30305       250.705          31.250
R20  21630090.755   115665814.60807     -1799.435          44.700    21630095.445    89962299.83707     -1399.567          44.900
R21  19999493.100   107021445.60408      1551.957          48.200    19999493.629    83238975.54907      1207.081          46.700
R22  22269825.194   118877893.76008      3970.435          48.200    22269827.093    92460616.10507      3088.118          42.550
E12  24240290.880   127383639.30848      1367.961          50.400    24240289.432    95124182.80408      1021.561          50.250    24240286.624    97605660.39108      1048.208          51.500    24240287.700    96364913.47607      1034.880          47.800
C11  22378020.078   116528356.97507      2006.947          45.800    22378015.824    90107168.51408      1551.862          50.850
C12  22457028.657   116939674.39107      -887.674          47.150    22457024.977    90425173.29108      -686.386          51.750
C14  23141030.717   120501452.16307     -1677.319          45.350    23141025.718    93179370.93908     -1297.049          49.800
S20  37329407.321   196167449.61307         7.856          46.500
S33  37960450.689   199483503.08907         4.516          46.800
S36  39143292.762   205699387.86707          .344          46.900
> 2016 01 05 00 19 30.0000000  0 28
G03  24820835.724   130434292.55007       761.505          44.850    24820836.911   101637090.19906       593.364          40.200    24820835.822   101637083.19306       593.365          36.050    24820838.681    97402206.51707       568.614          46.750
G08  24194542.438   127143197.03407      3477.928          44.100    24194543.128    99072630.29907      2710.073          42.650    24194542.176    99072633.30206      2710.075          39.600    24194542.353    94944607.94608      2596.999          48.850
G10  24203686.622   127191300.68007     -2196.057          45.100    24203683.591    99110127.05706     -1711.234          40.100    24203683.573    99110127.05305     -1711.232          35.100    24203683.003    94980542.14507     -1639.831          46.250
G14  20974397.036   110221339.35008     -1692.448          48.950                                                                    20974391.060    85886794.78107     -1318.789          44.550
G16  21681681.002   113938079.01708      -690.751          50.400                                                                    21681677.694    88782816.59007      -538.244          43.800
G21  24146357.154   126890002.32207      -223.510          44.750                                                                    24146350.752    98875319.86705      -174.163          34.600
G22  22697299.485   119275153.10708     -1899.983          49.150                                                                    22697291.132    92941680.35407     -1480.507          42.250
G26  22086933.964   116067717.70208     -1544.337          48.550    22086933.932    90442415.27507     -1203.390          47.150    22086933.490    90442415.27407     -1203.391          44.200    22086933.743    86674001.75708     -1153.317          51.750
G27  21638815.050   113712824.68108      2761.568          49.150    21638813.567    88607428.66608      2151.876          48.450    21638812.857    88607424.65807      2151.876          46.150    21638813.625    84915460.63308      2062.197          52.350
G29  24702463.821   129812340.39807     -3297.528          42.100    24702465.135   101152467.71806     -2569.489          41.300    24702464.402   101152473.71606     -2569.490          39.800
G31  22623406.149   118886814.28808       839.177          49.250    22623404.807    92639079.60407       653.901          44.650    22623403.947    92639075.59507       653.901          43.600
G32  23052069.997   121139446.89007      -342.504          46.950                                                                    23052067.701    94394388.72506      -266.939          38.650
R01  22894546.336   122384397.98607      2023.625          45.300    22894553.065    95187856.80506      1573.912          36.350
R07  21662087.795   115958919.21708     -3432.546          48.100    21662087.226    90190219.15307     -2669.795          44.100
R08  20517375.742   109869599.91807      -865.807          47.700    20517376.787    85454162.68507      -673.386          46.550
R09  24435290.397   130483091.90906       -47.353          36.250
R10  23078118.390   123019362.55406       256.578          41.050    23078128.810    95681755.46614       199.551          28.550
R11  23594884.083   126084047.36606       331.303          41.000    23594885.676    98065425.26105       257.681          33.250
R20  21640246.208   115720120.42507     -1820.765          44.500    21640250.912    90004537.61507     -1416.154          44.300
R21  19990849.682   106975192.72408      1531.649          49.000    19990849.953    83203001.38207      1191.295          46.450
R22  22247515.640   118758803.83707      3968.921          46.750    22247517.428    92367990.58506      3086.938          40.700
E12  24232504.975   127342722.54248      1359.754          51.150    24232503.305    95093627.81008      1015.322          50.550    24232500.533    97574308.34008      1041.816          51.800    24232501.754    96333959.95208      1028.594          48.250
C11  22366487.447   116468304.57107      1996.729          46.050    22366483.111    90060732.24308      1543.878          50.850
C12  22462185.823   116966527.05907      -902.378          45.650    22462181.978    90445937.57908      -697.765          50.950
C14  23150706.422   120551834.46507     -1681.420          45.400    23150701.447    93218329.73308     -1300.225          49.550
S20  37329362.543   196167215.83907         7.945          46.400
S33  37960422.020   199483362.76907         4.719          46.700
S36  39143291.260   205699379.61807          .309          47.050
> 2016 01 05 00 20  0.0000000  0 28
G03  24816520.188   130411613.07707       750.504          44.050    24816521.766   101619417.43506       584.791          39.300    24816520.861   101619410.43605       584.794          35.750    24816523.153    97385269.98607       560.606          46.700
G08  24174698.344   127038914.22107      3474.524          46.800    24174698.690    98991371.07807      2707.426          44.400    24174697.635    98991374.07306      2707.425          39.600    24174698.019    94866734.51708      2594.586          50.050
G10  24216204.043   127257079.62107     -2188.841          45.500    24216201.154    99161383.26306     -1705.599          39.600    24216201.187    99161383.24505     -1705.600          32.500    24216200.402    95029662.65607     -1634.648          46.200
G14  20984108.297   110272374.49808     -1709.675          48.950                                                                    20984102.798    85926562.60507     -1332.206          44.100
G16  21685650.792   113958941.31308      -699.881          50.150                                                                    21685647.528    88799073.38907      -545.336          44.850
G21  24147648.481   126896787.79507      -228.618          45.250                                                                    24147641.901    98880607.32505      -178.144          35.500
G22  22708141.227   119332127.43208     -1898.187          48.450                                                                    22708133.015    92986075.87407     -1479.106          42.600
G26  22095755.512   116114076.59708     -1545.972          49.600    22095755.673    90478538.53108     -1204.673          48.850    22095755.259    90478538.53007     -1204.674          47.000    22095755.826    86708491.77818     -1154.442          52.500
G27  21623083.467   113630154.45208      2749.961          49.400    21623081.824    88543010.39507      2142.831          47.800    21623081.200    88543006.39607      2142.831          45.850    21623082.046    84853726.48308      2053.409          52.200
G29  24721304.751   129911350.60407     -3303.112          42.850    24721306.066   101229618.90106     -2573.840          37.250    24721305.406   101229624.90605     -2573.838          35.350
G31  22618611.881   118861620.40408       840.657          49.450    22618610.366    92619448.21007       655.063          44.900    22618609.492    92619444.20107       655.062          43.400
G32  23054049.637   121149848.38908      -350.985          48.200                                                                    23054046.879    94402491.65206      -273.533          40.500
R01  22883243.156   122323974.21807      2004.911          44.950    22883249.822    95140860.55705      1559.378          34.950
R07  21681335.278   116061952.00707     -3436.133          47.800    21681334.692    90270355.25207     -2672.560          43.950
R08  20522281.958   109895873.21908      -885.717          48.850    20522282.857    85474584.76617      -688.884          47.900
R09  24435548.594   130484467.43005       -44.782          35.050
R10  23076651.347   123011540.71617       265.090          47.950    23076661.921    95675668.05216       206.158          36.300
R11  23593000.199   126073980.09407       340.279          42.000    23593002.274    98057595.16705       264.662          33.300
R20  21650522.615   115775072.57407     -1842.420          44.150    21650527.543    90047278.05707     -1432.998          44.300
R21  19982320.285   106929550.86908      1511.307          48.200    19982320.368    83167502.25207      1175.464          46.300
R22  22225214.982   118639762.76507      3967.182          47.900    22225216.937    92275403.19207      3085.589          43.350
E12  24224766.125   127302053.80048      1351.657          50.500    24224764.432    95063258.48608      1009.299          49.900    24224761.659    97543146.76008      1035.598          51.350    24224762.672    96303194.49807      1022.493          47.400
C11  22355014.506   116408563.03907      1986.243          47.000    22355010.313    90014536.12308      1535.852          51.750
C12  22467427.751   116993821.62207      -917.083          47.100    22467423.651    90467043.43708      -709.227          51.800
C14  23160405.867   120602340.71307     -1685.459          46.200    23160400.796    93257383.78508     -1303.332          50.850
S20  37329317.353   196166980.24007         8.211          46.500
S33  37960393.924   199483222.53707         4.774          46.800
S36  39143290.103   205699376.18807          .338          47.750
> 2016 01 05 00 20 30.0000000  0 27
G03  24812265.733   130389255.32907       739.795          43.550    24812267.441   101601995.34906       576.446          39.250    24812266.315   101601988.34505       576.446          35.500    24812269.280    97368573.74107       552.564          47.200
G08  24154872.176   126934726.88507      3471.175          45.000    24154872.355    98910185.89407      2704.808          43.050    24154871.458    98910188.87906      2704.808          37.100    24154871.670    94788932.02408      2592.165          48.100
G10  24228681.874   127322650.52407     -2182.301          46.300    24228678.837    99212477.55906     -1700.494          41.350    24228678.891    99212477.54906     -1700.493          37.050    24228678.256    95078628.02707     -1629.632          47.800
G14  20993916.742   110323920.61208     -1726.973          49.050                                                                    20993911.655    85966728.33707     -1345.701          46.300
G16  21689672.436   113980076.89008      -709.143          50.100                                                                    21689669.314    88815543.24307      -552.569          44.150
G21  24148967.358   126903718.45907      -233.488          44.550                                                                    24148960.872    98886007.70005      -181.942          32.850
G22  22718972.002   119389043.73608     -1896.336          48.250                                                                    22718963.864    93030426.24606     -1477.664          41.050
G26  22104586.723   116160484.06008     -1547.885          48.650    22104587.080    90514699.38907     -1206.180          46.900    22104586.828    90514699.38507     -1206.180          43.800    22104587.777    86743145.69208     -1155.786          51.450
G27  21607418.507   113547834.81208      2738.060          49.950    21607416.769    88478865.23608      2133.555          49.200    21607416.196    88478861.23407      2133.555          47.600    21607417.081    84792253.99608      2044.699          52.700
G31  22613809.027   118836381.66808       841.824          49.800    22613807.524    92599781.78207       655.972          46.200    22613806.623    92599777.77707       655.972          44.900
G32  23056078.106   121160502.26008      -359.348          48.550                                                                    23056075.105    94410791.98606      -280.056          38.100
R01  22872043.473   122264104.51607      1986.362          45.000    22872050.317    95094295.30405      1544.979          34.800
R07  21700603.242   116165093.85607     -3440.013          46.750    21700602.943    90350576.55707     -2675.567          44.050
R08  20527298.823   109922738.02207      -905.627          47.600    20527299.420    85495477.94317      -704.381          43.350
R09  24435790.796   130485753.97506       -41.356          36.700
R10  23075136.253   123003459.95006       273.692          39.850    23075145.615    95669390.83415       212.876          32.150
R11  23591066.027   126063645.19806       348.824          40.800    23591068.471    98049556.91205       271.308          33.500
R20  21660919.755   115830669.88707     -1864.080          43.750    21660924.843    90090520.38707     -1449.845          43.650
R21  19973905.792   106884523.97308      1490.410          48.300    19973905.770    83132481.36307      1159.213          46.250
R22  22202924.356   118520774.41307      3965.252          47.800    22202926.521    92182856.77007      3084.088          43.300
E12  24217074.556   127261634.31348      1342.928          51.150    24217072.837    95033075.32408      1002.900          50.700    24217070.060    97512176.17908      1029.071          52.050    24217070.871    96272617.62908      1015.988          48.700
C11  22343601.826   116349134.69907      1975.602          46.050    22343597.710    89968582.08108      1527.730          51.300
C12  22472754.407   117021557.89807      -932.043          44.600    22472750.099    90488490.95008      -720.520          50.000
C14  23170128.880   120652970.41307     -1689.771          45.700    23170124.156    93296533.65708     -1306.647          50.600
S20  37329272.084   196166743.54707         7.850          46.400
S33  37960365.890   199483081.27507         4.554          45.750
S36  39143288.554   205699368.56408          .308          48.550
> 2016 01 05 00 21  0.0000000  0 25
G03  24808072.467   130367218.51107       729.289          44.050    24808074.362   101584823.32906       568.263          39.800    24808073.306   101584816.32706       568.264          36.150    24808076.818    97352117.12708       544.627          48.000
G08  24135065.203   126830638.78507      3467.860          45.200    24135065.186    98829078.30107      2702.225          43.550    24135064.324    98829081.29606      2702.226          39.400    24135064.294    94711203.90608      2589.735          48.750
G10  24241119.860   127388011.88907     -2175.293          46.100    24241116.738    99263408.71806     -1695.025          41.850    24241116.805    99263408.71306     -1695.026          38.200    24241115.834    95127437.11708     -1624.299          49.150
G14  21003822.450   110375976.48908     -1743.610          49.300                                                                    21003817.611    86007291.18707     -1358.663          45.250
G16  21693745.461   114001482.75408      -718.001          49.900                                                                    21693742.598    88832223.62607      -559.459          43.750
G21  24150314.302   126910796.40507      -238.441          46.250                                                                    24150307.674    98891523.07205      -185.794          35.450
G22  22729791.135   119445900.28507     -1894.186          47.800                                                                    22729783.346    93074730.18806     -1475.995          40.800
G26  22113427.530   116206941.49908     -1549.335          50.600    22113428.059    90550900.60108     -1207.240          49.200    22113427.788    90550900.60308     -1207.239          48.650    22113428.682    86777838.75508     -1157.006          52.850
G27  21591820.917   113465868.43308      2726.285          49.950    21591819.089    88414995.16408      2124.372          48.900    21591818.460    88414991.15507      2124.372          47.400    21591819.427    84731045.15208      2035.884          52.650
G31  22608997.968   118811099.81808       843.430          48.650    22608996.566    92580081.64607       657.215          44.950    22608995.693    92580077.64207       657.215          43.950
G32  23058154.451   121171408.41008      -367.861          49.550                                                                    23058151.317    94419290.38007      -286.630          42.050
R01  22860947.258   122204790.99207      1967.764          46.350    22860954.875    95048260.13316      1530.501          36.300
R07  21719890.682   116268340.11107     -3443.142          46.500    21719890.503    90430879.33307     -2677.991          44.050
R08  20532425.332   109950191.26508      -924.760          48.050    20532425.791    85516830.57507      -719.240          46.150
R09  24436015.482   130486953.82205       -38.327          32.500    24436017.136   101489864.11615       -29.801          31.150
R10  23073571.692   122995121.68707       282.336          43.250    23073582.695    95662913.16015       219.585          30.850
R11  23589081.220   126053041.03106       357.886          41.000    23589084.275    98041309.22905       278.355          33.100
R20  21671436.986   115886910.73407     -1885.401          44.400    21671441.962    90134263.14607     -1466.433          44.850
R21  19965607.067   106840115.50807      1469.885          47.800    19965606.911    83097941.54807      1143.245          45.100
R22  22180644.415   118401843.27508      3963.307          48.550    22180646.744    92090354.90807      3082.581          43.550
E12  24209430.581   127221465.69448      1334.704          51.300    24209428.850    95003079.54408       996.702          51.050    24209426.121    97481397.86708      1022.743          52.100    24209426.890    96242230.58108      1009.754          48.800
C11  22332249.959   116290021.26507      1965.273          46.700    22332245.862    89922871.19508      1519.609          51.250
C12  22478165.625   117049735.30207      -946.631          45.800    22478161.314    90510279.47708      -731.937          51.100
C14  23179875.204   120703721.00207     -1693.723          44.250    23179870.536    93335777.25108     -1309.567          48.900
S33  37960338.149   199482939.38407         4.610          44.100
> 2016 01 05 00 21 30.0000000  0 26
G03  24803940.400   130345501.71607       718.558          44.350    24803942.396   101567900.67406       559.899          40.400    24803941.197   101567893.65806       559.898          36.000    24803944.969    97335899.46407       536.615          47.400
G08  24115277.254   126726652.26307      3464.255          46.200    24115277.273    98748049.74507      2699.416          42.550    24115276.266    98748052.74706      2699.417          37.750    24115276.482    94633551.51908      2587.117          49.050
G10  24253517.227   127453161.27007     -2168.272          47.750    24253514.070    99314174.31207     -1689.564          43.600    24253514.079    99314174.31606     -1689.562          39.450    24253513.162    95176087.43708     -1619.034          49.850
G14  21013825.278   110428541.44808     -1760.854          49.300                                                                    21013820.357    86048251.02007     -1372.090          45.050
G16  21697869.317   114023156.35608      -727.064          50.350                                                                    21697866.607    88849112.36207      -566.545          45.400
G21  24151689.604   126918022.94507      -243.249          44.600                                                                    24151682.675    98897154.13805      -189.546          32.800
G22  22740598.587   119502693.91108     -1892.167          49.500                                                                    22740590.585    93118984.80107     -1474.414          43.350
G26  22122276.503   116253443.26208     -1550.950          48.850    22122276.889    90587136.15307     -1208.512          45.800    22122276.579    90587136.15307     -1208.512          42.800    22122277.074    86812564.56508     -1158.094          51.050
G27  21576290.931   113384258.50108      2714.266          49.850    21576289.246    88351402.94508      2115.003          48.100    21576288.557    88351398.94707      2115.003          46.350    21576289.678    84670102.59508      2026.974          52.250
G31  22604179.168   118785777.29508       844.603          49.300    22604177.715    92560349.93207       658.128          45.800    22604176.838    92560345.93307       658.129          45.000
G32  23060277.506   121182565.10608      -376.149          50.100                                                                    23060274.491    94427969.92417      -293.022          43.150
R01  22849955.008   122146034.05707      1949.186          44.850    22849962.855    95002560.96106      1516.042          36.050
R07  21739196.777   116371686.00207     -3446.618          46.850    21739196.512    90511259.27507     -2680.703          43.200
R08  20537661.326   109978228.98108      -944.352          48.800    20537661.790    85538637.06407      -734.513          47.000
R09  24436223.907   130488069.56705       -35.763          32.650    24436225.872   101490732.03804       -27.809          29.000
R10  23071959.505   122986527.27007       290.775          45.350    23071970.085    95656226.46515       226.149          34.750
R11  23587045.842   126042166.99806       367.113          39.500    23587049.703    98032851.61605       285.530          34.050
R20  21682074.427   115943794.09807     -1906.872          43.900    21682079.618    90178505.65007     -1483.124          44.700
R21  19957424.676   106796328.92208      1449.060          48.300    19957424.449    83063885.43507      1127.050          46.150
R22  22158376.032   118282973.21608      3961.140          48.550    22158378.343    91997900.46407      3080.888          43.200
E12  24201834.560   127181549.54948      1326.365          51.050    24201832.773    94973272.20508       990.516          50.700    24201830.188    97450812.92708      1016.396          52.000    24201830.902    96212034.44208      1003.467          48.650
C11  22320959.266   116231226.11107      1954.373          46.200    22320955.315    89877406.77008      1511.342          51.650
C12  22483661.594   117078353.83407      -961.411          46.500    22483657.216    90532409.29608      -743.397          51.200
C14  23189644.252   120754590.43407     -1697.832          45.300    23189639.614    93375113.04208     -1312.716          50.350
S20  37329180.013   196166162.89117         7.819          46.700
S33  37960310.971   199482800.84907         4.205          46.550
> 2016 01 05 00 22  0.0000000  0 26
G03  24799868.904   130324103.93707       707.896          44.750    24799871.098   101551226.63306       551.592          40.050    24799870.265   101551219.62906       551.593          36.500    24799873.112    97319920.07207       528.764          46.800
G08  24095509.173   126622769.30707      3460.908          45.650    24095508.839    98667101.73406      2696.802          41.600    24095507.865    98667104.73006      2696.802          36.950    24095508.521    94555976.31908      2584.499          48.200
G10  24265874.352   127518098.06707     -2161.086          45.600    24265871.180    99364774.12806     -1683.976          41.550    24265871.110    99364774.11406     -1683.977          37.400    24265870.265    95224578.84708     -1613.789          48.200
G14  21023924.549   110481613.41108     -1777.574          49.200                                                                    21023919.680    86089606.01607     -1385.109          44.150
G16  21702043.841   114045094.98108      -735.787          49.950                                                                    21702041.151    88866207.37807      -573.345          43.550
G21  24153093.342   126925399.63707      -248.481          44.650                                                                    24153086.340    98902902.14505      -193.628          33.650
G22  22751394.040   119559423.94308     -1890.030          48.900                                                                    22751385.857    93163190.28707     -1472.739          42.200
G26  22131133.317   116299987.80408     -1552.213          49.150    22131133.603    90623405.09707     -1209.509          47.800    22131133.287    90623405.09707     -1209.510          46.100    22131133.697    86847322.41608     -1159.155          52.400
G27  21560829.459   113303007.50108      2702.245          49.700    21560827.739    88288090.38207      2105.640          47.800    21560827.088    88288086.37707      2105.640          46.250    21560828.079    84609428.05608      2017.953          52.200
G31  22599352.616   118760415.07708       845.816          49.150    22599351.306    92540587.28507       659.081          45.050    22599350.418    92540583.28207       659.081          44.000
G32  23062446.414   121193966.88308      -384.007          48.250                                                                    23062443.258    94436856.35507      -299.191          42.100
R01  22839066.975   122087833.00207      1930.709          45.950    22839074.511    94957293.20606      1501.667          37.850
R07  21758520.648   116475128.58307     -3449.730          46.750    21758520.457    90591714.98807     -2683.108          44.800
R08  20543006.368   110006849.37508      -963.735          48.300    20543006.699    85560896.62607      -749.595          46.600
R09  24436415.378   130489103.53505       -32.651          31.050    24436420.526   101491536.34804       -25.395          27.550
R10  23070300.225   122977680.25016       299.127          39.350    23070309.519                                          32.000
R11  23584960.019   126031021.57906       376.115          38.500    23584963.746    98024182.94705       292.532          33.950
R20  21692831.699   116001318.33407     -1928.179          43.750    21692837.112    90223246.81007     -1499.690          44.750
R21  19949359.097   106753166.79608      1428.256          48.900    19949358.473    83030314.81307      1110.863          46.000
R22  22136120.031   118164168.27007      3959.066          47.200    22136121.954    91905496.67606      3079.278          41.200
E12  24194287.035   127141887.87148      1317.654          51.250    24194285.080    94943654.99008       983.952          50.800    24194282.588    97420423.05908      1009.659          52.000    24194283.217    96182030.90508       996.785          48.650
C11  22309729.961   116172751.29207      1943.719          46.700    22309726.094    89832190.34408      1503.013          51.350
C12  22489241.813   117107412.65507      -976.357          45.250    22489237.601    90554879.59208      -754.711          50.500
C14  23199435.156   120805575.97507     -1701.397          45.650    23199430.625    93414538.70408     -1315.680          49.700
S20  37329135.624   196165919.68007         7.838          46.700
S33  37960282.778   199482662.73407         4.345          44.400
> 2016 01 05 00 22 30.0000000  0 25
G03  24795857.877   130303024.34607       697.154          42.800    24795860.069   101534800.52606       543.225          39.450    24795859.051   101534793.51805       543.222          34.950    24795862.108    97304178.30107       520.726          47.000
G08  24075761.219   126518993.36207      3457.407          44.500    24075761.260    98586237.31907      2694.089          42.750    24075760.195    98586240.30906      2694.088          38.050    24075760.984    94478481.18508      2581.806          49.000
G10  24278190.786   127582821.04607     -2153.824          45.900    24278187.817    99415207.27007     -1678.314          42.650    24278187.827    99415207.25706     -1678.315          39.800    24278187.159    95272910.54408     -1608.483          48.300
G14  21034120.052   110535190.98608     -1794.422          49.000                                                                    21034115.048    86131354.86307     -1398.247          45.450
G16  21706268.566   114067295.76408      -744.389          48.950                                                                    21706265.788    88883505.99606      -580.072          41.500
G21  24154525.951   126932928.45607      -253.554          44.200                                                                    24154519.115    98908768.72105      -197.577          34.500
G22  22762176.910   119616087.89708     -1887.647          49.250                                                                    22762168.549    93207344.16107     -1470.893          42.350
G26  22139997.874   116346570.97308     -1553.510          49.200    22139997.733    90659703.25107     -1210.539          47.200    22139997.368    90659703.25107     -1210.539          44.850    22139997.907    86882107.98608     -1159.926          52.150
G27  21545436.833   113222118.53308      2690.237          49.700    21545435.114    88225060.06408      2096.295          48.450    21545434.511    88225056.06307      2096.296          47.100    21545435.582    84549023.98408      2008.889          52.350
G31  22594518.837   118735014.95907       847.163          47.700    22594517.679    92520795.08307       660.127          43.100    22594516.755    92520791.07606       660.127          41.600
G32  23064660.994   121205610.52908      -392.388          48.900                                                                    23064657.648    94445930.49406      -305.735          41.850
R01  22828283.714   122030190.70207      1912.247          47.200    22828291.188                                          41.500
R07  21777861.356   116578662.39907     -3452.582          46.000    21777861.280    90672241.34307     -2685.352          43.000
R08  20548459.867   110036050.05308      -983.085          48.300    20548460.278    85583607.75307      -764.623          46.300
R10  23068592.648   122968577.74107       307.645          47.900    23068602.660    95642264.91216       239.279          41.300
R11  23582823.083   126019604.30006       385.154          40.950    23582827.276    98015302.82005       299.562          35.050
R20  21703708.614   116059482.09307     -1949.494          42.550    21703713.900    90268485.46607     -1516.269          42.300
R21  19941410.945   106710632.92208      1407.276          48.750    19941410.002    82997232.79007      1094.543          46.300
R22  22113876.887   118045433.23407      3956.499          47.850    22113879.043    91813147.28607      3077.277          43.150
E12  24186788.157   127102481.58448      1309.307          50.750    24186786.136    94914228.08408       977.684          50.300    24186783.635    97390228.50708      1003.179          51.850    24186784.502    96152220.17308       990.450          48.250
C11  22298562.613   116114598.51307      1933.065          46.900    22298558.564    89787222.95808      1494.749          51.700
C12  22494906.362   117136911.93307      -990.627          45.700    22494902.407    90577690.83608      -766.086          51.050
C14  23209247.959   120856675.02507     -1705.227          45.700    23209243.412    93454052.15508     -1318.624          49.700
S20  37329088.768   196165676.25707         8.116          46.300
S33  37960255.358   199482526.17307         4.452          46.600
> 2016 01 05 00 23  0.0000000  0 26
G03  24791907.067   130282261.76806       686.870          41.900    24791909.457   101518621.44906       535.208          39.850    24791908.416   101518614.43505       535.208          35.600    24791911.707    97288673.26707       512.922          47.250
G08  24056034.322   126415327.37107      3453.638          46.500    24056034.352    98505458.77107      2691.159          44.250    24056033.145    98505461.76206      2691.159          39.850    24056034.383    94401068.43008      2579.058          50.500
G10  24290466.330   127647329.21007     -2146.995          43.250    24290463.740    99465473.19006     -1672.989          38.700    24290463.607    99465473.21605     -1672.984          35.150    24290463.024    95321082.04207     -1603.071          44.900
G14  21044411.692   110589273.23008     -1811.195          50.050                                                                    21044406.280    86173497.24207     -1411.304          45.300
G16  21710543.327   114089757.35808      -753.139          49.850                                                                    21710540.400    88901007.91507      -586.882          43.150
G21  24155987.738   126940610.71207      -258.801          45.350                                                                    24155980.958    98914754.87406      -201.659          36.550
G22  22772946.765   119672683.23408     -1885.405          48.800                                                                    22772938.164    93251444.27906     -1469.149          41.150
G26  22148870.020   116393192.69208     -1554.720          49.150    22148869.642    90696031.53307     -1211.455          47.050    22148869.254    90696031.53107     -1211.454          45.100    22148869.920    86916922.60908     -1160.936          52.250
G27  21530113.725   113141594.50708      2677.970          50.400    21530111.924    88162314.33708      2086.746          49.200    21530111.360    88162310.32808      2086.745          48.200    21530112.393    84488892.72308      1999.814          52.750
G31  22589678.388   118709578.86108       848.389          48.100    22589677.219    92500974.96007       661.083          43.250    22589676.333    92500970.95706       661.083          41.650
G32  23066921.116   121217494.50508      -400.175          48.950                                                                    23066917.916    94455191.58207      -311.780          44.150
R01  22817605.456   121973110.42707      1893.256          46.750    22817611.595                                          38.500
R07  21797218.379   116682283.01607     -3455.478          46.550    21797218.440    90752834.91007     -2687.606          42.950
R08  20554021.232   110065828.48107     -1002.305          46.950    20554021.551    85606768.48107      -779.593          46.100
R09  24436759.414   130490917.36816       -28.015          36.700    24436762.721   101492965.11814       -21.785          29.650
R10  23066837.298   122959221.17406       316.074          41.350    23066848.126    95634989.31514       245.836          29.950
R11  23580635.819   126007913.67007       394.225          42.200    23580639.359    98006210.09105       306.619          34.500
R20  21714704.720   116118283.71907     -1970.632          43.850    21714710.050    90314220.21907     -1532.716          44.400
R21  19933580.708   106668730.07908      1386.151          48.850    19933579.675    82964641.41507      1078.121          46.250
R22  22091647.531   117926771.79908      3954.117          48.200    22091649.579    91720855.12807      3075.423          42.550
E12  24179338.393   127063333.28348      1300.731          50.700    24179336.356    94884993.95408       971.352          50.300    24179333.846    97360231.75308       996.630          51.850    24179334.826    96122604.72708       984.032          48.250
C11  22287457.360   116056769.89007      1922.109          45.850    22287453.046    89742506.33008      1486.315          50.900
C12  22500655.093   117166849.74607     -1005.328          44.900    22500651.059    90600840.85008      -777.257          50.400
C14  23219082.080   120907885.57107     -1708.930          45.850    23219077.606    93493651.85708     -1321.368          50.200
S20  37329042.332   196165431.38707         8.268          46.300
S33  37960227.848   199482389.09607         4.581          44.700
> 2016 01 05 00 23 30.0000000  0 26
G03  24788016.512   130261815.35407       676.222          43.650    24788019.283   101502688.77206       526.912          40.350    24788018.238   101502681.76306       526.913          36.100    24788021.611    97273404.35007       505.063          47.300
G08  24036328.664   126311772.91407      3449.814          44.150    24036328.570    98424766.99806      2688.166          41.100    24036327.439    98424769.98306      2688.165          38.650    24036328.497    94323738.83007      2576.272          47.850
G10  24302700.997   127711621.18407     -2139.661          44.750    24302698.256    99515570.74406     -1667.277          39.350    24302698.083    99515570.73805     -1667.275          34.500    24302697.621    95369092.12707     -1597.671          45.000
G14  21054798.947   110643857.75908     -1828.014          49.650                                                                    21054792.979    86216030.63807     -1424.429          43.350
G16  21714867.457   114112477.08508      -761.794          49.900                                                                    21714864.257    88918710.90607      -593.628          43.750
G21  24157479.051   126948447.95807      -263.801          43.950                                                                    24157472.359    98920861.69505      -205.566          31.200
G22  22783703.459   119729209.08508     -1883.197          48.700                                                                    22783694.802    93295490.35206     -1467.424          41.600
G26  22157749.023   116439851.37208     -1555.967          50.250    22157748.802    90732389.13808     -1212.437          48.850    22157748.349    90732389.13607     -1212.438          47.150    22157749.069    86951765.21308     -1161.820          52.700
G27  21514860.299   113061437.46008      2665.643          49.650    21514858.391    88099854.51808      2077.127          48.300    21514857.778    88099850.51807      2077.128          46.850    21514858.846    84429035.44308      1990.684          52.300
G31  22584831.566   118684108.80508       849.531          49.700    22584830.334    92481128.48807       661.984          45.550    22584829.347    92481124.48007       661.984          44.950
G32  23069226.728   121229616.49907      -408.066          47.900                                                                    23069223.841    94464637.68406      -317.972          41.800
R01  22807031.981   121916588.70307      1874.459          44.950    22807039.437    94824095.73316      1457.926          37.050
R07  21816590.967   116785986.85907     -3458.428          46.600    21816591.460    90833493.15407     -2689.888          43.700
R08  20559689.271   110096181.57907     -1021.413          47.300    20559690.090    85630376.62707      -794.431          46.050
R09  24436910.404   130491720.84205       -25.461          35.750
R10  23065035.143   122949613.75907       324.320          45.900    23065044.705    95627516.53704       252.236          29.750
R11  23578397.061   125995949.01006       403.303          41.800    23578400.166    97996904.22205       313.681          34.350
R20  21725819.819   116177721.47807     -1991.961          43.700    21725825.210    90360449.63107     -1549.305          45.700
R21  19925868.972   106627462.46508      1364.832          48.200    19925867.855    82932544.38807      1061.536          45.850
R22  22069432.777   117808188.42107      3951.291          47.350    22069435.067    91628623.54507      3073.222          42.200
E12  24171938.068   127024444.36048      1291.631          51.000    24171936.000    94855953.43908       964.667          50.600    24171933.560    97330433.66408       989.819          52.050    24171934.616    96093185.42908       977.233          48.650
C11  22276414.774   115999267.51507      1911.240          45.400    22276410.054    89698041.98908      1477.977          50.050
C12  22506488.030   117197226.28207     -1020.063          44.600    22506484.128    90624329.98608      -788.610          50.550
C14  23228936.844   120959204.70707     -1712.439          45.050    23228932.345    93533335.38208     -1324.155          50.050
S20  37328994.146   196165183.12307         8.256          46.600
S33  37960200.492   199482251.34807         4.476          45.900
> 2016 01 05 00 24  0.0000000  0 26
G03  24784185.903   130241683.98907       665.364          42.750    24784188.963   101487001.55506       518.453          40.700    24784187.925   101486994.55905       518.455          35.700    24784191.100    97258370.66607       497.242          46.800
G08  24016644.583   126208332.68707      3445.932          45.750    24016644.572    98344164.13607      2685.139          43.750    24016643.545    98344167.12106      2685.140          40.100    24016644.376    94246494.39608      2573.345          49.600
G10  24314893.967   127775696.04307     -2132.127          46.300    24314891.485    99565499.32407     -1661.397          44.050    24314891.253    99565499.32406     -1661.398          39.950    24314890.944    95416940.38508     -1592.233          49.600
G14  21065281.577   110698943.42308     -1844.522          49.950                                                                    21065275.299    86258954.63107     -1437.282          44.650
G16  21719240.467   114135453.91208      -770.141          51.350                                                                    21719237.103    88936614.71807      -600.101          47.100
G21  24159000.338   126956442.36307      -269.035          44.800                                                                    24158993.818    98927091.01605      -209.645          32.700
G22  22794446.222   119785663.17508     -1880.725          48.350                                                                    22794437.754    93339480.57406     -1465.495          41.450
G26  22166634.306   116486543.70307     -1556.870          46.850    22166634.227    90768772.69007     -1213.135          44.300    22166633.815    90768772.68706     -1213.134          40.050    22166634.475    86986632.83308     -1162.588          49.700
G27  21499677.147   112981650.67808      2653.437          49.900    21499675.280    88037683.39908      2067.628          48.600    21499674.611    88037679.40107      2067.628          47.150    21499675.814    84369454.86708      1981.500          52.400
G31  22579978.438   118658606.00008       850.690          49.250    22579977.072    92461256.34207       662.869          45.800    22579976.079    92461252.33607       662.869          45.000
G32  23071577.861   121241974.92907      -415.945          45.550                                                                    23071575.005    94474267.38206      -324.132          39.000
R01  22796563.769   121860629.55107      1856.017          43.100    22796571.470                                          31.500
R07  21835978.750   116889770.85707     -3460.740          47.700    21835979.179    90914214.28807     -2691.682          44.400
R08  20565464.203   110127103.48907     -1040.298          47.200    20565464.789    85654425.95007      -809.159          45.700
R09  24437046.703   130492452.43906       -23.209          37.650    24437046.018   101494140.42014       -18.042          26.300
R10  23063186.195   122939756.59707       332.752          47.150    23063195.162    95619842.05813       258.810          23.350
R11  23576106.615   125983709.47506       412.584          41.500    23576109.492    97987384.57105       320.899          34.600
R20  21737053.605   116237793.47707     -2012.946          43.100    21737058.942    90407172.17207     -1565.632          44.250
R21  19918276.241   106586833.05308      1343.593          49.350    19918275.333    82900943.88107      1045.024          46.950
R22  22047233.449   117689687.00308      3948.616          48.450    22047235.745    91536455.73007      3071.144          42.700
E12  24164587.330   126985816.58348      1283.272          50.950    24164585.411    94827107.92308       958.384          50.800    24164583.069    97300835.67208       983.369          52.200    24164584.044    96063963.67708       970.844          49.000
C11  22265434.931   115942092.78307      1900.364          46.250    22265430.112    89653830.68408      1469.451          51.700
C12  22512405.428   117228041.28707     -1034.523          46.100    22512401.671    90648158.36308      -799.922          51.900
C14  23238812.297   121010630.98607     -1715.984          45.200    23238807.572    93573101.92908     -1326.855          49.800
S20  37328945.526   196164933.34707         7.978          46.150
S33  37960173.386   199482112.23706         4.958          41.500
> 2016 01 05 00 24 30.0000000  0 25
G03  24780415.370   130221866.70807       655.475          42.550    24780418.151   101471559.05306       510.746          38.350    24780417.143   101471552.04905       510.748          33.950    24780420.147    97243571.53407       489.323          47.000
G08  23996982.894   126105010.01007      3442.098          46.250    23996983.002    98263653.00907      2682.158          44.550    23996982.038    98263655.99806      2682.157          40.050    23996982.780    94169337.92508      2570.377          50.150
G10  24327044.783   127839551.19507     -2125.008          44.100    24327042.683    99615256.25506     -1655.863          41.550    24327042.338    99615256.24806     -1655.862          38.550    24327042.298    95464624.05707     -1586.789          47.700
G14  21075859.120   110754527.99008     -1861.181          50.100                                                                    21075852.530    86302267.14207     -1450.273          44.700
G16  21723661.468   114158684.42908      -778.639          50.000                                                                    21723657.972    88954716.27607      -606.736          42.950
G21  24160551.785   126964595.19407      -274.308          44.750                                                                    24160545.382    98933443.80406      -213.749          36.250
G22  22805174.705   119842042.88208     -1878.016          48.900                                                                    22805166.582    93383412.74406     -1463.389          41.900
G26  22175525.620   116533269.04108     -1557.849          48.200    22175525.814    90805182.58507     -1213.919          44.750    22175525.558    90805182.58406     -1213.920          41.700    22175525.888    87021525.79308     -1163.512          50.000
G27  21484564.977   112902236.23408      2640.839          49.900    21484562.951    87975802.25408      2057.819          48.800    21484562.203    87975798.24907      2057.818          47.500    21484563.225    84310152.18508      1972.081          52.650
G31  22575119.297   118633071.84708       851.517          48.000    22575117.960    92441359.49207       663.518          43.800    22575117.041    92441355.48706       663.517          41.950
G32  23073974.315   121254567.86308      -423.595          48.900                                                                    23073971.021    94484079.48706      -330.090          41.650
R07  21855380.543   116993628.73907     -3463.161          46.500    21855380.556    90994992.31906     -2693.584          41.250
R08  20571345.597   110158594.60407     -1059.207          47.900    20571346.046    85678918.61407      -823.832          46.200
R09  24437171.992   130493114.40306       -21.099          39.950    24437168.618   101494646.34514       -16.408          28.100
R10  23061290.150   122929649.77607       340.976          47.300    23061300.112    95611990.03116       265.203          38.300
R11  23573764.740   125971193.89207       421.835          42.300    23573767.316    97977650.21205       328.092          33.850
R20  21748405.708   116298498.41007     -2034.140          43.950    21748411.143    90454387.00407     -1582.119          44.500
R21  19910803.485   106546844.58808      1322.212          49.350    19910802.608    82869841.87707      1028.397          47.200
R22  22025050.396   117571272.26408      3945.716          48.700    22025052.674    91444355.38607      3068.888          44.650
E12  24157286.602   126947451.66048      1274.446          50.650    24157284.847    94798458.75308       951.671          50.600    24157282.614    97271439.13908       976.449          52.100    24157283.507    96034940.82108       964.075          48.700
C11  22254518.611   115885248.19707      1889.214          45.550    22254513.794    89609874.57308      1460.919          50.400
C12  22518406.953   117259294.67507     -1048.999          44.850    22518403.382    90672326.14908      -811.317          50.750
C14  23248708.043   121062162.07307     -1719.499          45.300    23248703.038    93612949.65908     -1329.693          49.800
S20  37328897.153   196164682.82007         8.371          46.350
S33  37960145.946   199481972.69607         4.500          44.950
> 2016 01 05 00 25  0.0000000  0 26
G03  24776704.217   130202362.37107       645.299          42.550    24776706.847   101456360.40506       502.814          39.500    24776705.783   101456353.41605       502.817          34.550    24776709.250    97229006.06307       481.593          47.200
G08  23977343.987   126001807.07607      3438.052          46.550    23977344.124    98183235.12907      2678.999          44.950    23977343.231    98183238.11306      2678.998          41.850    23977343.870    94092270.79308      2567.444          50.600
G10  24339154.097   127903186.38207     -2117.612          44.600    24339152.276    99664841.81206     -1650.095          41.500    24339152.048    99664841.80906     -1650.093          37.150    24339151.806    95512143.51307     -1581.189          46.600
G14  21086531.391   110810610.34008     -1877.636          49.700                                                                    21086524.698    86345967.42507     -1463.099          43.600
G16  21728130.131   114182166.33708      -786.831          51.050                                                                    21728126.611    88973014.06007      -613.100          46.150
G21  24162133.898   126972908.25607      -279.937          45.750                                                                    24162127.410    98939921.49806      -218.135          36.950
G22  22815888.991   119898346.87908     -1875.619          48.600                                                                    22815880.941    93427285.95807     -1461.518          42.150
G26  22184422.235   116580021.50108     -1558.820          49.700    22184422.413    90841612.32608     -1214.698          48.750    22184422.269    90841612.32507     -1214.699          47.250    22184422.391    87056437.41708     -1163.972          52.050
G27  21469524.089   112823197.30608      2628.341          50.150    21469522.047    87914213.97308      2048.083          49.100    21469521.246    87914209.97207      2048.083          47.850    21469522.118    84251130.19308      1962.718          52.600
G31  22570254.975   118607509.64708       852.586          49.400    22570253.584    92421441.17207       664.367          45.000    22570252.654    92421437.16807       664.367          44.150
G32  23076415.461   121267393.81108      -431.340          48.850                                                                    23076411.908    94494073.00906      -336.157          41.750
R01  22775944.460   121750476.17317      1817.882          42.400
R07  21874795.707   117097558.00207     -3465.511          47.300    21874795.560    91075826.00507     -2695.388          43.300
R08  20577332.459   110190652.51707     -1078.001          46.650    20577332.941    85703853.15707      -838.416          44.900
R09  24437283.048   130493709.20206       -18.543          38.650    24437282.071   101495119.09814       -14.417          28.150
R10  23059347.442   122919294.82205       349.184          34.600    23059357.840    95603942.08115       271.588          33.500
R11  23571370.811   125958401.42707       430.836          42.550    23571373.175    97967700.49505       335.094          33.300
R20  21759875.993   116359834.75307     -2055.008          43.500    21759881.327    90502092.89707     -1598.342          43.800
R21  19903451.040   106507500.39808      1300.768          48.900    19903450.207    82839241.01407      1011.714          46.850
R22  22002884.374   117452948.22208      3942.505          48.650    22002886.537    91352325.53607      3066.395          42.850
E12  24150036.293   126909352.08348      1265.462          50.950    24150034.868    94770008.13508       944.944          51.300    24150032.552    97242246.29008       969.628          52.550    24150033.249    96006119.09108       957.272          49.600
C11  22243666.192   115828736.13707      1878.089          46.200    22243661.466    89566175.62908      1452.313          51.200
C12  22524492.317   117290985.00807     -1063.731          45.450    22524488.420    90696831.71208      -822.472          50.900
C14  23258623.288   121113795.48407     -1722.770          44.900    23258618.106    93652876.69808     -1332.195          49.050
S20  37328849.893   196164431.00507         8.606          46.850
S33  37960118.776   199481833.14107         4.706          46.950
> 2016 01 05 00 25 30.0000000  0 26
G03  24773052.593   130183170.00607       634.384          42.750    24773055.255   101441404.87006       494.311          40.200    24773054.445   101441397.84605       494.309          35.600    24773057.551    97214673.56807       473.825          46.800
G08  23957728.361   125898726.15607      3434.020          44.550    23957728.463    98102912.17806      2675.852          41.650    23957727.468    98102915.17305      2675.852          35.500    23957727.956    94015294.60107      2564.400          47.250
G10  24351221.531   127966600.37007     -2110.157          44.300    24351220.006    99714255.11306     -1644.287          41.850    24351219.683    99714255.11406     -1644.287          38.700    24351219.504    95559497.83507     -1575.640          46.400
G14  21097298.216   110867189.76808     -1894.349          50.150                                                                    21097291.609    86390055.33507     -1476.106          44.850
G16  21732645.939   114205896.92908      -795.226          49.600                                                                    21732642.409    88991505.49206      -619.660          41.850
G21  24163746.760   126981382.80507      -285.249          46.600                                                                    24163740.279    98946525.00705      -222.273          34.050
G22  22826588.622   119954573.10108     -1872.863          48.850                                                                    22826580.498    93471098.38806     -1459.384          41.950
G26  22193324.326   116626801.42708     -1559.693          50.650    22193324.698    90878063.35907     -1215.380          47.900    22193324.566    90878063.35707     -1215.380          46.700    22193324.621    87091369.60408     -1164.855          51.650
G27  21454555.246   112744535.99008      2615.709          49.900    21454552.939    87852919.74508      2038.226          48.300    21454552.167    87852915.74407      2038.227          46.200    21454552.856    84192389.95008      1953.292          52.100
G31  22565385.521   118581920.20308       853.351          49.400    22565383.843    92401501.59407       664.955          44.550    22565382.850    92401497.59307       664.955          43.950
G32  23078900.392   121280450.87807      -439.046          47.900                                                                    23078897.199    94504246.63707      -342.155          42.300
R01  22765792.733   121696211.58506      1799.168          41.200    22765798.298                                          33.750
R07  21894223.364   117201554.71807     -3467.515          47.050    21894223.325    91156712.50307     -2696.956          43.350
R08  20583423.544   110223272.24107     -1096.644          47.000    20583424.416    85729224.60007      -852.945          45.450
R09  24437382.327   130494239.34606       -16.550          38.850    24437381.054   101495531.56704       -12.869          25.750
R10  23057358.653   122908693.40907       357.376          46.350    23057369.516                                          40.150
R11  23568924.908   125945331.47007       440.289          42.550    23568927.344    97957534.92905       342.444          33.700
R20  21771463.904   116421800.58507     -2075.966          43.800    21771469.256    90550288.52507     -1614.639          44.600
R21  19896219.448   106468803.03008      1279.097          48.900    19896218.552    82809143.03707       994.851          46.750
R22  21980736.146   117334719.32707      3939.389          47.650    21980738.387    91260369.71607      3063.972          42.900
E12  24142836.589   126871518.18448      1256.814          51.000    24142835.173    94741755.56708       938.552          51.150    24142832.782    97213256.69408       963.097          52.550    24142833.544    95977498.01108       950.815          49.600
C11  22232878.081   115772559.69207      1866.974          46.900    22232873.600    89522736.75108      1443.746          51.650
C12  22530661.379   117323111.31507     -1078.034          45.400    22530657.179    90721674.14008      -833.723          51.050
C14  23268557.352   121165527.96707     -1725.934          45.000    23268552.032    93692879.89208     -1334.694          50.100
S20  37328801.057   196164176.44507         8.569          46.600
S33  37960093.348   199481693.91207         4.548          47.000
> 2016 01 05 00 26  0.0000000  0 27
G03  24769459.733   130164288.54106       624.045          41.000    24769463.073   101426691.59106       486.254          40.750    24769462.217   101426684.58006       486.255          37.600    24769464.993    97200573.25507       466.179          46.750
G08  23938136.488   125795770.61407      3429.719          44.650    23938136.566    98022687.04607      2672.513          43.000    23938135.810    98022690.04306      2672.513          36.750    23938136.299    93938412.19908      2561.238          48.350
G10  24363246.527   128029791.89507     -2102.377          44.150    24363245.229    99763495.05507     -1638.224          42.350    24363245.067    99763495.04906     -1638.225          39.150    24363244.813    95606686.12307     -1570.034          47.250
G14  21108159.080   110924264.38708     -1910.766          50.050                                                                    21108152.498    86434529.39207     -1488.904          44.800
G16  21737208.484   114229874.22208      -803.362          50.000                                                                    21737205.228    89010189.55807      -625.966          43.900
G21  24165390.815   126990020.72907      -290.701          47.350                                                                    24165384.481    98953255.89406      -226.518          37.300
G22  22837273.203   120010719.36308     -1870.156          49.350                                                                    22837265.075    93514848.45007     -1457.271          42.750
G26  22202231.588   116673606.21708     -1560.472          49.650    22202231.853    90914424.53818     -1215.979          48.600    22202231.814    90914424.53817     -1215.978          46.950    22202231.942    87126319.95608     -1165.248          52.350
G27  21439658.439   112666254.79408      2602.977          50.100    21439656.274    87791921.54608      2028.297          48.900    21439655.462    87791917.54407      2028.298          47.400    21439655.965    84133933.34008      1943.869          52.600
G31  22560510.905   118556305.29608       854.232          49.550    22560509.199    92381542.26907       665.649          45.700    22560508.224    92381538.26707       665.649          44.200
G32  23081429.263   121293737.49907      -446.751          46.900                                                                    23081426.075    94514599.32506      -348.134          39.250
R01  22755746.840   121642512.90006      1780.880          41.250
R07  21913662.990   117305614.48007     -3469.588          47.150    21913662.563    91237648.18407     -2698.556          43.500
R08  20589618.934   110256451.77307     -1115.154          46.950    20589620.221    85755032.20407      -867.314          46.150
R09  24437469.423   130494707.30206       -14.642          37.050
R10  23055323.959   122897845.62707       365.624          47.650    23055334.377    95587260.91115       284.395          30.750
R11  23566426.795   125931982.97206       449.442          41.100    23566429.343    97947152.72605       349.562          33.050
R20  21783169.510   116484394.78107     -2096.902          43.700    21783174.807    90598972.83307     -1630.922          44.100
R21  19889109.344   106430755.87708      1257.312          48.900    19889108.633    82779550.76207       977.902          47.000
R22  21958606.565   117216589.91708      3935.908          48.450    21958608.706    91168491.37407      3061.267          44.100
E12  24135687.987   126833951.92648      1247.441          50.450    24135686.491    94713702.72508       931.691          50.700    24135684.077    97184472.05708       955.974          52.100    24135685.058    95949079.27108       943.851          48.750
C11  22222154.553   115716719.28607      1855.680          46.200    22222150.005    89479557.50208      1435.016          50.650
C12  22536914.164   117355673.18607     -1092.754          45.700    22536909.950    90746853.21208      -844.840          51.100
C14  23278510.308   121217356.69107     -1729.224          45.250    23278504.487    93732956.82808     -1337.097          49.950
S20  37328752.049   196163920.01907         8.407          46.700
S33  37960067.625   199481556.69107         4.421          43.500
S38  38831086.979   204058742.01617         -.097          47.050
> 2016 01 05 00 26 30.0000000  0 27
G03  24765925.643   130145717.06906       614.143          41.550    24765929.654   101412219.85006       478.536          39.300    24765928.894   101412212.84605       478.539          35.900    24765931.371    97186704.39807       458.574          47.050
G08  23918569.062   125692943.03207      3425.247          46.600    23918569.141    97942561.69507      2669.022          43.700    23918568.510    97942564.68506      2669.021          39.450    23918568.849    93861625.37808      2558.005          49.650
G10  24375228.936   128092760.10107     -2095.140          45.900    24375228.041    99812561.16007     -1632.578          43.350    24375227.965    99812561.16306     -1632.576          40.250    24375227.549    95653707.75608     -1564.574          48.550
G14  21119113.699   110981831.77208     -1927.071          49.750                                                                    21119107.128    86479387.07407     -1501.619          43.550
G16  21741817.164   114254096.13308      -811.421          49.500                                                                    21741814.163    89029064.62206      -632.252          41.600
G21  24167065.994   126998823.06007      -296.057          45.700                                                                    24167059.575    98960114.73306      -230.702          36.350
G22  22847942.375   120066784.57508     -1867.432          48.600                                                                    22847934.324    93558535.51206     -1455.144          40.650
G26  22211143.881   116720435.80008     -1561.403          49.650    22211143.992    90950914.82608     -1216.675          48.050    22211143.831    90950914.82407     -1216.674          46.050    22211144.447    87161289.71708     -1165.923          52.200
G27  21424834.712   112588356.47308      2590.242          50.100    21424832.463    87731221.45508      2018.350          48.000    21424831.660    87731217.45207      2018.351          46.150    21424832.267    84075762.38808      1934.419          52.350
G31  22555631.798   118530667.33608       855.003          49.000    22555630.110    92361565.03207       666.246          44.100    22555629.197    92361561.02807       666.247          42.900
G32  23084001.738   121307251.19108      -454.186          49.150                                                                    23083998.208    94525128.84907      -353.927          42.450
R01  22745807.163   121589380.84407      1761.436          42.800
R07  21933113.313   117409732.87608     -3471.504          48.650    21933112.767    91318629.41307     -2700.045          45.450
R08  20595918.142   110290186.37508     -1133.794          48.450    20595919.106    85781271.14607      -881.803          45.600
R09  24437544.696   130495115.36906       -12.668          36.350
R10  23053243.407   122886754.21407       373.825          46.750    23053254.140    95578624.75214       290.739          26.850
R11  23563876.582   125918355.15707       458.979          42.250    23563879.126    97936553.29005       356.982          32.300
R20  21794992.092   116547615.29807     -2117.656          43.900    21794997.469    90648144.34407     -1647.067          44.700
R21  19882121.193   106393361.98608      1235.481          48.850    19882120.804    82750466.61107       960.938          46.850
R22  21936496.263   117098564.05808      3932.431          49.000    21936498.584    91076693.53007      3058.555          45.100
E12  24128590.696   126796655.20148      1238.717          50.350    24128589.299    94685851.15108       925.108          50.600    24128586.801    97155893.93608       949.198          51.950    24128587.864    95920864.42208       937.155          48.400
C11  22211495.893   115661217.54607      1844.446          45.400    22211491.259    89436640.14008      1426.209          50.500
C12  22543250.765   117388670.56007     -1107.090          45.350    22543246.437    90772369.25508      -856.018          51.250
C14  23288481.569   121269278.96607     -1732.327          46.350    23288475.594    93773105.08408     -1339.437          50.350
S20  37328702.890   196163662.83907         8.538          46.700
S33  37960041.826   199481418.89407         4.655          44.950
S38  38831087.361   204058736.80607          .352          47.350
> 2016 01 05 00 27  0.0000000  0 27
G03  24762450.280   130127454.22807       603.638          42.700    24762454.591   101397988.63806       470.355          39.550    24762453.731   101397981.62405       470.353          33.050    24762456.679    97173066.06707       450.741          46.700
G08  23899026.427   125590245.85707      3421.098          46.850    23899026.685    97862537.98707      2665.791          44.500    23899025.789    97862540.97606      2665.791          39.400    23899026.260    93784936.00208      2554.667          50.350
G10  24387168.845   128155503.44507     -2087.640          46.050    24387167.752    99861452.03507     -1626.736          42.800    24387167.686    99861452.03706     -1626.736          39.600    24387167.260    95700561.57208     -1559.000          48.350
G14  21130161.859   111039890.48508     -1943.443          50.300                                                                    21130155.262    86524627.59407     -1514.374          46.250
G16  21746471.581   114278560.30508      -819.488          49.800                                                                    21746468.951    89048129.06007      -638.515          42.700
G21  24168772.699   127007791.56407      -301.658          44.750                                                                    24168766.343    98967103.09705      -235.061          33.650
G22  22858595.637   120122767.16608     -1864.693          49.300                                                                    22858587.621    93602158.56307     -1452.991          44.350
G26  22220060.043   116767287.35508     -1562.060          48.400    22220060.041    90987422.64007     -1217.182          44.650    22220059.842    90987422.63406     -1217.182          41.950    22220060.819    87196276.33508     -1166.467          50.200
G27  21410084.430   112510843.08008      2577.303          49.800    21410082.197    87670820.87608      2008.276          48.800    21410081.420    87670816.87207      2008.276          47.550    21410082.143    84017878.41908      1924.652          52.600
G31  22550748.594   118505007.81408       855.636          49.300    22550746.867    92341571.26207       666.767          44.900    22550745.907    92341567.25707       666.767          44.250
G32  23086617.120   121320989.33708      -461.694          48.800                                                                    23086613.437    94535832.95607      -359.778          42.850
R01  22735973.771   121536796.05017      1742.262          42.800    22735981.343    94528652.84214      1355.088          29.850
R07  21952573.401   117513906.16707     -3473.272          46.950    21952572.918    91399653.57007     -2701.416          44.150
R08  20602320.171   110324472.55108     -1152.047          48.850    20602321.057    85807938.67208      -896.024          48.100
R09  24437610.317   130495466.45606       -10.706          36.050
R10  23051117.436   122875419.72306       381.988          39.750
R11  23561273.854   125904446.94706       468.253          40.650    23561276.477    97925735.76905       364.195          31.500
R20  21806931.404   116611459.86007     -2138.713          44.350    21806936.861    90697801.09207     -1663.450          45.600
R21  19875255.782   106356624.74308      1213.609          48.800    19875255.628    82721893.33307       943.917          47.350
R22  21914406.326   116980646.12108      3928.656          49.150    21914408.603    90984979.63307      3055.625          43.800
E12  24121545.070   126759629.86848      1229.694          50.300    24121543.819    94658202.31408       918.224          50.350    24121541.194    97127523.82208       942.314          51.700    24121542.314    95892854.94407       930.290          47.950
C11  22200902.773   115606057.15407      1832.899          45.700    22200897.965    89393987.02808      1417.319          50.250
C12  22549670.799   117422101.75907     -1121.642          45.050    22549666.267    90798220.32608      -867.354          51.100
C14  23298471.163   121321293.98507     -1735.380          45.450    23298465.626    93813325.02208     -1341.881          49.750
S20  37328653.907   196163404.85007         8.470          46.250
S33  37960016.464   199481281.76607         4.754          44.350
S38  38831086.958   204058732.99707         -.032          44.900
> 2016 01 05 00 27 30.0000000  0 27
G03  24759033.395   130109499.01606       593.060          40.350    24759038.346   101383997.11306       462.110          40.400    24759037.776   101383990.10805       462.109          35.800    24759040.405    97159657.42907       442.979          46.250
G08  23879509.148   125487681.14807      3416.556          46.550    23879509.217    97782617.29107      2662.245          44.500    23879508.194    97782620.29106      2662.245          40.000    23879509.047    93708345.34308      2551.342          50.200
G10  24399066.137   128218020.84207     -2080.343          45.700    24399064.236    99910167.02007     -1621.044          42.950    24399064.189    99910167.01506     -1621.043          39.750    24399063.808    95747246.75608     -1553.393          48.250
G14  21141303.040   111098438.75708     -1959.709          49.650                                                                    21141296.728    86570249.45707     -1527.056          44.000
G16  21751170.970   114303261.55808      -827.346          50.050                                                                    21751168.356    89067377.38307      -644.677          44.550
G21  24170511.411   127016928.28607      -307.296          47.450                                                                    24170505.146    98974222.49606      -239.454          38.250
G22  22869232.343   120178664.34808     -1861.858          49.000                                                                    22869224.452    93645714.98506     -1450.786          41.250
G26  22228979.525   116814157.99708     -1562.669          49.750    22228979.478    91023945.25608     -1217.651          48.050    22228979.266    91023945.25807     -1217.651          46.300    22228980.263    87231277.16008     -1166.816          52.150
G27  21395408.307   112433718.36008      2564.297          49.700    21395406.100    87610723.26008      1998.145          48.300    21395405.375    87610719.25207      1998.145          46.200    21395406.203    83960284.81508      1914.911          52.400
G31  22545861.621   118479328.43608       856.363          49.750    22545859.833    92321562.03207       667.327          46.000    22545858.830    92321558.02807       667.327          45.300
G32  23089274.850   121334951.16308      -469.070          48.300                                                                    23089271.223    94546711.60406      -365.552          41.100
R01  22726247.029   121484808.22307      1723.343          46.700
R07  21972042.785   117618130.98307     -3475.106          45.850    21972042.403    91480718.12307     -2702.836          43.850
R08  20608824.556   110359308.55007     -1170.330          47.400    20608825.792    85835034.28207      -910.222          46.900
R09  24437665.574   130495762.71106        -8.890          36.200
R10  23048946.118   122863844.29907       389.760          43.100
R11  23558618.469   125890257.60406       477.617          41.800    23558621.006    97914699.58705       371.479          31.650
R20  21818987.344   116675927.14207     -2159.196          43.300    21818992.668    90747942.21207     -1679.383          43.850
R21  19868513.552   106320546.64408      1191.446          48.000    19868513.508    82693832.74407       926.690          46.100
R22  21892337.492   116862840.46107      3924.893          47.400    21892339.360    90893352.94707      3052.694          42.850
E12  24114551.241   126722877.28548      1220.353          50.850    24114550.131    94630757.07408       911.364          51.400    24114547.477    97099362.64308       935.133          52.450    24114548.564    95865051.73708       923.243          49.600
C11  22190375.390   115551239.53807      1821.580          46.700    22190370.462    89351599.06408      1408.490          51.600
C12  22556174.135   117455966.23007     -1136.114          44.650    22556169.528    90824406.10008      -878.443          51.100
C14  23308479.050   121373403.03307     -1738.505          45.950    23308474.179    93853619.32608     -1344.330          49.950
S20  37328603.682   196163143.69307         8.952          46.350
S33  37959991.943   199481144.55407         4.752          46.400
S38  38831086.450   204058728.15207         -.096          47.350
> 2016 01 05 00 28  0.0000000  0 27
G03  24755675.409   130091850.30407       583.198          42.900    24755680.535   101370244.41106       454.426          40.250    24755680.063   101370237.40106       454.425          37.250    24755682.052    97146477.64607       435.646          45.700
G08  23860017.695   125385252.22507      3412.108          46.250    23860017.755    97702802.50107      2658.786          44.400    23860016.881    97702805.49206      2658.787          40.050    23860017.651    93631856.13508      2547.917          50.100
G10  24410919.743   128280310.76807     -2072.516          46.100    24410917.532    99958704.56307     -1614.950          42.000    24410917.522    99958704.56806     -1614.950          38.000    24410916.742    95793761.92207     -1547.749          47.200
G14  21152537.262   111157475.46108     -1976.006          49.300                                                                    21152531.095    86616252.01107     -1539.760          44.850
G16  21755915.400   114328198.35908      -835.154          48.850                                                                    21755913.003    89086808.84607      -650.759          43.800
G21  24172282.291   127026234.41507      -312.924          46.450                                                                    24172276.086    98981473.94206      -243.839          37.600
G22  22879852.434   120234474.54808     -1858.920          48.950                                                                    22879844.504    93689203.62306     -1448.507          41.750
G26  22237901.876   116861045.67408     -1563.225          48.450    22237902.019    91060481.11407     -1218.087          47.300    22237901.858    91060481.11307     -1218.087          45.100    22237902.804    87266290.72908     -1167.266          51.750
G27  21380806.765   112356985.00908      2551.230          50.150    21380804.538    87550930.78208      1987.969          49.850    21380803.825    87550926.78108      1987.970          49.200    21380804.868    83902983.60308      1905.124          52.950
G31  22540970.823   118453629.21908       856.768          48.450    22540968.923    92301536.55107       667.613          43.400    22540967.973    92301532.54707       667.613          42.700
G32  23091974.414   121349134.17707      -476.706          46.450                                                                    23091970.788    94557762.67106      -371.483          36.900
R01  22716625.018   121433385.50707      1704.610          44.200    22716630.944    94448210.42016      1325.803          36.150
R07  21991520.373   117722401.01207     -3476.386          44.650    21991520.543    91561817.30207     -2703.853          42.200
R08  20615431.308   110394691.67208     -1188.508          48.550    20615432.405    85862556.01407      -924.338          47.250
R09  24437710.863   130496006.56305        -7.469          34.050
R10  23046730.089   122852029.22307       397.864          46.100    23046740.764    95551619.65415       309.445          33.350
R11  23555910.842   125875786.53406       487.054          41.500    23555913.104    97903444.27705       378.821          31.350
R20  21831159.139   116741015.27207     -2179.859          43.950    21831164.457    90798566.21207     -1695.453          44.000
R21  19861895.078   106285130.42808      1169.477          48.450    19861895.020    82666286.81707       909.587          46.800
R22  21870290.440   116745151.45608      3920.926          48.800    21870292.125    90801816.99307      3049.609          43.900
E12  24107609.639   126686398.93848      1211.626          50.150    24107608.714    94603516.46408       904.707          50.700    24107606.071    97071411.44808       928.282          52.100    24107607.277    95837455.83108       916.537          48.850
C11  22179913.807   115496765.57207      1810.080          46.000    22179908.918    89309476.22908      1399.595          51.250
C12  22562760.831   117490264.68807     -1150.454          43.550    22562756.431    90850927.89708      -889.646          50.000
C14  23318503.494   121425600.15107     -1741.313          45.250    23318498.584    93893981.49408     -1346.455          49.250
S20  37328553.255   196162880.07607         8.686          46.750
S33  37959967.079   199481009.25507         4.315          45.200
S38  38831085.803   204058721.70607          .297          44.500
> 2016 01 05 00 28 30.0000000  0 27
G03  24752375.685   130074506.96307       572.865          43.350    24752380.718   101356729.64906       446.372          40.100    24752380.013   101356722.63706       446.370          37.300    24752382.020    97133525.89207       428.006          45.850
G08  23840552.646   125282961.64107      3407.361          45.350    23840552.532    97623095.53907      2655.085          42.200    23840551.526    97623098.52806      2655.084          37.900    23840552.664    93555470.29408      2544.493          48.700
G10  24422729.932   128342372.53207     -2064.981          45.350    24422727.473   100007064.44006     -1609.070          41.650    24422727.416   100007064.43806     -1609.070          37.350    24422726.804    95840106.81507     -1541.977          47.300
G14  21163864.114   111216997.94408     -1992.187          49.850                                                                    21163857.906    86662632.86607     -1552.356          45.100
G16  21760704.723   114353370.01908      -842.936          49.750                                                                    21760702.549    89106423.93807      -656.806          46.150
G21  24174085.753   127035711.51707      -318.788          46.300                                                                    24174079.708    98988858.75406      -248.395          37.400
G22  22890455.312   120290195.78508     -1855.837          48.700                                                                    22890447.662    93732622.79506     -1446.108          40.850
G26  22246826.900   116907947.48408     -1563.633          48.750    22246827.186    91097027.54607     -1218.427          47.350    22246826.946    91097027.54607     -1218.427          44.850    22246827.942    87301314.34508     -1167.678          51.750
G27  21366280.077   112280645.62408      2538.044          49.800    21366277.897    87491445.43808      1977.695          48.600    21366277.243    87491441.43507      1977.695          46.850    21366278.416    83845976.78708      1895.358          52.350
G31  22536077.096   118427914.17908       857.362          48.900    22536075.190    92281499.11107       668.083          43.900    22536074.240    92281495.10707       668.083          42.300
G32  23094715.208   121363535.61607      -483.566          47.500                                                                    23094712.089    94568983.70206      -376.826          41.000
R01  22707110.710   121382532.08806      1685.602          41.350    22707116.642    94408652.24115      1311.024          34.050
R07  22011006.276   117826712.08107     -3477.696          45.700    22011006.269    91642947.46006     -2704.905          41.850
R08  20622139.085   110430615.45207     -1206.463          47.600    20622139.788    85890497.31807      -938.364          46.600
R09  24437746.988   130496200.66405        -5.830          34.800    24437749.878   101497051.78714        -4.530          26.550
R10  23044468.843   122839975.71907       405.769          42.550    23044479.294    95542244.70604       315.591          29.550
R11  23553149.975   125861032.95106       496.460          41.500    23553152.148    97891969.22805       386.136          31.600
R20  21843446.708   116806721.74607     -2200.540          43.850    21843451.605    90849670.92507     -1711.542          43.550
R21  19855400.822   106250378.73307      1147.201          47.800    19855400.744    82639257.41807       892.265          46.850
R22  21848266.152   116627583.54208      3916.973          48.750    21848267.807    90710375.30607      3046.531          43.850
E12  24100720.725   126650197.14048      1202.045          49.800    24100719.838    94576482.51508       897.688          49.400    24100717.275    97043672.27808       921.145          51.250    24100718.381    95810069.26907       909.457          47.150
C11  22169518.911   115442637.35307      1798.551          46.950    22169514.057    89267620.27908      1390.893          51.750
C12  22569430.599   117524995.74807     -1164.840          44.300    22569426.559    90877784.18308      -900.782          50.700
C14  23328544.140   121477883.15607     -1744.241          44.750    23328539.183    93934409.93908     -1348.692          49.600
S20  37328502.835   196162616.79407         8.759          46.850
S33  37959942.381   199480874.02107         4.402          46.900
S38  38831086.268   204058719.64807         -.214          46.750
> 2016 01 05 00 29  0.0000000  0 27
G03  24749133.459   130057467.76207       562.905          43.000    24749138.717   101343451.88806       438.613          40.600    24749138.063   101343444.87506       438.610          36.000    24749140.211    97120801.28307       420.334          46.050
G08  23821114.309   125180811.89507      3402.661          46.850    23821114.144    97543498.29407      2651.421          43.750    23821113.015    97543501.27906      2651.421          40.250    23821114.473    93479189.57608      2540.926          50.350
G10  24434496.321   128404204.58107     -2057.190          46.700    24434493.645   100055245.25106     -1603.010          41.550    24434493.571   100055245.24906     -1603.008          36.550    24434492.885    95886280.09507     -1536.212          47.700
G14  21175283.337   111277005.76308     -2008.235          49.600                                                                    21175277.103    86709392.25507     -1564.852          44.950
G16  21765538.056   114378772.72508      -850.608          49.450                                                                    21765536.007    89126218.84507      -662.778          43.900
G21  24175921.973   127045361.26307      -324.519          46.650                                                                    24175915.892    98996377.93306      -252.867          38.250
G22  22901041.122   120345826.80008     -1852.835          48.400                                                                    22901033.569    93775971.87506     -1443.757          39.800
G26  22255754.629   116954862.97108     -1564.077          50.000    22255755.061    91133585.11407     -1218.773          47.600    22255754.787    91133585.11407     -1218.773          45.950    22255755.708    87336348.66208     -1168.019          52.200
G27  21351828.831   112204702.47108      2524.650          49.750    21351826.630    87432268.80908      1967.255          48.550    21351825.872    87432264.80707      1967.255          47.250    21351827.270    83789265.84108      1885.380          52.450
G31  22531180.821   118402185.22908       857.901          49.300    22531178.955    92261450.93207       668.507          45.550    22531178.038    92261446.92607       668.508          44.450
G32  23097497.571   121378154.63907      -490.656          47.950                                                                    23097494.782    94580374.57206      -382.339          40.600
R01  22697703.631   121332248.64907      1666.578          45.050    22697710.709    94369542.84906      1296.240          36.300
R07  22030500.052   117931062.89107     -3478.948          46.800    22030499.621    91724109.23807     -2705.850          44.300
R08  20628947.133   110467075.54707     -1224.218          47.050    20628947.673    85918854.11807      -952.194          45.650
R09  24437773.629   130496347.55905        -4.203          34.600    24437778.043   101497170.23314        -3.259          28.250
R10  23042163.230   122827685.70907       413.687          42.750
R11  23550336.007   125845996.11006       506.041          41.550    23550338.352    97880273.88405       393.588          31.900
R20  21855849.746   116873045.35207     -2220.865          42.550    21855854.763    90901255.82407     -1727.345          43.150
R21  19849031.614   106216295.32607      1125.055          47.950    19849031.635    82612748.01207       875.058          46.700
R22  21826265.231   116510140.98208      3912.676          50.050    21826266.796    90619031.09707      3043.192          44.900
E12  24093884.891   126614273.32248      1192.651          50.300    24093883.865    94549656.25308       890.722          50.750    24093881.361    97016146.20908       913.956          51.950    24093882.437    95782893.10908       902.336          48.550
C11  22159191.460   115388857.88607      1786.958          46.650    22159186.705    89226033.98108      1381.681          51.400
C12  22576183.436   117560158.92707     -1179.219          44.600    22576179.366    90904974.84608      -911.866          50.300
C14  23338600.806   121530251.05707     -1746.904          44.900    23338596.065    93974904.51608     -1351.013          49.200
S20  37328452.579   196162351.64107         8.990          46.750
S33  37959918.090   199480740.05107         4.740          45.750
S38  38831085.908   204058715.61407          .165          47.650
> 2016 01 05 00 29 30.0000000  0 27
G03  24745949.034   130040731.64107       552.957          43.850    24745954.586   101330410.25806       430.859          40.750    24745954.053   101330403.25005       430.860          35.950    24745955.516    97108302.95407       412.835          45.950
G08  23801703.283   125078806.17107      3397.885          47.150    23801703.049    97464013.30307      2647.707          44.200    23801701.870    97464016.28806      2647.707          40.700    23801703.625    93403016.46808      2537.314          50.750
G10  24446218.760   128465806.20107     -2049.317          45.850    24446215.894   100103246.60506     -1596.871          41.050    24446215.896   100103246.59906     -1596.871          36.700    24446215.312    95932281.41008     -1530.474          48.100
G14  21186794.336   111337496.20308     -2024.325          48.950                                                                    21186788.280    86756527.55707     -1577.394          44.500
G16  21770415.200   114404403.95108      -857.968          50.100                                                                    21770412.864    89146191.61207      -668.538          45.200
G21  24177791.149   127055185.14507      -330.347          45.350                                                                    24177785.256    99004032.85905      -257.412          35.850
G22  22911609.508   120401365.33407     -1849.741          47.150                                                                    22911601.914    93819248.83706     -1441.354          38.150
G26  22264684.414   117001789.13508     -1564.399          49.250    22264684.898    91170150.94507     -1219.010          46.300    22264684.587    91170150.94707     -1219.011          44.500    22264685.434    87371390.86608     -1168.182          51.400
G27  21337453.289   112129158.64108      2511.433          50.050    21337451.271    87373403.60508      1956.964          49.350    21337450.539    87373399.60107      1956.963          47.750    21337451.942    83732853.36708      1875.403          52.750
G31  22526282.163   118376444.60808       858.286          49.800    22526280.464    92241394.16107       668.830          46.550    22526279.495    92241390.15907       668.830          46.000
G32  23100321.243   121392989.78008      -497.921          49.100                                                                    23100318.043    94591934.37407      -387.991          43.250
R01  22688403.954   121282538.43107      1647.556          45.800    22688410.975    94330877.76116      1281.449          36.800
R07  22050000.205   118035448.37707     -3480.113          45.200    22049999.734    91805297.90007     -2706.753          43.150
R08  20635855.714   110504069.16507     -1241.976          46.550    20635855.971    85947608.55417      -966.066          44.050
R09  24437792.566   130496449.83606        -2.742          36.850
R10  23039813.181   122815159.25507       421.533          44.800    23039824.020    95522940.33715       327.859          30.150
R11  23547468.817   125830675.24106       515.309          40.100    23547471.642    97868357.60705       400.794          30.600
R20  21868367.663   116939983.98707     -2241.527          43.800    21868372.848    90953318.97507     -1743.412          44.600
R21  19842787.715   106182883.30707      1102.528          47.300    19842787.552    82586761.09707       857.531          46.000
R22  21804288.569   116392827.76408      3908.313          48.250    21804290.267    90527787.37407      3039.798          43.850
E12  24087102.261   126578629.39948      1183.797          50.550    24087101.142    94523039.33008       883.809          51.000    24087098.557    96988834.89608       906.884          52.150    24087099.511    95755928.98908       895.361          49.000
C11  22148931.455   115335429.49807      1775.145          46.100    22148926.954    89184719.37208      1372.618          51.250
C12  22583018.889   117595752.60407     -1193.499          45.300    22583014.574    90932498.16908      -923.094          50.650
C14  23348673.020   121582700.34207     -1749.478          43.950    23348668.412    94015461.86508     -1353.014          48.700
S20  37328401.351   196162083.37007         9.123          46.400
S33  37959893.803   199480609.69907         4.442          46.100
S38  38831085.439   204058710.79508          .217          48.550
> 2016 01 05 00 30  0.0000000  0 27
G03  24742822.192   130024297.31307       542.713          43.900    24742827.471   101317603.80306       422.879          41.000    24742827.194   101317596.79506       422.877          37.550    24742828.144    97096029.96307       405.330          46.600
G08  23782319.923   124976946.31107      3392.847          47.300    23782319.904    97384642.02407      2643.774          44.200    23782318.834    97384645.00806      2643.774          38.600    23782320.280    93326952.33408      2533.685          49.900
G10  24457897.019   128527176.15707     -2041.737          46.400    24457894.010   100151067.41107     -1590.958          42.350    24457894.028   100151067.40506     -1590.958          38.650    24457893.588    95978109.66708     -1524.667          49.200
G14  21198396.931   111398468.51608     -2040.403          49.450                                                                    21198390.899    86804038.64507     -1589.913          44.550
G16  21775335.444   114430259.96308      -865.629          48.900                                                                    21775332.527    89166338.82206      -674.545          41.950
G21  24179693.867   127065184.44307      -336.294          45.600                                                                    24179687.811    99011824.50405      -262.050          34.500
G22  22922159.979   120456809.32007     -1846.428          47.150                                                                    22922152.357    93862452.18406     -1438.768          39.200
G26  22273616.047   117048724.87208     -1564.724          49.700    22273616.603    91206724.58807     -1219.227          46.850    22273616.283    91206724.59007     -1219.227          44.500    22273617.108    87406440.72408     -1168.428          51.750
G27  21323154.308   112054015.91708      2498.087          50.400    21323152.117    87314850.81108      1946.557          49.050    21323151.383    87314846.80607      1946.558          47.300    21323152.687    83676740.24808      1865.394          52.650
G31  22521381.293   118350693.97508       858.549          48.650    22521379.729    92221329.76907       669.027          43.900    22521378.684    92221325.76707       669.027          42.100
G32  23103185.237   121408036.66507      -505.215          47.750                                                                    23103181.736    94603658.70606      -393.666          38.900
R01  22679211.442   121233397.37107      1628.395          44.500
R07  22069506.047   118139864.09707     -3480.893          46.050    22069505.474    91886510.04907     -2707.362          42.600
R08  20642865.143   110541597.99407     -1259.801          47.300    20642865.535    85976801.54517      -979.819          45.650
R09  24437803.555   130496509.71005        -1.168          34.900
R10  23037419.129   122802398.11406       429.122          38.850    23037429.986    95513014.77204       333.764          27.900
R11  23544548.203   125815069.43006       524.773          39.500    23544551.420    97856219.70105       408.156          30.250
R20  21881000.355   117007535.63007     -2261.911          44.050    21881005.547    91005858.96407     -1759.265          44.250
R21  19836669.538   106150143.98308      1080.021          48.650    19836669.263    82561296.99907       840.015          46.800
R22  21782336.874   116275648.71908      3903.620          48.700    21782338.727    90436648.05307      3036.148          44.300
E12  24080372.889   126543267.00048      1173.869          50.650    24080371.788    94496632.91608       876.672          51.700    24080369.139    96961739.55308       899.579          52.450    24080369.835    95729178.11008       888.131          49.700
C11  22138739.197   115282354.25107      1763.277          45.900    22138734.944    89143678.04208      1363.476          51.150
C12  22589937.108   117631775.91707     -1207.870          44.250    22589932.457    90960353.35708      -934.080          50.050
C14  23358760.546   121635230.31807     -1752.243          45.950    23358755.986    94056082.21208     -1354.955          50.000
S20  37328348.866   196161813.22607         8.957          46.100
S33  37959869.090   199480480.08307         4.623          45.250
S38  38831084.770   204058706.28707          .562          46.900
> 2016 01 05 00 30 30.0000000  0 28
G03  24739752.381   130008164.90807       532.834          45.700    24739757.851   101305033.25407       415.198          42.400    24739757.728   101305026.24406       415.196          38.600    24739758.609    97083983.23807       397.842          47.650
G08  23762965.149   124875235.58107      3387.754          46.850    23762964.962    97305387.00307      2639.811          44.100    23762963.973    97305390.00106      2639.814          39.200    23762965.263    93250999.60908      2529.898          49.650
G10  24469530.717   128588313.14307     -2033.884          44.150    24469527.989   100198706.73406     -1584.844          39.850    24469527.750   100198706.73506     -1584.844          37.600    24469527.633    96023764.03507     -1518.887          47.200
G14  21210090.625   111459920.69908     -2056.403          49.400                                                                    21210084.693    86851923.93807     -1602.374          44.800
G16  21780298.423   114456339.13608      -872.991          49.850                                                                    21780295.125    89186659.59107      -680.271          45.350
G21  24181630.321   127075360.83907      -342.231          45.200                                                                    24181624.237    99019754.01005      -266.678          34.500
G22  22932692.207   120512158.20707     -1843.482          47.400                                                                    22932684.639    93905582.03906     -1436.449          39.750
G26  22282548.561   117095667.65008     -1564.825          49.900    22282549.242    91243303.89008     -1219.350          48.300    22282548.908    91243303.88907     -1219.351          46.750    22282549.609    87441495.97808     -1168.454          52.400
G27  21308931.977   111979277.17108      2484.480          50.050    21308929.812    87256612.78908      1935.955          49.200    21308929.084    87256608.78807      1935.956          47.800    21308930.452    83620928.83108      1855.344          52.650
G29  25123954.924   132027269.04016     -3407.741          37.350    25123951.267   102878386.04616     -2655.382          36.250    25123947.612   102878393.04614     -2655.374          29.150
G31  22516478.342   118324933.16307       858.829          47.150    22516476.651    92201257.19307       669.224          42.900    22516475.638    92201253.19006       669.223          40.700
G32  23106089.155   121423296.24207      -512.340          46.000                                                                    23106085.932    94615549.89805      -399.219          35.350
R01  22670126.394   121184826.85106      1609.295          41.200    22670137.126                                          31.900
R07  22089016.695   118244306.52207     -3481.711          47.200    22089016.401    91967743.14007     -2708.013          43.550
R08  20649973.703   110579658.49007     -1277.593          47.050    20649974.248    86006404.05307      -993.691          44.200
R09  24437806.573   130496529.69706         -.038          36.700    24437811.074   101497308.34414         -.020          27.000
R10  23034981.336   122789404.03107       437.027          44.100    23034990.978    95502910.18115       339.910          31.150
R11  23541574.389   125799177.86606       534.550          39.350    23541577.273    97843859.54704       415.760          29.250
R20  21893747.218   117075698.37807     -2282.377          42.600    21893752.533    91058874.32807     -1775.195          42.250
R21  19830677.821   106118080.80407      1057.381          47.850    19830677.483    82536358.76207       822.404          46.450
R22  21760411.098   116158608.38908      3898.935          49.000    21760413.146    90345616.64607      3032.502          45.000
E12  24073697.172   126508187.39248      1164.713          50.400    24073695.991    94470437.78008       869.591          51.050    24073693.332    96934860.99508       892.272          52.100    24073693.822    95702641.26108       880.964          48.950
C11  22128614.942   115229633.81607      1751.415          45.750    22128610.926    89102911.15808      1354.376          51.100
C12  22596937.771   117668229.01707     -1222.399          46.150    22596933.236    90988540.97708      -945.094          51.450
C14  23368862.486   121687837.28407     -1754.781          44.650    23368857.708    94096762.05208     -1356.958          49.450
S20  37328297.228   196161543.43107         9.199          46.200
S33  37959843.538   199480350.23607         4.151          47.200
S38  38831084.793   204058704.91807         -.071          47.650
> 2016 01 05 00 31  0.0000000  0 26
G08  23743638.747   124773676.09207      3382.792          45.550    23743638.755    97226249.76307      2635.945          43.600    23743637.623    97226252.75906      2635.946          38.350    23743638.845    93175159.76508      2526.134          49.150
G10  24481120.015   128649216.21707     -2026.184          46.150    24481117.432   100246163.72706     -1578.835          41.000    24481117.105   100246163.72606     -1578.837          37.150    24481117.174    96069243.65508     -1513.073          48.250
G14  21221875.133   111521850.83108     -2072.299          48.900                                                                    21221869.260    86900181.86607     -1614.755          43.850
G16  21785303.764   114482639.34208      -880.487          49.350                                                                    21785300.281    89207152.41807      -686.114          43.350
G21  24183600.899   127085715.87007      -348.242          44.150                                                                    24183594.625    99027822.66305      -271.365          32.650
G22  22943205.404   120567408.20608     -1839.994          49.100                                                                    22943197.671    93948634.20206     -1433.771          41.200
G26  22291481.805   117142613.93308     -1565.121          49.150    22291482.421    91279885.31807     -1219.575          47.800    22291482.111    91279885.31507     -1219.575          45.800    22291482.813    87476553.18108     -1168.546          52.200
G27  21294787.137   111904945.20008      2470.971          50.100    21294784.915    87198691.89008      1925.436          48.950    21294784.176    87198687.89107      1925.437          47.200    21294785.604    83565421.32608      1845.161          52.600
G29  25143421.829   132129567.86405     -3412.093          32.200                                                                    25143416.455   102958087.15815     -2658.768          30.650
G31  22511574.220   118299164.39608       858.901          49.250    22511572.320    92181177.83607       669.292          45.100    22511571.380    92181173.83407       669.292          44.050
G32  23109032.115   121438763.80807      -519.038          47.700                                                                    23109029.120    94627602.68206      -404.464          41.100
R01  22661150.173   121136831.65707      1590.171          45.200    22661159.980    94217572.48716      1236.788          38.450
R07  22108532.003   118348771.65707     -3482.420          47.600    22108531.422    92048993.95007     -2708.520          43.750
R08  20657179.958   110618245.14808     -1295.086          48.050    20657180.712    86036415.90107     -1007.291          46.850
R09  24437804.062   130496512.50706         1.112          37.000
R11  23538546.922   125783000.32606       544.144          38.350    23538549.713    97831276.98104       423.223          29.450
R20  21906607.974   117144470.05007     -2302.553          44.200    21906613.279    91112363.28807     -1790.880          43.850
R21  19824813.005   106086696.57408      1034.764          48.600    19824812.765    82511948.59307       804.813          46.650
R22  21738512.298   116041710.92408      3894.105          48.800    21738514.318    90254696.35907      3028.745          44.100
E12  24067075.245   126473391.07148      1155.164          51.000    24067073.928    94444453.57808       862.610          51.700    24067071.179    96908198.93208       885.075          52.450    24067071.904    95676318.13508       873.840          49.750
C11  22118559.224   115177270.34407      1739.352          46.150    22118555.275    89062420.46808      1345.071          51.300
C12  22604020.690   117705111.15607     -1236.561          44.500    22604016.351    91017060.62408      -956.190          50.050
C14  23378978.608   121740518.11007     -1757.342          45.000    23378973.495    94137498.38908     -1358.828          49.150
S20  37328244.688   196161272.26907         9.088          46.550
S33  37959817.769   199480220.70707         4.221          46.150
S38  38831084.458   204058703.17808          .379          48.000
> 2016 01 05 00 31 30.0000000  0 28
G08  23724341.812   124672270.54207      3377.533          47.700    23724342.044    97147232.48507      2631.849          45.200    23724341.035    97147235.48006      2631.850          41.100    23724341.888    93099434.88108      2522.163          50.750
G10  24492664.776   128709884.22507     -2018.329          44.000    24492662.201   100293437.49606     -1572.721          38.950    24492661.987   100293437.50505     -1572.719          34.300    24492661.910    96114547.73507     -1507.332          46.100
G14  21233749.763   111584254.99608     -2088.062          48.950                                                                    21233744.022    86948808.42107     -1627.070          43.200
G16  21790351.078   114509158.60808      -887.720          50.100                                                                    21790347.085    89227815.94707      -691.755          42.600
G21  24185606.038   127096251.66207      -354.149          45.700                                                                    24185599.683    99036032.53805      -275.963          33.350
G22  22953699.809   120622557.58007     -1836.485          47.650                                                                    22953692.127    93991607.49806     -1431.030          40.000
G26  22300415.591   117189561.99008     -1564.932          49.400    22300416.268    91316467.68307     -1219.427          47.700    22300415.887    91316467.68007     -1219.427          46.000    22300416.662    87511611.17908     -1168.635          52.350
G27  21280719.837   111831022.44308      2457.253          49.300    21280717.795    87141089.94608      1914.749          48.650    21280717.014    87141085.94507      1914.749          47.550    21280718.535    83510219.51008      1834.964          52.600
G29  25162910.457   132231986.45606     -3416.028          38.550    25162908.661   103037904.83315     -2661.810          35.900    25162907.513   103037893.81605     -2661.814          34.000
G31  22506669.495   118273390.91308       859.075          48.750    22506667.374    92161094.95407       669.413          44.500    22506666.496    92161090.94807       669.413          42.950
G32  23112014.307   121454437.33807      -525.771          47.600                                                                    23112011.528    94639815.66706      -409.705          39.650
R01  22652281.933   121089415.73707      1570.843          47.550
R07  22128050.645   118453256.40207     -3483.064          46.900    22128050.038    92130260.31307     -2709.034          43.750
R08  20664483.606   110657353.89207     -1312.251          47.500    20664484.054    86066833.58107     -1020.667          45.400
R09  24437794.858   130496460.61105         2.483          35.350
R10  23029976.043   122762724.21017       452.399          43.800    23029987.175                                          37.500
R11  23535465.777   125766535.64106       553.360          38.800    23535468.771    97818471.10004       430.391          28.000
R20  21919582.278   117213848.75007     -2322.917          44.100    21919587.396    91166324.38707     -1806.717          43.900
R21  19819075.882   106055994.63308      1012.047          48.800    19819075.581    82488069.37907       787.142          46.550
R22  21716641.005   115924960.79508      3889.168          48.650    21716643.062    90163890.76707      3024.910          44.350
E12  24060507.786   126438879.72648      1145.364          50.200    24060506.345    94418681.71808       855.266          50.400    24060503.511    96881754.79508       877.728          51.500    24060504.842    95650210.13107       866.558          47.800
C11  22108572.377   115125265.88307      1727.486          45.950    22108568.385    89022207.61608      1335.785          50.950
C12  22611185.940   117742421.29707     -1250.863          46.000    22611181.472    91045911.26708      -967.260          50.700
C14  23389108.746   121793271.21407     -1759.627          45.700    23389103.417    94178290.43608     -1360.615          50.600
S20  37328191.737   196160997.07907         9.002          46.400
S33  37959791.798   199480089.75707         4.448          46.850
S36  39143246.470   205699145.40517          .223          47.300
S38  38831084.424   204058699.79708          .108          48.100
> 2016 01 05 00 32  0.0000000  0 28
G08  23705074.714   124571021.75307      3372.250          47.550    23705075.036    97068337.34607      2627.727          45.050    23705074.133    97068340.33606      2627.727          41.200    23705074.866    93023827.04208      2518.217          50.550
G10  24504164.598   128770316.47907     -2010.746          44.750    24504162.047   100340527.77007     -1566.809          42.100    24504161.993   100340527.75706     -1566.809          36.600    24504161.330    96159675.90008     -1501.300          48.550
G14  21245714.916   111647132.57308     -2103.918          49.250                                                                    21245708.951    86997803.63907     -1639.423          44.250
G16  21795439.634   114535894.53008      -894.776          49.800                                                                    21795435.302    89248648.65907      -697.255          43.350
G21  24187645.422   127106969.03607      -360.271          45.950                                                                    24187638.798    99044383.77705      -280.734          35.450
G22  22964175.501   120677605.85808     -1833.485          48.800                                                                    22964167.392    94034502.08806     -1428.697          40.800
G26  22309349.768   117236511.09007     -1564.993          46.800    22309350.535    91353051.09307     -1219.475          45.100    22309350.211    91353051.09207     -1219.474          42.000    22309351.043    87546670.24408     -1168.624          51.350
G27  21266730.995   111757511.32508      2443.406          50.000    21266729.001    87083808.80508      1903.964          48.850    21266728.152    87083804.80407      1903.964          47.000    21266729.571    83455325.11908      1824.633          52.600
G29  25182422.383   132334523.71406     -3419.606          36.050    25182420.258   103117804.11406     -2664.606          37.550    25182419.756   103117793.13905     -2664.604          33.150
G31  22501764.255   118247613.99308       859.179          49.650    22501761.841    92141009.28307       669.522          45.350    22501760.883    92141005.28307       669.522          45.350
G32  23115035.282   121470314.92307      -532.768          47.050                                                                    23115033.096    94652187.47706      -415.187          39.800
R01  22643520.642   121042576.51507      1551.977          45.100
R07  22147571.720   118557756.30107     -3483.723          47.850    22147571.098    92211538.71807     -2709.537          44.650
R08  20671884.448   110696982.90607     -1329.906          46.650    20671884.679    86097656.28107     -1034.334          42.700
R09  24437778.679   130496376.61506         2.967          36.700
R10  23027409.203   122749055.73717       459.925          44.550
R11  23532331.051   125749783.89606       562.941          38.300
R20  21932669.656   117283832.04007     -2342.874          43.450    21932674.854    91220755.80007     -1822.236          43.300
R21  19813466.464   106025976.55708       989.059          48.600    19813466.252    82464721.80107       769.254          46.750
R22  21694798.101   115808362.29908      3883.973          49.050    21694800.253    90073202.97707      3020.863          44.100
E12  24053995.559   126404656.44748      1136.014          50.700    24053993.896    94393125.36108       848.321          50.950    24053991.010    96855531.76508       870.400          51.900    24053992.517    95624320.43908       859.413          48.700
C11  22098654.493   115073621.63707      1715.470          46.050    22098650.382    88982273.15708      1326.527          51.600
C12  22618433.095   117780158.73307     -1265.215          45.700    22618428.548    91075092.45708      -978.242          50.800
C14  23399252.722   121846094.41907     -1762.042          45.300    23399247.191    94219136.54408     -1362.458          49.600
S20  37328138.949   196160720.98007         8.905          46.750
S33  37959767.264   199479960.71307         4.091          44.400
S36  39143242.342   205699136.52007          .259          47.900
S38  38831084.254   204058699.17107         -.035          47.550
