     2.11           OBSERVATION DATA    G (GPS)             RINEX VERSION / TYPE
teqc  2013Mar15     gpsops              20150502 00:13:34UTCPGM / RUN BY / DATE
Linux 2.4.21-27.ELsmp|Opteron|gcc -static|Linux x86_64|=+   COMMENT
BIT 2 OF LLI FLAGS DATA COLLECTED UNDER A/S CONDITION       COMMENT
BOGT                                                        MARKER NAME
41901M001                                                   MARKER NUMBER
GGN                 JPL                                     OBSERVER / AGENCY
UC120031609         ASHTECH UZ-12       CQ00                REC # / TYPE / VERS
CR620024311         ASH701945E_M    NONE                    ANT # / TYPE
  1744399.0397 -6116037.5577   512731.7532                  APPROX POSITION XYZ
        0.0610        0.0000        0.0000                  ANTENNA: DELTA H/E/N
     1     1                                                WAVELENGTH FACT L1/2
     7    L1    L2    P1    P2    C1    S1    S2            # / TYPES OF OBSERV
    30.0000                                                 INTERVAL
                                                            COMMENT
This data is provided as a public service by NASA/JPL.      COMMENT
No warranty is expressed or implied regarding suitability   COMMENT
for use.  For further information, contact:                 COMMENT
Dave Stowers, NASA/JPL m/s 238-600                          COMMENT
4800 Oak Grove Drive, Pasadena CA 91109 USA                 COMMENT
                                                            COMMENT
Forced Modulo Decimation to 30 seconds                      COMMENT
 SNR is mapped to RINEX snr flag value [0-9]                COMMENT
  L1 & L2: min(max(int(snr_dBHz/6), 0), 9)                  COMMENT
pseudorange smoothing corrections not applied               COMMENT
  2015     5     1     0     0    0.0000000     GPS         TIME OF FIRST OBS
                                                            END OF HEADER
 15  5  1  0  0  0.0000000  0 10G28G11G17G07G04G09G06G30G01G03
  -7935021.12447  -6137890.42446  23367785.6234   23367792.2164   23367784.503
        46.0004         41.0004
  -9082762.22047  -7038177.90246  23561080.7054   23561091.1034   23561080.981
        45.0004         40.0004
  -4715723.38147  -3627422.51146  23347719.8124   23347727.4054   23347720.848
        42.0004         37.0004
 -21088001.24049 -16379345.70748  20332870.2244   20332876.7674   20332869.789
        55.0004         51.0004
   -375919.50046   -263897.27645  24616966.4664   24616978.4824   24616969.719
        39.0004         34.0004
   1150032.42747    955546.20246  23989737.9564   23989748.5344   23989737.187
        45.0004         40.0004
  -6584687.99248  -5125295.88347  22465935.1764   22465948.1674   22465934.569
        49.0004         44.0004
  -4874053.37849  -3786276.17748  20449193.5234   20449201.9054   20449193.346
        56.0004         52.0004
  -9586135.03948  -7419424.36347  22370192.3694   22370204.2174   22370192.289
        50.0004         45.0004
  -5029474.05648  -3877398.69847  22334110.6404   22334121.2744   22334110.189
        50.0004         46.0004
 15  5  1  0  0 30.0000000  0 10G28G11G17G07G04G09G06G30G01G03
  -8005864.13647  -6193092.62346  23354303.0594   23354311.2144   23354303.859
        46.0004         41.0004
  -8988940.11947  -6965069.86946  23578934.9434   23578944.6684   23578934.072
        44.0004         40.0004
  -4703669.55247  -3618029.82946  23350014.1654   23350022.8044   23350013.294
        42.0004         38.0004
 -21034712.39249 -16337821.96048  20343010.7634   20343017.3604   20343010.310
        55.0004         51.0004
 -20748337.65556 -16138508.89055  24637524.7595   24637540.7185   24637526.687
        38.0004         34.0004
   1183146.14447    981349.18746  23996037.9784   23996049.5444   23996037.305
        45.0004         40.0004
  -6661783.84448  -5185370.42547  22451263.6434   22451276.1024   22451263.857
        49.0004         44.0004
  -4887160.16849  -3796489.23948  20446699.3354   20446707.9124   20446699.517
        56.0004         52.0004
  -9493110.80348  -7346937.99747  22387894.5814   22387906.3474   22387894.137
        50.0004         45.0004
  -5042154.57948  -3887279.59147  22331696.9954   22331709.3314   22331695.879
        50.0004         45.0004
 15  5  1  0  1  0.0000000  0 10G28G11G17G07G04G09G06G30G01G03
  -8076843.63947  -6248401.22246  23340796.5834   23340802.4404   23340797.339
        46.0004         41.0004
  -8895113.75247  -6891958.53846  23596790.7834   23596800.2844   23596790.113
        44.0004         39.0004
  -4691610.92747  -3608633.42746  23352310.5904   23352316.6454   23352312.015
        43.0004         38.0004
 -20980921.26949 -16295906.83248  20353246.8744   20353253.3284   20353246.489
        55.0004         51.0004
 -20640274.46046 -16054303.83845  24658090.9044   24658106.5764   24658089.475
        38.0004         33.0004
   1216029.57047   1006972.78346  24002295.7434   24002306.2914   24002294.847
        45.0004         40.0004
  -6738509.64148  -5245156.62247  22436664.3924   22436675.7314   22436663.144
        49.0004         45.0004
  -4899700.03249  -3806260.54748  20444313.1834   20444321.5044   20444313.292
        56.0004         52.0004
  -9399858.19748  -7274273.69347  22405640.9284   22405652.1364   22405641.138
        50.0004         45.0004
  -5054516.06348  -3896911.88347  22329345.5474   22329355.4724   22329345.115
        50.0004         46.0004
 15  5  1  0  1 30.0000000  0 11G28G11G17G07G04G09G06G30G32G01G03
  -8147961.77747  -6303817.84846  23327264.7014   23327271.3534   23327264.821
        46.0004         41.0004
  -8801289.09747  -6818848.56246  23614645.5484   23614652.7254   23614643.990
        44.0004         39.0004
  -4679552.96147  -3599237.50846  23354603.1284   23354610.9984   23354603.268
        43.0004         39.0004
 -20926633.67749 -16253604.83648  20363577.4894   20363583.7804   20363577.026
        55.0004         51.0004
                 -15970087.18745                  24678669.3164   24678660.020
                        33.0004
   1248678.07947   1032413.30946  24008508.9354   24008518.0914   24008508.938
        44.0004         40.0004
  -6814867.33048  -5304655.98347  22422134.3844   22422145.2854   22422132.815
        49.0004         45.0004
  -4911676.75949  -3815593.04648  20442034.2214   20442042.6234   20442034.214
        56.0004         52.0004
                                                                  24734235.377

  -9306384.00748  -7201436.72047  22423428.6094   22423439.0374   22423428.105
        50.0004         45.0004
  -5066560.35048  -3906297.01647  22327052.7634   22327064.0044   22327052.953
        50.0004         46.0004
 15  5  1  0  2  0.0000000  0  9G28G11G17G07G09G06G30G01G03
  -8219213.94547  -6359338.89446  23313703.9334   23313712.5994   23313702.942
        46.0004         41.0004
  -8707465.78147  -6745739.61046  23632498.4794   23632508.4864   23632498.076
        44.0004         40.0004
  -4667494.90947  -3589841.56446  23356898.2094   23356906.8994   23356898.439
        43.0004         39.0004
 -20871849.70949 -16210916.05748  20374002.6834   20374009.6304   20374002.282
        55.0004         51.0004
   1281093.57047   1057672.23146  24014677.5354   24014688.1074   24014676.358
        44.0004         39.0004
  -6890852.42448  -5363865.01647  22407673.4494   22407685.8784   22407672.848
        49.0004         45.0004
  -4923087.64749  -3824484.63248  20439862.6554   20439871.2224   20439862.858
        56.0004         52.0004
  -9212688.58648  -7128427.36247  22441258.8504   22441268.5374   22441258.293
        50.0004         45.0004
  -5078282.81548  -3915431.37247  22324822.9414   22324833.2574   22324822.842
        50.0004         46.0004
 15  5  1  0  2 30.0000000  0  9G28G11G17G07G09G06G30G01G03
  -8290599.67147  -6414963.99546  23300119.8274   23300127.3224   23300119.518
        46.0004         41.0004
  -8613647.16147  -6672634.27746  23650351.8184   23650361.0354   23650351.866
        44.0004         40.0004
  -4655440.18647  -3580448.23046  23359193.1494   23359198.8704   23359192.715
        43.0004         39.0004
 -20816573.06349 -16167843.37848  20384521.7354   20384527.8404   20384521.093
        55.0004         51.0004
   1313274.05147   1082748.03446  24020799.9924   24020810.9124   24020800.270
        44.0004         39.0004
  -6966464.29848  -5422783.21247  22393285.6094   22393296.7354   22393284.329
        50.0004         45.0004
  -4933933.89049  -3832936.23648  20437798.5534   20437807.0964   20437798.237
        56.0004         52.0004
  -9118776.07848  -7055248.85847  22459129.0614   22459139.4324   22459129.065
        49.0004         45.0004
  -5089682.77948  -3924314.42547  22322653.5804   22322663.5194   22322653.327
        50.0004         46.0004
 15  5  1  0  3  0.0000000  0  9G28G11G17G07G09G06G30G01G03
  -8362116.30647  -6470691.10447  23286511.1014   23286519.2314   23286511.702
        46.0004         42.0004
  -8519834.57547  -6599533.67546  23668204.7154   23668214.1654   23668204.126
        44.0004         39.0004
  -4643389.89047  -3571058.38146  23361486.8334   23361492.8494   23361484.759
        43.0004         39.0004
 -20760805.36249 -16124388.05148  20395133.9184   20395140.3634   20395133.629
        55.0004         51.0004
   1345219.53247   1107640.73846  24026877.9124   24026889.4574   24026877.317
        44.0004         40.0004
  -7041700.30248  -5481408.52147  22378968.5504   22378980.5754   22378967.879
        50.0004         45.0004
  -4944214.73249  -3840947.26948  20435842.3184   20435850.9744   20435842.250
        56.0004         52.0004
  -9024648.67148  -6981902.88147  22477041.6134   22477050.9024   22477041.627
        50.0004         45.0004
  -5100757.43348  -3932943.99347  22320545.7324   22320556.7664   22320545.123
        50.0004         46.0004
 15  5  1  0  3 30.0000000  0  9G28G11G17G07G09G06G30G01G03
  -8433763.36947  -6526519.87347  23272875.5384   23272883.1514   23272877.081
        46.0004         42.0004
  -8426031.68247  -6526440.60346  23686054.2004   23686064.5494   23686053.187
        44.0004         39.0004
  -4631347.12347  -3561674.38546  23363776.4764   23363784.4024   23363777.664
        44.0004         40.0004
 -20704550.25349 -16080552.92648  20405838.7034   20405845.1644   20405838.677
        55.0004         51.0004
   1376928.11047   1132348.83946  24032913.7844   24032924.1144   24032915.034
        44.0004         40.0004
  -7116559.82148  -5539740.47047  22364723.3584   22364734.6444   22364722.800
        50.0004         45.0004
  -4953931.42249  -3848518.69648  20433993.1534   20434001.7714   20433993.242
        56.0004         52.0004
  -8930310.56348  -6908392.73547  22494992.7894   22495003.8754   22494992.697
        49.0004         45.0004
  -5111506.10548  -3941319.55047  22318500.5934   22318511.8174   22318500.140
        50.0004         46.0004
 15  5  1  0  4  0.0000000  0  9G28G11G17G07G09G06G30G01G03
  -8505535.66447  -6582446.21647  23259219.3234   23259225.6704   23259218.959
        46.0004         42.0004
  -8332236.92147  -6453353.88546  23703902.4914   23703912.9054   23703902.368
        44.0004         39.0004
  -4619310.68347  -3552295.27846  23366066.4054   23366074.7274   23366066.795
        44.0004         39.0004
 -20647807.13749 -16036337.53448  20416636.3454   20416642.5824   20416636.026
        55.0004         51.0004
   1408402.37047   1156874.33046  24038902.4824   24038913.4164   24038903.326
        45.0004         40.0004
  -7191037.74148  -5597775.08147  22350548.7344   22350561.2294   22350548.791
        49.0004         45.0004
  -4963080.72349  -3855648.00548  20432252.4104   20432260.3784   20432252.174
        56.0004         52.0004
  -8835761.39648  -6834718.10047  22512984.2544   22512995.7584   22512984.978
        49.0004         45.0004
  -5121923.52648  -3949436.99047  22316517.5894   22316528.9334   22316517.654
        50.0004         46.0004
 15  5  1  0  4 30.0000000  0  9G28G11G17G07G09G06G30G01G03
  -8577434.88847  -6638471.50247  23245537.4834   23245542.9234   23245537.485
        46.0004         42.0004
  -8238456.22747  -6380278.13046  23721749.1214   23721757.7774   23721750.113
        43.0004         39.0004
  -4607285.80747  -3542925.17146  23368355.0324   23368363.1874   23368355.436
        45.0004         40.0004
 -20590582.09349 -15991746.61548  20427526.1234   20427532.8564   20427525.696
        55.0004         51.0004
   1439638.16047   1181214.01546  24044846.5814   24044856.1644   24044845.664
        44.0004         40.0004
  -7265135.65948  -5655513.59447  22336449.1094   22336461.7304   22336448.215
        50.0004         45.0004
  -4971666.16549  -3862337.95048  20430618.3134   20430626.9284   20430618.237
        56.0004         52.0004
  -8741007.55348  -6760883.99847  22531016.7114   22531027.7954   22531014.934
        49.0004         45.0004
  -5132011.25448  -3957297.52347  22314598.1164   22314609.1864   22314598.045
        50.0004         46.0004
 15  5  1  0  5  0.0000000  0  9G28G11G17G07G09G06G30G01G03
  -8649458.68747  -6694593.83046  23231831.5414   23231837.8294   23231830.997
        46.0004         41.0004
  -8144691.12647  -6307214.51246  23739593.0124   23739599.4164   23739592.663
        43.0004         39.0004
  -4595274.01047  -3533565.26746  23370642.3114   23370648.7144   23370641.631
        45.0004         41.0004
 -20532877.27349 -15946781.84348  20438507.0494   20438513.5404   20438506.494
        55.0004         50.0004
   1470635.32047   1205367.75946  24050744.0544   24050754.6644   24050743.916
        44.0004         39.0004
  -7338851.32648  -5712954.23747  22322422.2774   22322433.7534   22322421.505
        50.0004         45.0004
  -4979687.31349  -3868588.18048  20429092.0974   20429100.6454   20429091.983
        56.0004         52.0004
  -8646051.52148  -6686892.33747  22549085.9874   22549097.2344   22549085.263
        49.0004         44.0004
  -5141766.85148  -3964899.26247  22312741.8814   22312752.8044   22312741.640
        51.0004         46.0004
 15  5  1  0  5 30.0000000  0  9G28G11G17G07G09G06G30G01G03
  -8721603.28347  -6750810.30347  23218102.7184   23218109.7084   23218102.705
        46.0004         42.0004
  -8050941.78947  -6234163.19246  23757431.0594   23757441.5924   23757430.847
        44.0004         39.0004
  -4583275.30747  -3524215.56546  23372923.6774   23372931.4454   23372923.307
        45.0004         40.0004
 -20474692.92049 -15901443.41048  20449579.3014   20449585.7054   20449578.907
        55.0004         50.0004
   1501395.06547   1229336.48646  24056596.5654   24056607.5134   24056596.508
        44.0004         39.0004
  -7412181.06948  -5770094.17047  22308467.4784   22308478.9314   22308467.015
        50.0004         45.0004
  -4987142.45849  -3874397.37248  20427673.3874   20427682.0694   20427673.171
        56.0004         52.0004
  -8550894.31548  -6612743.91747  22567192.9824   22567204.7714   22567194.075
        49.0004         44.0004
  -5151186.56948  -3972239.26047  22310949.0724   22310961.4184   22310949.013
        51.0004         46.0004
 15  5  1  0  6  0.0000000  0  9G28G11G17G07G09G06G30G01G03
  -8793868.13547  -6807120.47847  23204350.7394   23204357.8574   23204350.169
        46.0004         42.0004
  -7957211.64647  -6161126.80946  23775266.4824   23775277.3834   23775266.056
        44.0004         39.0004
  -4571293.02347  -3514878.64046  23375204.2324   23375211.7324   23375202.885
        45.0004         41.0004
 -20416033.15649 -15855734.52848  20460741.8344   20460748.3624   20460741.483
        55.0004         50.0004
   1531915.45447   1253118.66446  24062405.6644   24062415.6374   24062405.899
        44.0004         40.0004
  -7485124.37448  -5826932.97047  22294587.6024   22294598.6764   22294586.279
        50.0004         45.0004
  -4994033.04549  -3879766.65148  20426362.0754   20426370.4604   20426362.251
        56.0004         52.0004
  -8455540.20948  -6538442.08247  22585338.7684   22585349.9674   22585338.545
        49.0004         44.0004
  -5160269.76848  -3979317.04847  22309221.0194   22309232.2714   22309220.304
        51.0004         46.0004
 15  5  1  0  6 30.0000000  0  9G28G11G17G07G09G06G30G01G03
  -8866251.12447  -6863522.70247  23190576.8764   23190585.1804   23190575.940
        46.0004         42.0004
  -7863502.87747  -6088107.08746  23793098.8474   23793108.9124   23793098.713
        44.0004         39.0004
  -4559328.72847  -3505555.73747  23377481.4264   23377488.7974   23377481.045
        46.0004         42.0004
 -20356901.05349 -15809657.58748  20471994.4654   20472001.0504   20471994.108
        55.0004         50.0004
   1562195.98947   1276714.01346  24068168.0584   24068178.5844   24068169.110
        44.0004         39.0004
  -7557679.41548  -5883469.24747  22280780.3804   22280791.7104   22280780.037
        50.0004         46.0004
  -5000359.12949  -3884696.06748  20425158.3674   20425166.7154   20425158.289
        56.0004         52.0004
  -8359992.05148  -6463989.05247  22603521.8114   22603532.3204   22603519.823
        49.0004         44.0004
  -5169014.47448  -3986131.07447  22307557.0164   22307567.2274   22307556.169
        51.0004         46.0004
 15  5  1  0  7  0.0000000  0  9G28G11G17G07G09G06G30G01G03
  -8938749.29147  -6920014.68147  23176780.2344   23176787.3664   23176781.122
        46.0004         42.0004
  -7769816.09847  -6015104.51246  23810927.9624   23810939.3124   23810927.401
        43.0004         38.0004
  -4547383.28647  -3496247.55947  23379754.5594   23379761.3464   23379754.193
        46.0004         42.0004
 -20297297.94949 -15763213.63348  20483336.3014   20483342.6944   20483336.317
        55.0004         50.0004
   1592237.06347   1300122.74346  24073884.2564   24073895.2324   24073884.343
        44.0004         39.0004
  -7629843.32248  -5939700.74347  22267048.7404   22267058.5454   22267047.532
        50.0004         46.0004
  -5006119.87649  -3889184.95048  20424061.8534   20424070.4104   20424061.705
        56.0004         52.0004
  -8264251.64948  -6389386.18747  22621739.2164   22621751.6854   22621738.196
        49.0004         44.0004
  -5177417.74048  -3992679.04447  22305957.0324   22305968.1614   22305957.250
        51.0004         46.0004
 15  5  1  0  7 30.0000000  0  9G28G11G17G07G09G06G30G01G03
  -9011362.78547  -6976596.53847  23162963.3074   23162970.2544   23162962.313
        46.0004         42.0004
  -7676155.43447  -5942122.24546  23828751.1564   23828761.7504   23828751.112
        43.0004         38.0004
  -4535460.54747  -3486957.04847  23382024.1104   23382030.6614   23382023.548
        47.0004         43.0004
 -20237228.03649 -15716405.93048  20494767.5474   20494773.9694   20494767.422
        55.0004         50.0004
   1622036.37147   1323343.04746  24079554.8414   24079563.9914   24079556.598
        44.0004         40.0004
  -7701616.18648  -5995627.51547  22253389.5154   22253401.8454   22253388.738
        50.0004         45.0004
  -5011317.29749  -3893234.88248  20423073.1504   20423081.5394   20423073.263
        56.0004         52.0004
  -8168323.73848  -6314637.21447  22639994.6704   22640004.8404   22639993.651
        48.0004         44.0004
  -5185479.49548  -3998960.88947  22304423.3074   22304434.5484   22304422.697
        51.0004         46.0004
 15  5  1  0  8  0.0000000  0 10G28G11G17G07G09G06G30G32G01G03
  -9084087.35947  -7033264.98047  23149123.5574   23149129.9754   23149123.741
        47.0004         42.0004
  -7582520.73847  -5869160.22346  23846568.7624   23846579.7704   23846570.470
        42.0004         37.0004
  -4523560.20147  -3477684.01947  23384287.6604   23384294.5974   23384287.270
        47.0004         43.0004
 -20176691.80049 -15669234.85848  20506287.1564   20506294.0164   20506286.736
        55.0004         50.0004
   1651595.38047   1346376.12646  24085179.7864   24085189.5424   24085179.795
        44.0004         40.0004
  -7772994.21048  -6051246.62947  22239807.0484   22239817.2324   22239805.995
        50.0004         45.0004
  -5015949.56949  -3896844.43948  20422191.5404   20422199.9354   20422191.819
        56.0004         52.0004
                                                                  24832840.354

  -8072209.17148  -6239742.80847  22658284.4774   22658295.7134   22658284.420
        48.0004         44.0004
  -5193195.81748  -4004973.58347  22302954.9004   22302965.3664   22302953.340
        50.0004         46.0004
 15  5  1  0  8 30.0000000  0  9G28G11G17G07G09G06G30G01G03
  -9156925.26547  -7090021.69047  23135262.4394   23135269.4044   23135263.720
        47.0004         42.0004
  -7488918.20247  -5796223.30246  23864383.6444   23864390.3364   23864382.420
        42.0004         37.0004
  -4511688.22748  -3468433.08047  23386547.1034   23386554.9564   23386547.014
        48.0004         43.0004
 -20115696.32049 -15621705.94148  20517894.0734   20517900.1934   20517893.524
        55.0004         50.0004
   1680909.27947   1369218.23246  24090757.5974   24090768.3774   24090756.858
        44.0004         39.0004
  -7843979.81848  -6106559.96047  22226298.9704   22226308.9344   22226297.970
        50.0004         45.0004
  -5020021.13449  -3900017.07848  20421416.6694   20421424.9924   20421416.778
        56.0004         52.0004
  -7975915.00748  -6164708.45247  22676610.1024   22676619.2914   22676609.191
        49.0004         44.0004
  -5200569.01648  -4010718.90947  22301551.6684   22301562.5104   22301551.544
        50.0004         46.0004
 15  5  1  0  9  0.0000000  0  9G28G11G17G07G09G06G30G01G03
  -9229868.55947  -7146860.55347  23121382.3424   23121389.2504   23121382.605
        47.0004         42.0004
  -7395344.23147  -5723308.59846  23882186.3464   23882196.9984   23882188.392
        42.0004         38.0004
  -4499840.30548  -3459200.87047  23388800.7394   23388809.1664   23388801.525
        48.0004         43.0004
 -20054238.16349 -15573816.49148  20529589.1644   20529595.7004   20529588.465
        55.0004         50.0004
   1709983.58647   1391873.62746  24096290.8754   24096302.0804   24096291.193
        44.0004         39.0004
  -7914565.31848  -6161561.52647  22212866.2974   22212877.8374   22212865.423
        50.0004         45.0004
  -5023526.31549  -3902748.37848  20420749.7014   20420757.7674   20420749.605
        56.0004         52.0004
  -7879438.24448  -6089531.82147  22694967.5834   22694977.9434   22694966.871
        48.0004         43.0004
  -5207591.30948  -4016190.79747  22300215.7714   22300226.7144   22300214.237
        50.0004         46.0004
 15  5  1  0  9 30.0000000  0 10G28G11G17G07G09G06G30G32G01G03
  -9302918.80847  -7203782.74447  23107481.3494   23107487.3934   23107481.258
        47.0004         42.0004
  -7301804.17447  -5650420.33146  23899990.1024   23899999.3944   23899990.065
        43.0004         38.0004
  -4488022.28447  -3449991.97847  23391050.6664   23391056.1834   23391049.787
        47.0004         43.0004
 -19992323.79749 -15525571.55548  20541371.0054   20541377.7464   20541370.594
        55.0004         50.0004
   1738814.19647   1414339.13646  24101776.2954   24101786.6514   24101777.263
        44.0004         40.0004
  -7984752.59248  -6216252.77247  22199510.2454   22199520.6764   22199509.870
        50.0004         45.0004
  -5026468.93149  -3905041.31948  20420189.6554   20420198.2044   20420189.949
        56.0004         52.0004
                                                                  24857260.043

  -7782785.22248  -6014217.84647  22713360.6454   22713369.8784   22713359.062
        48.0004         43.0004
  -5214264.34548  -4021390.55147  22298946.7984   22298956.2134   22298945.586
        50.0004         46.0004
 15  5  1  0 10  0.0000000  0 10G28G11G17G07G09G06G30G32G01G03
  -9376073.26147  -7260786.13047  23093560.0934   23093565.5164   23093560.959
        47.0004         42.0004
  -7208299.05947  -5577559.30746  23917784.2454   23917792.0974   23917780.430
        42.0004         38.0004
  -4476235.13047  -3440807.15247  23393293.4094   23393298.8474   23393293.395
        47.0004         43.0004
 -19929954.98149 -15476972.50248  20553239.3264   20553246.2064   20553238.840
        55.0004         50.0004
   1767401.37547   1436614.95746  24107215.6324   24107226.3264   24107215.050
        44.0004         39.0004
  -8054539.17548  -6270631.79847  22186230.3134   22186240.8574   22186229.326
        50.0004         45.0004
  -5028848.64249  -3906895.63048  20419736.8814   20419745.4184   20419736.938
        56.0004         52.0004
   -844123.04548   -663585.43645  24865538.5744   24865549.8454   24865537.994
        51.0004         34.0004
  -7685958.13848  -5938768.23847  22731785.4614   22731798.0864   22731784.950
        48.0004         43.0004
  -5220585.61548  -4026316.19647  22297743.2134   22297753.1954   22297742.640
        50.0004         46.0004
 15  5  1  0 10 30.0000000  0 10G28G11G17G07G09G06G30G32G01G03
  -9449330.43147  -7317869.56247  23079619.9754   23079626.2184   23079620.325
        47.0004         42.0004
  -7114831.36747  -5504727.43946  23935567.2114   23935577.1474   23935567.713
        42.0004         38.0004
  -4464480.70347  -3431647.82547  23395530.6054   23395537.7304   23395529.849
        47.0004         43.0004
 -19867135.00349 -15428021.89748  20565193.7794   20565199.9784   20565193.682
        54.0004         50.0004
   1795744.21947   1458700.38646  24112610.1464   24112619.6064   24112609.433
        44.0004         39.0004
  -8123923.81048  -6324697.62347  22173026.4694   22173037.3434   22173026.030
        50.0004         45.0004
  -5030666.21649  -3908311.91648  20419390.7524   20419399.3814   20419391.013
        56.0004         51.0004
   -800245.33747   -629395.07845  24873889.2314   24873905.0404   24873887.674
        45.0004         34.0004
  -7588960.27848  -5863185.54947  22750243.8324   22750255.7334   22750244.279
        48.0004         43.0004
  -5226553.72448  -4030966.64247  22296607.0534   22296617.6514   22296606.862
        50.0004         46.0004
 15  5  1  0 11  0.0000000  0 10G28G11G17G07G09G06G30G32G01G03
  -9522688.66647  -7375031.75247  23065659.7994   23065669.0554   23065660.673
        47.0004         42.0004
  -7021403.50547  -5431926.64746  23953347.3374   23953357.3184   23953346.630
        42.0004         38.0004
  -4452761.57448  -3422515.98447  23397759.7174   23397768.3184   23397759.432
        48.0004         43.0004
 -19803867.01149 -15378722.18448  20577233.2914   20577239.6774   20577233.025
        54.0004         50.0004
   1823841.79547   1480594.66946  24117957.3204   24117967.1264   24117956.991
        44.0004         40.0004
  -8192905.33848  -6378449.33347  22159900.0984   22159910.1334   22159898.725
        50.0004         45.0004
  -5031922.49449  -3909290.82748  20419151.9734   20419160.3834   20419152.043
        56.0004         52.0004
   -756002.56346   -594920.27545  24882310.0714   24882324.9834   24882307.985
        41.0004         34.0004
  -7491794.98448  -5787472.39247  22768733.7734   22768744.8404   22768733.722
        48.0004         43.0004
  -5232167.32148  -4035340.85247  22295538.8804   22295550.1914   22295537.829
        50.0004         46.0004
 15  5  1  0 11 30.0000000  0 10G28G11G17G07G09G06G30G32G01G03
  -9596143.50747  -7432269.22047  23051681.9544   23051689.0154   23051682.086
        47.0004         42.0004
  -6928015.31547  -5359156.71946  23971116.3194   23971128.4594   23971116.736
        42.0004         38.0004
  -4441077.18148  -3413411.21447  23399983.4544   23399990.6534   23399983.835
        49.0004         44.0004
 -19740151.51649 -15329073.77048  20589357.8904   20589364.4954   20589357.517
        54.0004         50.0004
   1851695.95247   1502299.27346  24123257.0334   24123266.9064   24123256.806
        45.0004         40.0004
  -8261479.74548  -6431883.80047  22146850.5104   22146861.4864   22146849.772
        50.0004         46.0004
  -5032615.53949  -3909830.84948  20419019.8954   20419028.3814   20419019.805
        56.0004         51.0004
   -711392.38046   -560159.07145  24890798.3434   24890807.8504   24890795.379
        39.0004         33.0004
  -7394462.80148  -5711629.19247  22787254.9534   22787266.8654   22787254.179
        48.0004         43.0004
  -5237422.27148  -4039435.60847  22294539.1234   22294549.9994   22294537.762
        50.0004         45.0004
 15  5  1  0 12  0.0000000  0 10G28G11G17G07G09G06G30G32G01G03
  -9669694.52147  -7489581.62347  23037684.5444   23037692.4254   23037685.648
        47.0004         42.0004
  -6834670.38847  -5286420.50746  23988881.8394   23988890.8434   23988881.868
        42.0004         37.0004
  -4429431.17748  -3404336.34247  23402198.9664   23402207.0174   23402199.296
        49.0004         44.0004
 -19675993.01049 -15279080.15148  20601567.0754   20601573.5584   20601566.770
        54.0004         50.0004
   1879304.38347   1523812.43246  24128510.9034   24128520.6924   24128510.804
        45.0004         40.0004
  -8329647.30148  -6485001.23847  22133878.5294   22133888.7844   22133876.833
        50.0004         45.0004
  -5032747.69349  -3909933.81448  20418994.8574   20419003.2104   20418994.790
        56.0004         52.0004
   -666416.61346   -525113.05045  24899354.4874   24899364.4454   24899356.787
        38.0004         33.0004
  -7296968.46848  -5635659.65347  22805808.9044   22805818.6154   22805807.733
        48.0004         43.0004
  -5242318.72248  -4043251.00747  22293607.5174   22293617.4544   22293606.954
        50.0004         46.0004
 15  5  1  0 12 30.0000000  0 10G28G11G17G07G09G06G30G32G01G03
  -9743341.81947  -7546969.04247  23023670.9074   23023677.8574   23023670.142
        47.0004         42.0004
  -6741372.22847  -5213720.75846  24006635.5164   24006644.4384   24006635.387
        42.0004         37.0004
  -4417826.43148  -3395293.62747  23404407.5014   23404415.0044   23404407.750
        49.0004         44.0004
 -19611395.57349 -15228744.50848  20613859.5804   20613866.0254   20613859.010
        54.0004         50.0004
   1906665.20047   1545132.63946  24133717.7804   24133727.6144   24133717.898
        45.0004         40.0004
  -8397407.81848  -6537801.49647  22120984.1424   22120994.8004   22120983.456
        50.0004         46.0004
  -5032320.84149  -3909601.19148  20419075.9504   20419084.2074   20419075.827
        56.0004         52.0004
   -621076.85746   -489783.43045  24907987.2244   24907997.6034   24907985.113
        38.0004         33.0004
  -7199316.29148  -5559567.11647  22824391.4064   22824402.3934   22824390.264
        48.0004         43.0004
  -5246856.32048  -4046786.77747  22292742.8574   22292755.3424   22292743.335
        50.0004         46.0004
 15  5  1  0 13  0.0000000  0 10G28G11G17G07G09G06G30G32G01G03
  -9817078.83647  -7604426.38147  23009639.9274   23009644.8864   23009640.450
        47.0004         42.0004
  -6648118.75946  -5141055.86046  24024380.3994   24024391.7724   24024379.946
        41.0004         37.0004
  -4406261.42448  -3386281.88647  23406608.2164   23406615.5984   23406608.908
        49.0004         44.0004
 -19546358.26849 -15178066.09948  20626235.6254   20626241.8734   20626234.817
        54.0004         50.0004
   1933781.96847   1566262.67346  24138877.0814   24138888.2134   24138877.422
        45.0004         40.0004
  -8464755.74148  -6590280.25647  22108168.0624   22108178.7304   22108167.910
        50.0004         46.0004
  -5031331.54549  -3908830.29348  20419264.2134   20419272.7204   20419264.652
        56.0004         52.0004
                                                                  24916681.380

  -7101505.16848  -5483350.71847  22843003.1114   22843014.7874   22843003.949
        48.0004         43.0004
  -5251029.39248  -4050038.50447  22291949.8494   22291960.3264   22291949.228
        50.0004         46.0004
 15  5  1  0 13 30.0000000  0 10G28G11G17G07G09G06G30G32G01G03
  -9890907.48847  -7661955.12347  22995589.6364   22995597.7684   22995589.495
        47.0004         43.0004
  -6554915.61946  -5068430.17446  24042115.2344   24042127.0264   24042115.851
        41.0004         37.0004
  -4394741.62648  -3377305.38047  23408801.9304   23408807.9414   23408801.529
        49.0004         44.0004
 -19480887.75049 -15127050.13348  20638694.4024   20638700.7984   20638694.036
        54.0004         50.0004
   1960650.30447   1587199.12246  24143989.4644   24144000.2744   24143988.835
        45.0004         40.0004
  -8531693.42448  -6642439.35947  22095429.5234   22095441.0664   22095429.069
        51.0004         46.0004
  -5029784.26149  -3907624.59748  20419558.6014   20419567.4214   20419558.696
        56.0004         52.0004
                                                                  24925451.174

  -7003541.90147  -5407015.76947  22861646.3584   22861656.9474   22861645.378
        47.0004         43.0004
  -5254840.13948  -4053007.91447  22291225.2974   22291235.3254   22291223.815
        50.0004         46.0004
 15  5  1  0 14  0.0000000  0  9G28G11G17G07G09G06G30G01G03
  -9964822.36347  -7719551.05447  22981524.7884   22981531.6534   22981525.059
        47.0004         43.0004
  -6461762.00346  -4995843.05046  24059844.7344   24059853.1724   24059842.274
        41.0004         36.0004
  -4383265.45248  -3368362.87047  23410985.4334   23410991.8334   23410984.882
        49.0004         44.0004
 -19414983.64649 -15075696.30048  20651235.5984   20651242.2134   20651235.529
        55.0004         50.0004
   1987273.02847   1607944.21146  24149055.4534   24149066.4314   24149056.074
        45.0004         40.0004
  -8598216.09748  -6694275.07647  22082771.2764   22082781.0024   22082770.271
        50.0004         46.0004
  -5027676.30849  -3905982.02548  20419960.1944   20419968.2594   20419960.022
        56.0004         52.0004
  -6905426.13147  -5330561.98747  22880316.6114   22880328.1694   22880315.774
        47.0004         43.0004
  -5258283.61848  -4055691.13047  22290568.9874   22290580.0704   22290568.337
        50.0004         46.0004
 15  5  1  0 14 30.0000000  0  9G28G11G17G07G09G06G30G01G03
 -10038824.15147  -7777214.69447  22967442.3364   22967450.6244   22967442.046
        47.0004         43.0004
  -6368661.96046  -4923297.69346  24077559.5454   24077568.6904   24077562.182
        41.0004         36.0004
  -4371837.12248  -3359457.60047  23413159.3864   23413166.4014   23413159.080
        49.0004         44.0004
 -19348651.48349 -15024008.92148  20663858.4534   20663864.5884   20663858.581
        55.0004         50.0004
   2013647.30447   1628495.68146  24154075.6394   24154085.0014   24154075.884
        45.0004         40.0004
  -8664324.72148  -6745788.15247  22070191.3674   22070201.9294   22070190.066
        51.0004         46.0004
  -5025010.79949  -3903904.99348  20420467.0234   20420475.5094   20420466.993
        56.0004         52.0004
  -6807163.22247  -5253993.54147  22899015.9724   22899026.9704   22899015.614
        47.0004         43.0004
  -5261360.64548  -4058088.79547  22289983.3564   22289994.8124   22289983.198
        51.0004         46.0004
 15  5  1  0 15  0.0000000  0  9G28G11G17G07G09G06G30G01G03
 -10112910.21547  -7834944.02747  22953342.7664   22953350.7174   22953344.046
        47.0004         43.0004
  -6275617.07846  -4850795.29446  24095265.6314   24095278.5414   24095268.077
        40.0004         36.0004
  -4360458.39648  -3350591.02147  23415325.3724   23415331.8764   23415324.217
        48.0004         44.0004
 -19281893.47049 -14971989.70648  20676561.9554   20676568.2814   20676561.193
        55.0004         50.0004
   2039773.03147   1648853.45146  24159046.1484   24159055.4034   24159046.068
        45.0004         40.0004
  -8730017.47048  -6796977.18947  22057690.1424   22057700.9994   22057689.436
        51.0004         46.0004
  -5021788.04449  -3901393.73648  20421080.3064   20421088.7894   20421080.666
        56.0004         52.0004
  -6708755.77347  -5177312.49447  22917742.2264   22917752.5644   22917742.119
        47.0004         43.0004
  -5264069.27148  -4060199.40147  22289468.3924   22289478.4444   22289467.814
        51.0004         46.0004
 15  5  1  0 15 30.0000000  0  9G28G11G17G07G09G06G30G01G03
 -10187078.95347  -7892737.75347  22939229.8124   22939236.2764   22939230.200
        47.0004         43.0004
  -6182629.75846  -4778337.75846  24112960.7424   24112972.8404   24112961.940
        41.0004         36.0004
  -4349131.23448  -3341764.62047  23417481.3344   23417486.6654   23417480.576
        48.0004         44.0004
 -19214712.93049 -14919641.25048  20689346.1054   20689352.3604   20689345.595
        55.0004         50.0004
   2065649.48747   1669016.97946  24163971.9034   24163980.5754   24163971.113
        44.0004         40.0004
  -8795293.20848  -6847841.27847  22045268.1804   22045278.8074   22045267.450
        51.0004         46.0004
  -5018009.01849  -3898449.02448  20421799.3794   20421807.7864   20421799.363
        56.0004         52.0004
  -6610206.92547  -5100521.26747  22936495.6864   22936506.3654   22936495.518
        47.0004         42.0004
  -5266408.20948  -4062021.93647  22289023.3554   22289033.0534   22289023.027
        50.0004         46.0004
 15  5  1  0 16  0.0000000  0  9G28G11G17G07G09G06G30G01G03
 -10261325.61247  -7950592.22447  22925101.1244   22925107.3324   22925102.435
        47.0004         43.0004
  -6089699.82246  -4705924.97446  24130644.5964   24130656.9504   24130647.905
        40.0004         36.0004
  -4337854.69948  -3332977.67747  23419625.5904   23419632.3054   23419626.091
        48.0004         43.0004
 -19147110.74749 -14866964.23848  20702210.3174   20702216.7954   20702209.857
        55.0004         50.0004
   2091278.53147   1688987.77146  24168847.2654   24168857.6864   24168845.459
        44.0004         39.0004
  -8860148.18748  -6898377.49947  22032926.8054   22032936.7844   22032925.962
        51.0004         46.0004
  -5013672.14149  -3895069.62748  20422624.8824   20422633.1554   20422625.046
        56.0004         52.0004
  -6511517.28847  -5023620.33047  22955275.4424   22955285.5314   22955275.034
        47.0004         43.0004
  -5268373.50548  -4063553.32847  22288648.7294   22288659.8534   22288648.722
        50.0004         46.0004
 15  5  1  0 16 30.0000000  0  9G28G11G17G07G09G06G30G01G03
 -10335649.23547  -8008506.66547  22910957.7434   22910963.3514   22910958.539
        47.0004         43.0004
  -5996829.39546  -4633558.52845  24148315.3894   24148326.0144   24148319.509
        40.0004         35.0004
  -4326631.80848  -3324232.53747  23421762.1024   23421769.5704   23421761.156
        48.0004         43.0004
 -19079090.41249 -14813961.39548  20715154.0144   20715160.6604   20715153.737
        55.0004         50.0004
   2116659.06947   1708764.92246  24173675.8494   24173684.6444   24173676.115
        43.0004         38.0004
  -8924581.77548  -6948585.37947  22020665.0954   22020675.5134   22020665.435
        51.0004         46.0004
  -5008778.97949  -3891256.76048  20423555.7074   20423564.3454   20423555.444
        56.0004         52.0004
  -6412690.57647  -4946612.58047  22974080.4284   22974093.2674   22974080.503
        47.0004         42.0004
  -5269964.43948  -4064793.00047  22288345.9424   22288357.3194   22288344.902
        50.0004         46.0004
 15  5  1  0 17  0.0000000  0  9G28G11G17G07G09G06G30G01G03
 -10410048.68248  -8066480.16547  22896798.9474   22896807.2044   22896800.197
        48.0004         43.0004
  -5904021.56446  -4561240.88846  24165977.5404   24165988.7524   24165978.141
        40.0004         36.0004
  -4315465.57348  -3315531.53647  23423886.6464   23423893.0394   23423886.167
        48.0004         43.0004
 -19010656.14749 -14760636.00448  20728176.8174   20728183.3974   20728176.506
        55.0004         50.0004
   2141789.60547   1728347.22646  24178459.1094   24178469.9714   24178458.574
        42.0004         38.0004
  -8988593.68848  -6998464.67147  22008484.2704   22008494.6014   22008483.252
        51.0004         47.0004
  -5003331.35849  -3887011.85148  20424592.2894   20424600.9034   20424592.326
        56.0004         52.0004
  -6313730.75147  -4869501.10147  22992911.4734   22992924.4434   22992911.265
        47.0004         42.0004
  -5271180.49748  -4065740.56647  22288114.5564   22288125.6464   22288113.581
        50.0004         46.0004
 15  5  1  0 17 30.0000000  0  9G28G11G17G07G09G06G30G01G03
 -10484520.97348  -8124510.43547  22882627.4124   22882635.4524   22882629.035
        48.0004         43.0004
  -5811277.04046  -4488972.55945  24183624.0974   24183638.7294   24183625.329
        40.0004         35.0004
  -4304356.45548  -3306875.04147  23426000.1604   23426005.7344   23426000.747
        48.0004         43.0004
 -18941809.43049 -14706989.22748  20741277.9444   20741284.5544   20741277.439
        55.0004         50.0004
   2166670.95647   1747735.37946  24183194.5284   24183203.7424   24183192.646
        43.0004         39.0004
  -9052181.31648  -7048013.35047  21996383.2404   21996394.2434   21996383.330
        51.0004         47.0004
  -4997328.88349  -3882334.58748  20425734.7384   20425743.1034   20425735.022
        56.0004         52.0004
  -6214639.51047  -4792287.24947  23011769.1124   23011780.4134   23011768.798
        47.0004         42.0004
  -5272018.94848  -4066393.90847  22287955.4724   22287966.0584   22287953.901
        50.0004         46.0004
 15  5  1  0 18  0.0000000  0  9G28G11G17G07G09G06G30G01G03
 -10559062.88148  -8182594.95647  22868442.6674   22868449.4864   22868443.676
        48.0004         43.0004
  -5718597.68846  -4416755.07745  24201263.6984   24201274.0904   24201262.966
        40.0004         35.0004
  -4293305.72648  -3298264.04447  23428102.7104   23428109.3554   23428101.436
        48.0004         43.0004
 -18872552.94149 -14653023.14348  20754456.9524   20754463.5394   20754456.412
        55.0004         50.0004
   2191303.10947   1766929.35746  24187881.9454   24187892.3644   24187880.714
        43.0004         39.0004
  -9115342.93548  -7097230.09147  21984364.5324   21984374.2184   21984363.511
        51.0004         47.0004
  -4990772.06349  -3877225.37248  20426982.6244   20426991.0694   20426982.581
        56.0004         52.0004
  -6115419.39147  -4714972.94647  23030651.4734   23030662.4944   23030650.778
        47.0004         42.0004
  -5272477.92248  -4066751.54447  22287868.2174   22287877.9004   22287867.047
        50.0004         46.0004
 15  5  1  0 18 30.0000000  0  9G28G11G17G07G09G06G30G01G03
 -10633674.89748  -8240734.12247  22854245.6164   22854251.0574   22854246.166
        48.0004         43.0004
  -5625987.40146  -4344591.37446  24218887.9004   24218896.8874   24218887.597
        40.0004         36.0004
  -4282317.25348  -3289701.55347  23430194.3754   23430200.3944   23430193.883
        48.0004         44.0004
 -18802891.80749 -14598741.75348  20767712.7184   20767719.3914   20767712.310
        55.0004         50.0004
   2215683.59847   1785927.23946  24192519.9264   24192530.6424   24192521.135
        43.0004         38.0004
  -9178079.36748  -7146115.50047  21972426.0654   21972436.3084   21972425.743
        51.0004         47.0004
  -4983663.80449  -3871686.45448  20428334.7024   20428343.5444   20428334.629
        56.0004         52.0004
  -6016075.33247  -4637562.08147  23049555.3054   23049564.8764   23049554.857
        47.0004         42.0004
  -5272558.01848  -4066813.93947  22287852.6504   22287863.6534   22287853.080
        50.0004         46.0004
 15  5  1  0 19  0.0000000  0  9G28G11G17G07G09G06G30G01G03
 -10708352.23348  -8298924.17847  22840034.5874   22840041.3234   22840035.093
        48.0004         43.0004
  -5533444.99146  -4272480.51246  24236498.7104   24236507.8084   24236499.102
        41.0004         37.0004
  -4271390.01848  -3281186.76647  23432272.8354   23432280.1294   23432272.590
        48.0004         43.0004
 -18732826.29349 -14544145.26448  20781045.7494   20781052.4664   20781045.025
        54.0004         50.0004
   2239814.74947   1804730.81946  24197111.2174   24197122.1104   24197110.364
        43.0004         38.0004
  -9240386.58148  -7194666.47047  21960569.5854   21960579.9554   21960568.012
        51.0004         47.0004
  -4976002.36849  -3865716.49548  20429793.1414   20429801.2874   20429793.118
        56.0004         52.0004
  -5916607.62147  -4560054.86547  23068482.9474   23068494.2734   23068482.396
        46.0004         42.0004
  -5272255.08848  -4066577.89147  22287911.0624   22287920.8324   22287910.265
        50.0004         46.0004
 15  5  1  0 19 30.0000000  0  9G28G11G17G07G09G06G30G01G03
 -10783095.65548  -8357165.73247  22825812.4804   22825818.1654   22825811.854
        48.0004         43.0004
  -5440976.08446  -4200426.97246  24254094.5564   24254104.8794   24254094.590
        41.0004         36.0004
  -4260529.20648  -3272723.75947  23434340.4154   23434347.6954   23434339.514
        48.0004         43.0004
 -18662362.97949 -14489238.79348  20794454.6944   20794461.1094   20794454.465
        54.0004         50.0004
   2263692.98047   1823337.30846  24201657.0334   24201666.6874   24201656.405
        43.0004         38.0004
  -9302266.57048  -7242884.52647  21948793.7734   21948803.4004   21948793.247
        51.0004         47.0004
  -4967791.92949  -3859318.74348  20431355.3544   20431363.6224   20431355.280
        56.0004         52.0004
  -5817022.36547  -4482456.06447  23087433.4804   23087444.9604   23087432.841
        47.0004         42.0004
  -5271570.92548  -4066044.76347  22288040.8004   22288051.2384   22288039.703
        50.0004         46.0004
 15  5  1  0 20  0.0000000  0  9G28G11G17G07G09G06G30G01G03
 -10857899.46148  -8415454.34747  22811577.3084   22811581.8904   22811577.497
        48.0004         43.0004
  -5348578.61546  -4128429.09946  24271677.7494   24271687.0884   24271678.032
        41.0004         36.0004
  -4249733.29248  -3264311.32747  23436394.5524   23436401.6634   23436394.650
        48.0004         43.0004
 -18591501.47749 -14434022.05448  20807938.7784   20807945.8444   20807938.554
        54.0004         50.0004
   2287321.59047   1841749.27446  24206153.5614   24206163.2264   24206154.939
        42.0004         38.0004
  -9363714.44248  -7290765.87347  21937100.8704   21937110.7744   21937099.488
        51.0004         47.0004
  -4959029.86949  -3852491.15048  20433022.5144   20433031.3894   20433022.823
        56.0004         52.0004
  -5717318.91847  -4404765.16747  23106407.0534   23106418.4394   23106406.165
        47.0004         42.0004
  -5270500.52648  -4065210.67947  22288244.5154   22288254.8334   22288244.421
        50.0004         46.0004
 15  5  1  0 20 30.0000000  0  9G28G11G17G07G09G06G30G01G03
 -10932763.97948  -8473790.26247  22797329.9954   22797336.3954   22797330.327
        48.0004         43.0004
  -5256256.74346  -4056490.10146  24289244.8294   24289256.2464   24289245.065
        41.0004         37.0004
  -4239005.50847  -3255951.98747  23438435.4674   23438442.4144   23438435.934
        47.0004         42.0004
 -18520246.26949 -14378498.52548  20821498.4714   20821504.8764   20821497.930
        54.0004         50.0004
   2310698.33847   1859964.98746  24210600.7044   24210610.5304   24210600.631
        42.0004         37.0004
  -9424730.87748  -7338311.04447  21925489.5014   21925499.7814   21925488.855
        52.0004         47.0004
  -4949719.05749  -3845235.95848  20434794.2824   20434803.0034   20434794.246
        56.0004         52.0004
  -5617502.00947  -4326985.85146  23125400.7864   23125412.4234   23125400.307
        46.0004         41.0004
  -5269044.37648  -4064076.00547  22288521.1174   22288531.6004   22288520.207
        50.0004         46.0004
 15  5  1  0 21  0.0000000  0  9G28G11G17G07G09G06G30G01G03
 -11007683.85048  -8532169.30147  22783073.8454   22783080.5214   22783073.643
        48.0004         43.0004
  -5164009.23347  -3984609.04746  24306799.2444   24306809.7904   24306800.538
        42.0004         37.0004
  -4228344.94547  -3247645.00547  23440464.2084   23440471.4404   23440463.406
        47.0004         43.0004
 -18448597.59549 -14322668.40548  20835133.0134   20835138.9204   20835132.653
        54.0004         50.0004
   2333825.69147   1877986.34446  24215002.0054   24215010.7794   24215001.963
        42.0004         37.0004
  -9485311.90348  -7385516.92647  21913961.2504   21913971.1484   21913961.196
        52.0004         47.0004
  -4939857.73049  -3837551.80348  20436671.2034   20436679.4994   20436671.337
        56.0004         52.0004
  -5517571.76447  -4249118.22747  23144417.6744   23144429.0034   23144417.313
        46.0004         42.0004
  -5267198.29248  -4062637.49047  22288872.8594   22288882.6394   22288872.053
        50.0004         46.0004
 15  5  1  0 21 30.0000000  0  9G28G11G17G07G09G06G30G01G03
 -11082659.98448  -8590592.20047  22768806.1544   22768812.4404   22768806.517
        48.0004         44.0004
  -5071841.09846  -3912789.85746  24324339.6764   24324349.1524   24324339.230
        41.0004         37.0004
  -4217756.57148  -3239394.27247  23442478.9864   23442486.0794   23442479.596
        48.0004         43.0004
 -18376562.20349 -14266536.93748  20848840.7634   20848847.5544   20848840.251
        54.0004         50.0004
   2356700.17247   1895810.69846  24219356.1684   24219363.1434   24219355.890
        42.0004         37.0004
  -9545459.40448  -7432384.99747  21902515.9964   21902525.4614   21902515.181
        52.0004         47.0004
  -4929450.07049  -3829441.93348  20438651.7754   20438659.9334   20438651.703
        56.0004         52.0004
  -5417534.20947  -4171166.98347  23163453.6294   23163464.9114   23163453.985
        46.0004         42.0004
  -5264964.03348  -4060896.50847  22289298.2734   22289308.5744   22289297.615
        50.0004         46.0004
 15  5  1  0 22  0.0000000  0  9G28G11G17G07G09G06G30G01G03
 -11157690.69248  -8649057.61247  22754528.8404   22754534.2214   22754528.763
        48.0004         44.0004
  -4979754.27346  -3841034.00445  24341860.7724   24341870.3364   24341862.000
        40.0004         35.0004
  -4207242.26648  -3231201.26747  23444479.7194   23444487.1104   23444480.333
        48.0004         44.0004
 -18304143.19149 -14210106.55648  20862621.6674   20862628.3494   20862621.072
        54.0004         50.0004
   2379321.36147   1913437.65146  24223659.2964   24223668.4044   24223659.384
        42.0004         37.0004
  -9605172.47448  -7478914.55147  21891152.5074   21891162.4294   21891151.678
        52.0004         47.0004
  -4918497.39049  -3820907.37048  20440735.8114   20440744.2644   20440735.651
        56.0004         52.0004
  -5317392.41947  -4093134.53247  23182511.0564   23182520.3054   23182510.382
        46.0004         42.0004
  -5262340.47648  -4058852.15947  22289796.5624   22289808.0704   22289796.140
        51.0004         46.0004
 15  5  1  0 22 30.0000000  0  9G28G11G17G07G09G06G30G01G03
 -11232770.35948  -8707561.17947  22740240.6004   22740247.6914   22740240.957
        48.0004         44.0004
  -4887747.40446  -3769340.48546  24359369.3904   24359384.9364   24359370.177
        40.0004         36.0004
  -4196800.49348  -3223064.75747  23446467.9384   23446474.0434   23446468.023
        48.0004         44.0004
 -18231340.01949 -14153376.81948  20876475.6334   20876482.0374   20876475.193
        54.0004         49.0004
   2401692.18647   1930869.57946  24227915.6004   24227925.6004   24227915.485
        42.0004         37.0004
  -9664446.62048  -7525102.08447  21879872.9244   21879882.2734   21879872.022
        52.0004         47.0004
  -4906997.49149  -3811946.40348  20442923.9114   20442932.5894   20442924.413
        56.0004         52.0004
  -5217146.04147  -4015020.56846  23201587.3324   23201597.6564   23201587.266
        46.0004         41.0004
  -5259322.97448  -4056500.85647  22290371.2314   22290381.6834   22290371.110
        51.0004         46.0004
 15  5  1  0 23  0.0000000  0  9G28G11G17G07G09G06G30G01G03
 -11307899.79948  -8766103.51847  22725944.2224   22725951.0014   22725944.763
        48.0004         44.0004
  -4795825.63746  -3697713.26746  24376862.1554   24376875.3044   24376862.724
        40.0004         36.0004
  -4186436.34048  -3214988.74247  23448439.4634   23448446.3544   23448439.928
        48.0004         43.0004
 -18158159.25149 -14096352.85348  20890401.0094   20890408.0994   20890400.587
        54.0004         49.0004
   2423809.33947   1948103.74646  24232126.0664   24232135.6144   24232125.019
        42.0004         37.0004
  -9723283.91448  -7570949.21747  21868676.3724   21868686.1394   21868675.742
        52.0004         47.0004
  -4894954.64149  -3802562.36048  20445215.8434   20445224.2034   20445215.927
        56.0004         52.0004
  -5116801.09347  -3936829.80146  23220681.5834   23220694.2964   23220680.608
        46.0004         41.0004
  -5255913.40848  -4053844.04947  22291020.1444   22291030.6264   22291019.610
        51.0004         46.0004
 15  5  1  0 23 30.0000000  0  9G28G11G17G07G09G06G30G01G03
 -11383073.10448  -8824680.05547  22711639.7784   22711645.7194   22711639.471
        49.0004         44.0004
  -4703987.03646  -3626150.80246  24394337.4994   24394351.4244   24394336.314
        40.0004         36.0004
  -4176147.45848  -3206971.39947  23450397.2464   23450403.8524   23450397.143
        48.0004         43.0004
 -18084600.30249 -14039034.20948  20904399.0774   20904405.9374   20904399.237
        54.0004         49.0004
   2445676.22546   1965142.93346  24236286.4984   24236295.1514   24236286.881
        41.0004         36.0004
  -9781679.44048  -7616452.10847  21857563.6884   21857574.1914   21857563.091
        52.0004         47.0004
  -4882366.25049  -3792753.21848  20447611.2604   20447619.8424   20447611.342
        56.0004         52.0004
  -5016356.66647  -3858561.52247  23239794.8764   23239808.2174   23239794.777
        46.0004         42.0004
  -5252106.72148  -4050877.77947  22291744.3584   22291755.1784   22291744.429
        51.0004         46.0004
 15  5  1  0 24  0.0000000  0  9G28G11G17G07G09G06G30G01G03
 -11458290.22548  -8883290.73247  22697326.9144   22697332.2544   22697326.262
        49.0004         44.0004
  -4612235.13546  -3554655.93045  24411798.1614   24411809.3794   24411798.325
        40.0004         35.0004
  -4165937.99348  -3199015.93747  23452340.0194   23452347.4844   23452339.565
        48.0004         43.0004
 -18010668.43649 -13981424.98348  20918468.0434   20918474.4424   20918467.665
        54.0004         49.0004
   2467290.44646   1981985.21746  24240399.4304   24240407.4524   24240400.887
        41.0004         37.0004
  -9839634.29148  -7661611.62847  21846535.6824   21846545.4184   21846534.807
        52.0004         47.0004
  -4869235.69049  -3782521.61148  20450109.7094   20450118.3134   20450109.731
        56.0004         52.0004
  -4915817.81547  -3780219.66047  23258927.3934   23258939.1314   23258926.660
        46.0004         42.0004
  -5247903.80248  -4047602.76547  22292543.5654   22292555.4554   22292543.178
        51.0004         46.0004
 15  5  1  0 24 30.0000000  0  9G28G11G17G07G09G06G30G01G03
 -11533550.56348  -8941935.08047  22683003.8554   22683011.0994   22683004.614
        49.0004         44.0004
  -4520573.42146  -3483231.32045  24429239.6034   24429252.6794   24429238.184
        39.0004         34.0004
  -4155811.05348  -3191124.77647  23454267.9304   23454273.8394   23454266.754
        48.0004         43.0004
 -17936368.23949 -13923528.73748  20932606.7094   20932613.3724   20932606.117
        54.0004         49.0004
   2488650.28746   1998629.31046  24244461.8574   24244473.2194   24244462.439
        41.0004         36.0004
  -9897148.90948  -7706428.09847  21835590.6704   21835600.7684   21835589.636
        52.0004         47.0004
  -4855565.67049  -3771869.64148  20452711.2864   20452719.9304   20452711.477
        56.0004         52.0004
  -4815188.88447  -3701807.61647  23278077.3494   23278087.5734   23278077.530
        46.0004         42.0004
  -5243304.85048  -4044019.16447  22293418.9974   22293429.8474   22293418.300
        51.0004         46.0004
 15  5  1  0 25  0.0000000  0  9G28G11G17G07G09G06G30G01G03
 -11608840.79748  -9000602.72147  22668675.7224   22668682.4984   22668676.928
        48.0004         43.0004
 -24909452.80246 -19370669.90845  24446669.1414   24446681.1264   24446668.927
        39.0004         34.0004
  -4145757.33148  -3183290.67447  23456180.0314   23456186.9054   23456180.605
        48.0004         43.0004
 -17861692.21449 -13865339.64448  20946817.2334   20946823.7844   20946816.875
        54.0004         49.0004
   2509766.47946   2015083.55146  24248482.8084   24248493.1674   24248482.512
        41.0004         36.0004
  -9954211.26648  -7750892.16747  21824732.7394   21824741.5384   21824731.853
        52.0004         47.0004
  -4841346.42649  -3760789.70948  20455417.1084   20455425.6164   20455417.182
        56.0004         52.0004
  -4714461.73647  -3623319.05446  23297244.2144   23297256.1184   23297243.269
        46.0004         41.0004
  -5238297.71948  -4040117.50247  22294372.5124   22294382.9054   22294371.584
        51.0004         46.0004
 15  5  1  0 25 30.0000000  0  9G28G11G17G07G09G06G30G01G03
 -11684173.74448  -9059303.64847  22654341.7424   22654347.6554   22654341.665
        48.0004         44.0004
 -24817970.07546 -19299384.83245  24464075.2384   24464086.7784   24464076.709
        38.0004         34.0004
  -4135793.48148  -3175526.57947  23458076.8934   23458082.2714   23458075.781
        48.0004         43.0004
 -17786658.38049 -13806871.73548  20961095.2884   20961102.3454   20961094.841
        54.0004         49.0004
   2530623.80546   2031336.11846  24252452.1854   24252461.9904   24252453.018
        41.0004         36.0004
 -10010835.37348  -7795014.72747  21813956.7244   21813966.7354   21813955.530
        52.0004         47.0004
  -4826594.29949  -3749294.54548  20458224.3264   20458232.8584   20458224.414
        56.0004         52.0004
  -4613654.29547  -3544767.90546  23316428.5654   23316439.1754   23316428.753
        46.0004         41.0004
  -5232896.20948  -4035908.51747  22295399.6484   22295410.2714   22295399.490
        51.0004         46.0004
 15  5  1  0 26  0.0000000  0  9G28G11G17G07G09G06G30G01G03
 -11759542.86648  -9118032.75947  22639999.5154   22640006.7164   22639999.436
        49.0004         44.0004
 -24726582.68446 -19228173.95345  24481468.2724   24481478.4244   24481466.758
        38.0004         34.0004
  -4125916.67348  -3167830.33047  23459954.6684   23459963.0934   23459954.622
        48.0004         43.0004
 -17711265.41949 -13748123.98548  20975442.6974   20975448.8804   20975442.463
        54.0004         49.0004
   2551226.38146   2047390.10346  24256371.5244   24256379.6714   24256371.119
        41.0004         36.0004
 -10067015.87748  -7838791.63447  21803265.8694   21803275.3214   21803264.623
        52.0004         47.0004
  -4811306.22149  -3737381.75548  20461133.3004   20461142.2784   20461133.482
        56.0004         52.0004
  -4512765.17647  -3466153.07147  23335627.1274   23335638.0174   23335625.697
        46.0004         42.0004
  -5227094.76048  -4031387.90347  22296503.7954   22296514.5464   22296503.682
        50.0004         46.0004
 15  5  1  0 26 30.0000000  0  9G28G11G17G07G09G06G30G01G03
 -11834937.28848  -9176781.59847  22625651.6134   22625658.8514   22625652.663
        49.0004         44.0004
 -24635283.96946 -19157032.20845  24498843.6254   24498851.3064   24498843.909
        39.0004         34.0004
  -4116120.17148  -3160196.65347  23461820.4044   23461827.4894   23461819.623
        48.0004         43.0004
 -17635507.99549 -13689092.23548  20989858.6394   20989865.0064   20989858.194
        54.0004         49.0004
 -17908877.36546 -13895547.79445  24260242.0514   24260255.0084   24260242.134
        40.0004         35.0004
 -10122743.19448  -7882215.41347  21792661.5334   21792670.9814   21792660.845
        52.0004         47.0004
  -4795474.92749  -3725045.68448  20464146.3244   20464154.5704   20464146.476
        56.0004         52.0004
  -4411788.46047  -3387470.02847  23354841.4904   23354853.3504   23354841.365
        46.0004         42.0004
  -5220883.59748  -4026548.03147  22297685.4344   22297696.4634   22297685.239
        50.0004         46.0004
 15  5  1  0 27  0.0000000  0  8G28G11G17G07G06G30G01G03
 -11910372.15348  -9235561.93247  22611297.0744   22611303.0844   22611296.631
        49.0004         44.0004
 -24544092.77046 -19085974.23045  24516191.8254   24516203.1744   24516193.312
        39.0004         34.0004
  -4106423.45148  -3152640.71247  23463664.9594   23463671.6844   23463664.393
        48.0004         43.0004
 -17559406.70148 -13629792.53548  21004340.1684   21004346.8644   21004339.806
        53.0004         49.0004
 -10178033.74548  -7925298.85247  21782139.9994   21782149.2184   21782138.513
        52.0004         47.0004
  -4779119.13849  -3712300.90848  20467258.7394   20467267.2184   20467258.742
        56.0004         52.0004
  -4310744.41347  -3308734.55346  23374068.9764   23374082.5404   23374067.617
        46.0004         41.0004
  -5214278.96648  -4021401.54947  22298942.5334   22298953.4824   22298941.590
        50.0004         46.0004
 15  5  1  0 27 30.0000000  0  8G28G11G17G07G06G30G01G03
 -11985827.70048  -9294358.39747  22596938.4194   22596944.0564   22596939.269
        49.0004         44.0004
 -24452993.56646 -19014987.92545  24533530.2054   24533543.5844   24533531.982
        39.0004         35.0004
  -4096810.77448  -3145150.28047  23465494.1734   23465501.2534   23465494.325
        48.0004         43.0004
 -17482947.76049 -13570214.15248  21018889.7714   21018896.5194   21018889.640
        54.0004         49.0004
 -10232869.38748  -7968027.83147  21771704.8214   21771714.3134   21771703.988
        52.0004         47.0004
  -4762223.02449  -3699135.10248  20470473.5854   20470482.0844   20470474.024
        56.0004         52.0004
  -4209618.71947  -3229935.41247  23393313.9304   23393325.2784   23393314.835
        46.0004         42.0004
  -5207262.52548  -4015934.18847  22300277.9604   22300288.1764   22300277.507
        50.0004         46.0004
 15  5  1  0 28  0.0000000  0  8G28G11G17G07G06G30G01G03
 -12061311.32248  -9353176.73547  22582575.0994   22582579.8084   22582574.878
        49.0004         45.0004
 -24361997.48946 -18944082.00145  24550847.5924   24550856.2104   24550848.729
        39.0004         35.0004
  -4087292.98748  -3137733.77347  23467305.9364   23467312.1354   23467305.991
        48.0004         43.0004
 -17406143.62448 -13510366.78848  21033505.2274   21033511.6444   21033505.026
        53.0004         49.0004
 -10287258.50548  -8010408.84747  21761354.9524   21761364.3814   21761354.028
        52.0004         47.0004
  -4744797.29849  -3685556.61648  20473789.5474   20473798.0894   20473789.728
        56.0004         52.0004
  -4108423.54547  -3151082.11647  23412571.3794   23412582.9774   23412571.572
        47.0004         42.0004
  -5199842.49348  -4010152.33147  22301690.0884   22301700.1634   22301689.745
        50.0004         46.0004
 15  5  1  0 28 30.0000000  0  8G28G11G17G07G06G30G01G03
 -12136814.08848  -9412009.98047  22568206.2344   22568213.5004   22568207.020
        49.0004         44.0004
 -24271099.97946 -18873252.90446  24568145.4294   24568155.5564   24568144.865
        40.0004         36.0004
  -4077865.27647  -3130387.46547  23469098.7174   23469105.0484   23469099.133
        47.0004         42.0004
 -17328990.89548 -13450247.78848  21048186.6034   21048193.8184   21048186.426
        53.0004         49.0004
 -10341193.76348  -8052436.22347  21751090.5724   21751100.7584   21751089.869
        52.0004         47.0004
  -4726837.00149  -3671561.57548  20477207.2774   20477216.0404   20477207.378
        56.0004         52.0004
  -4007155.24047  -3072171.84547  23431842.8324   23431853.1834   23431841.572
        47.0004         42.0004
  -5192011.29648  -4004050.09247  22303179.5354   22303190.9454   22303179.462
        50.0004         46.0004
 15  5  1  0 29  0.0000000  0  8G28G11G17G07G06G30G01G03
 -12212340.38548  -9470861.55247  22553834.4124   22553840.2524   22553834.935
        49.0004         45.0004
 -24180309.19346 -18802506.98646  24585420.8534   24585435.5234   24585422.708
        40.0004         36.0004
  -4068536.10447  -3123117.94547  23470874.2484   23470880.9854   23470873.066
        47.0004         42.0004
 -17251499.66548 -13389865.02448  21062932.9524   21062939.5344   21062932.224
        53.0004         49.0004
 -10394680.92648  -8094114.41847  21740912.2554   21740922.3734   21740912.455
        52.0004         47.0004
  -4708350.13849  -3657156.22348  20480725.3314   20480734.0844   20480725.251
        56.0004         52.0004
  -3905823.24647  -2993211.95046  23451125.3114   23451135.0604   23451124.587
        46.0004         41.0004
  -5183774.50048  -3997631.79147  22304747.7494   22304757.7844   22304746.117
        50.0004         45.0004
 15  5  1  0 29 30.0000000  0  8G28G11G17G07G06G30G01G03
 -12287882.76248  -9529725.66747  22539459.8334   22539464.8414   22539459.918
        49.0004         45.0004
 -24089621.60146 -18731841.42745  24602678.3564   24602689.8144   24602678.414
        40.0004         35.0004
  -4059301.77547  -3115922.33847  23472631.6384   23472638.3914   23472631.479
        47.0004         43.0004
 -17173667.78748 -13329216.82448  21077743.9894   21077750.3124   21077743.650
        53.0004         49.0004
 -10447713.81948  -8135438.64647  21730821.0114   21730830.1734   21730819.917
        52.0004         47.0004
  -4689332.91449  -3642337.60448  20484344.2614   20484352.9004   20484344.206
        56.0004         52.0004
  -3804425.10647  -2914200.52947  23470419.5254   23470429.3794   23470419.054
        46.0004         42.0004
  -5175125.73448  -3990892.48947  22306393.1714   22306404.8814   22306392.358
        50.0004         45.0004
 15  5  1  0 30  0.0000000  0  8G28G11G17G07G06G30G01G03
 -12363440.68748  -9588601.91147  22525081.1054   22525086.7044   22525081.094
        49.0004         45.0004
 -23999040.88246 -18661259.10545  24619917.8294   24619927.2624   24619915.708
        40.0004         35.0004
  -4050165.84848  -3108803.40447  23474371.1154   23474377.3484   23474370.962
        48.0004         44.0004
 -17095500.35748 -13268307.14948  21092618.6664   21092625.8824   21092618.062
        53.0004         49.0004
 -10500293.64048  -8176409.83448  21720815.2594   21720824.8444   21720814.823
        52.0004         48.0004
  -4669788.83249  -3627108.44848  20488063.2804   20488071.6884   20488063.185
        56.0004         52.0004
  -3702965.62547  -2835141.31947  23489727.0714   23489738.5974   23489726.962
        47.0004         42.0004
  -5166066.00448  -3983832.93447  22308118.1124   22308127.4284   22308117.174
        50.0004         45.0004
 15  5  1  0 30 30.0000000  0  8G28G11G17G07G06G30G01G03
 -12439011.29148  -9647488.02547  22510699.6974   22510705.5634   22510700.285
        49.0004         45.0004
 -23908568.19646 -18590761.01545  24637130.2064   24637143.0614   24637128.623
        40.0004         35.0004
  -4041128.99348  -3101761.66447  23476090.3604   23476097.0814   23476089.763
        48.0004         44.0004
 -17017000.30848 -13207138.29548  21107556.7924   21107563.3244   21107556.252
        53.0004         49.0004
 -10552419.00248  -8217026.90048  21710896.2874   21710904.9784   21710895.211
        52.0004         48.0004
  -4649718.87749  -3611469.52548  20491882.6154   20491890.8514   20491882.625
        56.0004         52.0004
  -3601447.08847  -2756036.06747  23509045.4664   23509056.8694   23509045.076
        47.0004         42.0004
  -5156593.69948  -3976451.90547  22309920.5764   22309930.7424   22309919.635
        50.0004         45.0004
 15  5  1  0 31  0.0000000  0  8G28G11G17G07G06G30G01G03
 -12514590.83348  -9706381.11347  22496317.6294   22496323.5174   22496318.726
        49.0004         45.0004
 -23818203.53646 -18520347.11745  24654329.8064   24654341.5434   24654324.971
        39.0004         35.0004
  -4032191.74648  -3094797.51647  23477789.4274   23477796.1664   23477789.776
        48.0004         43.0004
 -16938169.30148 -13145711.55048  21122557.9104   21122564.0874   21122557.394
        53.0004         49.0004
 -10604087.53848  -8257287.99248  21701063.9644   21701073.0754   21701063.444
        52.0004         48.0004
  -4629123.02649  -3595420.81348  20495801.7544   20495810.4054   20495801.701
        56.0004         52.0004
  -3499870.68147  -2676885.71246  23528374.9684   23528386.7774   23528373.796
        46.0004         41.0004
  -5146706.27848  -3968747.41247  22311801.0684   22311811.4284   22311800.060
        50.0004         45.0004
 15  5  1  0 31 30.0000000  0  8G28G11G17G07G06G30G01G03
 -12590177.39048  -9765279.65847  22481934.5434   22481940.3544   22481934.870
        49.0004         45.0004
 -23727948.96246 -18450018.95746  24671502.3494   24671515.2474   24671501.422
        40.0004         36.0004
  -4023356.36148  -3087912.74947  23479472.3424   23479478.8764   23479472.139
        48.0004         43.0004
 -16859010.89148 -13084029.68148  21137621.2894   21137627.9534   21137620.805
        53.0004         49.0004
 -10655298.92648  -8297192.86848  21691318.7454   21691327.8944   21691318.366
        53.0004         48.0004
  -4608003.27749  -3578963.86848  20499820.7984   20499829.1324   20499820.655
        56.0004         52.0004
  -3398239.65447  -2597692.79546  23547713.7254   23547727.2004   23547714.102
        46.0004         41.0004
  -5136403.17248  -3960718.99947  22313761.6684   22313772.9254   22313761.368
        50.0004         46.0004
 15  5  1  0 32  0.0000000  0  8G28G11G17G07G06G30G01G03
 -12665771.51848  -9824184.09847  22467548.3264   22467554.7824   22467549.079
        49.0004         45.0004
 -23637809.45346 -18379780.46745  24688657.4544   24688667.3504   24688656.892
        40.0004         35.0004
  -4014627.30848  -3081110.85647  23481132.2144   23481139.8634   23481132.457
        48.0004         43.0004
 -16779531.72649 -13022097.87948  21152745.5094   21152752.2794   21152745.573
        54.0004         49.0004
 -10706055.60448  -8336743.42348  21681659.2734   21681669.1664   21681659.693
        53.0004         48.0004
  -4586364.42249  -3562102.42448  20503938.5394   20503946.8984   20503938.549
        56.0004         51.0004
  -3296559.95547  -2518461.97147  23567063.5444   23567075.0234   23567063.982
        46.0004         42.0004
  -5125686.65048  -3952368.44747  22315800.6144   22315811.9604   22315800.646
        50.0004         45.0004
 15  5  1  0 32 30.0000000  0  8G28G11G17G07G06G30G01G03
 -12741366.02048  -9883088.84047  22453164.8154   22453169.9934   22453164.528
        50.0004         45.0004
 -23547781.31146 -18309628.79545  24705791.0674   24705800.9284   24705790.078
        40.0004         35.0004
  -4006000.85747  -3074388.92047  23482774.9534   23482782.5264   23482774.345
        47.0004         43.0004
 -16699729.85248 -12959914.61648  21167931.5504   21167937.8584   21167930.550
        53.0004         49.0004
 -10756351.54648  -8375934.96348  21672088.4404   21672098.0354   21672087.549
        53.0004         48.0004
  -4564202.82549  -3544833.64548  20508155.8164   20508164.0894   20508155.882
        56.0004         51.0004
  -3194829.15447  -2439191.31947  23586422.0504   23586433.8144   23586422.523
        47.0004         42.0004
  -5114550.45148  -3943690.89147  22317920.0994   22317931.6034   22317920.102
        50.0004         46.0004
 15  5  1  0 33  0.0000000  0  8G28G11G17G07G06G30G01G03
 -12816962.56248  -9941995.14547  22438777.5414   22438784.3944   22438778.138
        50.0004         45.0004
 -23457870.58646 -18239568.55045  24722894.2704   24722905.3174   24722895.321
        39.0004         34.0004
  -3997482.78947  -3067751.38247  23484394.8044   23484402.8814   23484395.069
        47.0004         42.0004
 -16619612.64048 -12897485.62348  21183177.3914   21183183.9774   21183176.809
        53.0004         49.0004
 -10806190.28748  -8414770.24748  21662604.5824   21662613.9494   21662604.328
        53.0004         48.0004
  -4541524.31549  -3527162.08248  20512471.2504   20512479.7584   20512471.128
        56.0004         51.0004
  -3093054.19247  -2359886.26247  23605789.8984   23605801.7464   23605790.355
        47.0004         42.0004
  -5102997.91148  -3934688.89747  22320118.9114   22320128.8224   22320117.176
        50.0004         45.0004
 15  5  1  0 33 30.0000000  0  8G28G11G17G07G06G30G01G03
 -12892556.42648 -10000899.37347  22424393.7254   22424398.1914   22424393.700
        50.0004         45.0004
 -24943496.47746 -19397199.17045  24739984.3774   24739995.9514   24739982.538
        39.0004         34.0004
  -3989072.73947  -3061198.04647  23485996.0294   23486002.4444   23485995.266
        47.0004         42.0004
 -16539181.21848 -12834811.79748  21198483.0704   21198489.7404   21198482.909
        53.0004         49.0004
 -10855568.95848  -8453247.02448  21653207.6544   21653217.4934   21653206.854
        53.0004         48.0004
  -4518328.39949  -3509087.33148  20516885.0724   20516893.7244   20516885.498
        56.0004         51.0004
  -2991235.62347  -2280547.23346  23625164.5894   23625177.2564   23625164.361
        46.0004         41.0004
  -5091025.92748  -3925360.07247  22322397.3134   22322406.9904   22322396.117
        50.0004         45.0004
 15  5  1  0 34  0.0000000  0  8G28G11G17G07G06G30G01G03
 -12968143.23248 -10059798.12547  22410009.4704   22410014.7094   22410009.852
        50.0004         45.0004
 -24853818.34246 -19327320.25045  24757050.7404   24757064.7984   24757048.833
        39.0004         34.0004
  -3980770.11747  -3054728.45747  23487575.5044   23487581.6574   23487575.290
        47.0004         42.0004
 -16458436.91148 -12771894.16248  21213847.9944   21213854.9124   21213847.399
        53.0004         49.0004
 -10904484.85348  -8491363.20248  21643899.1224   21643908.6924   21643898.785
        53.0004         48.0004
  -4494614.74849  -3490609.16248  20521397.9084   20521406.1494   20521398.341
        56.0004         51.0004
  -2889374.22247  -2201174.82346  23644549.0824   23644559.5834   23644547.287
        45.0004         41.0004
  -5078631.58548  -3915702.13647  22324756.1524   22324765.6554   22324756.110
        50.0004         45.0004
 15  5  1  0 34 30.0000000  0  8G28G11G17G07G06G30G01G03
 -13043724.68948 -10118692.70747  22395626.9224   22395632.7494   22395626.543
        50.0004         45.0004
 -24764262.40146 -19257536.49845  24774090.7494   24774100.4064   24774090.702
        39.0004         34.0004
  -3972580.53647  -3048346.94147  23489134.4004   23489140.6614   23489134.304
        47.0004         43.0004
 -16377387.17248 -12708738.53348  21229271.1194   21229277.9334   21229271.207
        53.0004         49.0004
 -10952941.52548  -8529121.54548  21634678.1684   21634687.7714   21634677.806
        53.0004         48.0004
  -4470389.29749  -3471732.18148  20526007.8814   20526016.0664   20526007.805
        56.0004         51.0004
  -2787476.90147  -2121774.42846  23663939.2264   23663950.3404   23663937.799
        45.0004         41.0004
  -5065818.20648  -3905717.67547  22327193.7594   22327203.9344   22327193.265
        50.0004         46.0004
 15  5  1  0 35  0.0000000  0  8G28G11G17G07G06G30G01G03
 -13119295.97348 -10177579.36947  22381245.8154   22381251.6844   22381245.905
        50.0004         45.0004
                 -19187846.89845                  24791116.3724   24791112.201
                        32.0004
  -3964503.06647  -3042052.76447  23490670.6994   23490678.0874   23490671.652
        47.0004         43.0004
 -16296032.64348 -12645345.40448  21244752.4434   21244759.0714   21244752.162
        53.0004         48.0004
 -11000935.63848  -8566519.45448  21625545.2734   21625554.5604   21625544.568
        53.0004         48.0004
  -4445651.03849  -3452455.61448  20530715.4594   20530723.8834   20530715.438
        56.0004         52.0004
  -2685543.75347  -2042346.08846  23683336.4444   23683348.4704   23683336.532
        46.0004         41.0004
  -5052582.28148  -3895403.96447  22329712.4894   22329722.1684   22329711.602
        50.0004         45.0004
 15  5  1  0 35 30.0000000  0  8G28G11G17G07G06G30G01G03
 -13194854.19248 -10236455.84047  22366867.7334   22366873.8224   22366868.309
        50.0004         45.0004
 -24585514.60646 -19118252.57245  24808109.2704   24808116.0174   24808107.379
        37.0004         32.0004
  -3956539.03547  -3035846.96447  23492186.8954   23492193.0774   23492186.369
        47.0004         43.0004
 -16214376.35648 -12581717.13548  21260290.9954   21260297.4744   21260290.823
        53.0004         48.0004
 -11048466.53348  -8603556.41248  21616500.3944   21616509.9134   21616499.675
        53.0004         48.0004
  -4420401.66549  -3432780.77448  20535520.3574   20535528.5584   20535520.438
        56.0004         52.0004
  -2583577.43647  -1962891.90447  23702740.1484   23702752.1244   23702740.180
        46.0004         42.0004
  -5038922.88348  -3884760.27947  22332312.2514   22332322.3764   22332311.053
        50.0004         46.0004
 15  5  1  0 36  0.0000000  0  7G28G17G07G06G30G01G03
 -13270398.43748 -10295321.41147  22352491.5524   22352497.8814   22352492.294
        50.0004         45.0004
  -3948691.11747  -3029731.65347  23493679.6254   23493685.8534   23493678.680
        47.0004         43.0004
 -16132422.87348 -12517857.28948  21275886.1304   21275893.4314   21275885.715
        53.0004         48.0004
 -11095534.70048  -8640232.82248  21607543.0344   21607552.6314   21607542.279
        53.0004         48.0004
  -4394644.07349  -3412709.91848  20540421.7574   20540429.9674   20540421.174
        56.0004         52.0004
  -2481581.70947  -1883414.82146  23722150.1594   23722161.2684   23722149.429
        46.0004         41.0004
  -5024840.33948  -3873786.86647  22334991.0954   22335002.7934   22334991.466
        50.0004         45.0004
 15  5  1  0 36 30.0000000  0  7G28G17G07G06G30G01G03
 -13345923.11448 -10354171.73547  22338119.3884   22338125.7434   22338119.221
        50.0004         45.0004
  -3940957.75148  -3023705.61547  23495152.1044   23495158.3194   23495151.519
        48.0004         44.0004
 -16050172.78048 -12453766.32148  21291538.0684   21291544.4704   21291537.656
        53.0004         48.0004
 -11142136.56948  -8676545.87448  21598675.3724   21598684.8314   21598674.405
        53.0004         48.0004
  -4368376.98549  -3392242.05048  20545420.2894   20545428.2414   20545420.121
        56.0004         52.0004
  -2379556.26647  -1803914.61446  23741564.2524   23741576.8574   23741563.865
        46.0004         41.0004
  -5010330.75748  -3862480.70247  22337753.5234   22337763.5714   22337752.983
        50.0004         46.0004
 15  5  1  0 37  0.0000000  0  7G28G17G07G06G30G01G03
 -13421427.31948 -10413006.11147  22323751.8084   22323757.5494   22323752.095
        50.0004         45.0004
  -3933342.30848  -3017771.48347  23496600.9664   23496606.2894   23496600.552
        48.0004         43.0004
 -15967630.74948 -12389447.85648  21307245.2694   21307251.9324   21307245.344
        53.0004         48.0004
 -11188273.30048  -8712496.47848  21589895.6134   21589904.8124   21589894.708
        53.0004         48.0004
  -4341603.99249  -3371379.96748  20550514.8704   20550523.1534   20550514.782
        56.0004         52.0004
  -2277505.55247  -1724394.71146  23760984.5904   23760995.5104   23760984.259
        45.0004         41.0004
  -4995395.14348  -3850842.55747  22340594.4784   22340605.4704   22340593.678
        50.0004         46.0004
 15  5  1  0 37 30.0000000  0  7G28G17G07G06G30G01G03
 -13496910.34248 -10471823.97347  22309387.4694   22309394.2244   22309388.432
        50.0004         46.0004
  -3925847.52147  -3011931.34147  23498026.2114   23498032.9674   23498026.945
        47.0004         42.0004
 -15884801.76948 -12324905.80348  21323007.0034   21323014.2264   21323006.568
        53.0004         48.0004
 -11233945.97748  -8748085.48248  21581204.2844   21581214.5534   21581203.176
        53.0004         48.0004
  -4314328.53649  -3350126.35548  20555705.1514   20555713.7384   20555705.369
        56.0004         52.0004
  -2175433.87947  -1644858.43646  23780407.7974   23780418.4854   23780408.448
        45.0004         41.0004
  -4980034.34548  -3838873.09147  22343517.5544   22343529.1754   22343517.262
        50.0004         46.0004
 15  5  1  0 38  0.0000000  0  7G28G17G07G06G30G01G03
 -13572367.94848 -10530622.05747  22295028.2574   22295035.0604   22295029.434
        50.0004         46.0004
  -3918473.55947  -3006185.34047  23499431.2474   23499437.0784   23499431.140
        47.0004         43.0004
 -15801687.42648 -12260141.39548  21338823.8614   21338829.5764   21338823.001
        53.0004         48.0004
 -11279152.50548  -8783311.27148  21572602.1844   21572611.3084   21572601.518
        53.0004         48.0004
  -4286550.89249  -3328481.43048  20560991.0254   20560999.5754   20560990.934
        56.0004         52.0004
  -2073342.32047  -1565306.64246  23799835.5414   23799846.3054   23799834.389
        45.0004         41.0004
  -4964246.03948  -3826570.51247  22346522.4294   22346533.2044   22346522.393
        50.0004         46.0004
 15  5  1  0 38 30.0000000  0  7G28G17G07G06G30G01G03
 -13647796.29248 -10589397.34947  22280674.8344   22280681.8744   22280675.150
        50.0004         46.0004
  -3911220.14648  -3000533.28947  23500810.3354   23500816.5994   23500810.687
        48.0004         43.0004
 -15718289.78848 -12195156.22948  21354693.4584   21354700.0644   21354693.109
        53.0004         48.0004
 -11323890.78348  -8818172.17748  21564088.6664   21564097.4064   21564088.108
        53.0004         48.0004
  -4258271.29849  -3306445.37548  20566372.6054   20566381.0524   20566372.502
        56.0004         52.0004
  -1971231.91747  -1485740.18346  23819266.0574   23819278.2314   23819267.114
        45.0004         41.0004
  -4948027.86848  -3813932.97147  22349608.6744   22349619.5254   22349607.489
        50.0004         46.0004
 15  5  1  0 39  0.0000000  0  7G28G17G07G06G30G01G03
 -13723195.01848 -10648149.56147  22266327.0394   22266333.2594   22266327.413
        50.0004         46.0004
  -3904091.15348  -2994978.22047  23502166.8214   23502173.2484   23502166.484
        48.0004         43.0004
 -15634614.26948 -12129954.54048  21370616.3904   21370622.6204   21370616.191
        53.0004         48.0004
 -11368162.74248  -8852669.72048  21555663.6184   21555673.0224   21555663.607
        53.0004         48.0004
  -4229494.06149  -3284021.55048  20571848.4994   20571856.9244   20571848.617
        56.0004         52.0004
  -1869107.73647  -1406163.01346  23838699.5674   23838711.4464   23838698.380
        45.0004         41.0004
  -4931381.54548  -3800961.80447  22352776.0024   22352786.6214   22352775.303
        50.0004         46.0004
 15  5  1  0 39 30.0000000  0  7G28G17G07G06G30G01G03
 -13798560.05648 -10706875.50147  22251985.3404   22251992.4174   22251985.932
        50.0004         46.0004
  -3897086.58947  -2989520.08147  23503499.4334   23503506.0314   23503499.614
        47.0004         42.0004
 -15550662.66948 -12064537.72848  21386591.8414   21386598.0294   21386591.490
        53.0004         48.0004
 -11411966.27248  -8886802.26948  21547327.9484   21547337.1284   21547327.483
        53.0004         48.0004
  -4200219.45649  -3261210.16348  20577419.3894   20577427.5574   20577419.757
        56.0004         52.0004
  -1766970.82147  -1326575.93046  23858135.8514   23858148.6354   23858134.613
        45.0004         41.0004
  -4914304.73448  -3787655.20247  22356026.1544   22356035.9554   22356025.189
        50.0004         46.0004
 15  5  1  0 40  0.0000000  0  7G28G17G07G06G30G01G03
 -13873889.73448 -10765573.87747  22237651.6034   22237656.6944   22237651.119
        50.0004         46.0004
  -3890208.45147  -2984160.44547  23504808.3724   23504816.4144   23504807.741
        47.0004         42.0004
 -15466438.92748 -11998908.84448  21402619.0564   21402625.8554   21402618.782
        52.0004         48.0004
 -11455301.60548  -8920569.97848  21539081.6754   21539091.0694   21539080.771
        53.0004         48.0004
  -4170450.04649  -3238013.21648  20583084.2274   20583092.6654   20583084.313
        56.0004         51.0004
  -1664824.41547  -1246981.42746  23877575.1664   23877586.2094   23877574.335
        46.0004         41.0004
  -4896797.43548  -3774013.14147  22359357.3824   22359368.0104   22359356.788
        50.0004         46.0004
 15  5  1  0 40 30.0000000  0  7G28G17G07G06G30G01G03
 -13949178.20548 -10824240.15347  22223323.7154   22223330.3724   22223324.522
        51.0004         46.0004
  -3883454.90247  -2978897.87447  23506094.1104   23506101.1824   23506093.466
        47.0004         43.0004
 -15381943.36348 -11933068.15448  21418698.0734   21418704.8094   21418697.930
        52.0004         48.0004
 -11498165.36348  -8953970.21748  21530924.7884   21530934.0224   21530923.973
        53.0004         48.0004
  -4140184.86049  -3214429.95848  20588843.8124   20588851.8994   20588843.709
        56.0004         51.0004
  -1562668.24747  -1167379.34346  23897014.4464   23897025.7234   23897014.319
        46.0004         41.0004
  -4878856.04148  -3760032.83047  22362771.6254   22362781.9954   22362771.150
        50.0004         45.0004
 15  5  1  0 41  0.0000000  0  7G28G17G07G06G30G01G03
 -14024427.13148 -10882875.61347  22209003.6524   22209010.9694   22209004.087
        50.0004         46.0004
  -3876831.68548  -2973736.89347  23507354.0274   23507360.3364   23507353.786
        48.0004         43.0004
 -15297183.69948 -11867021.67648  21434826.8724   21434834.1414   21434826.495
        52.0004         48.0004
 -11540561.36848  -8987005.98248  21522857.0484   21522866.4944   21522856.614
        53.0004         49.0004
  -4109430.05949  -3190465.17448  20594696.2374   20594704.3774   20594696.055
        56.0004         51.0004
  -1460509.15147  -1087774.93946  23916454.5354   23916466.4734   23916453.637
        46.0004         41.0004
  -4860484.12848  -3745717.04347  22366268.3924   22366278.5574   22366267.424
        50.0004         46.0004
 15  5  1  0 41 30.0000000  0  7G28G17G07G06G30G01G03
 -14099633.97248 -10941478.27947  22194692.5024   22194698.8564   22194693.573
        50.0004         46.0004
  -3870339.74147  -2968678.19547  23508589.5864   23508596.4754   23508588.645
        47.0004         43.0004
 -15212162.47148 -11800771.39248  21451006.2184   21451012.4134   21451005.553
        52.0004         48.0004
 -11582488.89848  -9019676.70548  21514878.7154   21514887.5634   21514878.483
        53.0004         49.0004
  -4078187.27049  -3166120.14748  20600641.2784   20600649.6634   20600640.997
        56.0004         51.0004
  -1358349.29147  -1008169.94246  23935895.1174   23935907.5794   23935894.222
        45.0004         40.0004
  -4841680.73348  -3731065.03747  22369845.8574   22369856.6974   22369845.201
        50.0004         46.0004
 15  5  1  0 42  0.0000000  0  7G28G17G07G06G30G01G03
 -14174789.14048 -11000040.70347  22180392.1694   22180397.4124   22180392.055
        51.0004         46.0004
  -3863973.92847  -2963717.78947  23509800.0184   23509806.8634   23509800.601
        47.0004         42.0004
 -15126876.34748 -11734314.68448  21467236.0924   21467242.2454   21467235.660
        52.0004         48.0004
 -11623940.65248  -9051976.68848  21506990.0084   21506999.4154   21506989.984
        53.0004         48.0004
  -4046451.56949  -3141391.02548  20606680.5564   20606688.7844   20606680.571
        56.0004         51.0004
  -1256184.37747   -928561.04646  23955335.0854   23955347.7374   23955335.699
        45.0004         40.0004
  -4822438.27648  -3716070.91147  22373507.2024   22373517.7194   22373506.594
        50.0004         46.0004
 15  5  1  0 42 30.0000000  0  7G28G17G07G06G30G01G03
 -14249899.47448 -11058568.19247  22166098.2374   22166103.6004   22166098.860
        51.0004         46.0004
  -3857744.85347  -2958863.94447  23510986.4234   23510993.0624   23510986.969
        47.0004         43.0004
 -15041338.08848 -11667661.51147  21483512.7494   21483519.6614   21483511.812
        52.0004         47.0004
 -11664925.84648  -9083913.12248  21499190.7974   21499200.4964   21499190.105
        53.0004         49.0004
  -4014234.52749  -3116286.84148  20612811.3904   20612819.1574   20612811.297
        56.0004         51.0004
  -1154026.53347   -848957.62246  23974774.8834   23974789.2864   23974773.869
        45.0004         40.0004
  -4802765.79848  -3700741.70147  22377251.0664   22377261.0974   22377250.199
        50.0004         45.0004
 15  5  1  0 43  0.0000000  0  7G28G17G07G06G30G01G03
 -14324956.00948 -11117053.74747  22151815.5884   22151821.3334   22151815.886
        51.0004         46.0004
  -3851647.64747  -2954112.82547  23512145.8084   23512152.5924   23512145.546
        47.0004         43.0004
 -14955544.93348 -11600809.72648  21499839.0014   21499845.7344   21499839.222
        52.0004         48.0004
 -11705437.88548  -9115480.85648  21491482.0104   21491491.1814   21491481.705
        53.0004         49.0004
  -3981531.91949  -3090804.29048  20619034.1004   20619042.5254   20619034.173
        56.0004         51.0004
  -1051872.06347   -769356.84046  23994214.5464   23994227.7024   23994213.292
        45.0004         41.0004
  -4782656.44348  -3685072.07447  22381077.6974   22381088.3174   22381077.267
        50.0004         45.0004
 15  5  1  0 43 30.0000000  0  8G28G17G07G09G06G30G01G03
 -14399959.16948 -11175497.70647  22137542.9444   22137549.0134   22137543.317
        51.0004         46.0004
  -3845686.65047  -2949467.84447  23513280.0474   23513287.4664   23513279.685
        47.0004         43.0004
 -14869502.95148 -11533764.04247  21516211.9264   21516218.6904   21516211.565
        52.0004         47.0004
   -539038.37048   -410643.79246  24363323.4114   24363330.7194   24363321.111
        51.0004         36.0004
 -11745479.49448  -9146682.01948  21483861.8844   21483871.8824   21483861.214
        53.0004         48.0004
  -3948348.79949  -3064947.31048  20625348.7284   20625357.0304   20625348.513
        56.0004         51.0004
   -949726.55447   -689763.06346  24013651.9314   24013665.5814   24013652.392
        45.0004         41.0004
  -4762112.66848  -3669063.92547  22384986.9654   22384997.3274   22384986.409
        50.0004         45.0004
 15  5  1  0 44  0.0000000  0  8G28G17G07G09G06G30G01G03
 -14474905.02748 -11233897.01347  22123281.3284   22123287.1624   22123281.718
        51.0004         46.0004
  -3839861.79648  -2944928.93447  23514388.9374   23514396.1244   23514389.493
        48.0004         43.0004
 -14783214.26748 -11466526.11048  21532632.1384   21532639.5194   21532632.240
        52.0004         48.0004
   -527489.82047   -401644.84546  24365521.9044   24365529.6954   24365520.207
        46.0004         37.0004
 -11785048.95048  -9177515.27048  21476332.2824   21476341.4084   21476331.226
        53.0004         48.0004
  -3914685.82449  -3038716.43048  20631754.4134   20631762.9824   20631754.834
        56.0004         51.0004
   -847591.04947   -610177.07546  24033089.5404   24033101.8744   24033089.205
        45.0004         41.0004
  -4741132.50548  -3652715.75047  22388980.1474   22388989.7044   22388979.375
        50.0004         45.0004
 15  5  1  0 44 30.0000000  0  8G28G17G07G09G06G30G01G03
 -14549791.74248 -11292250.23347  22109030.5484   22109036.5194   22109030.643
        51.0004         46.0004
  -3834174.78048  -2940497.45047  23515471.1984   23515476.4694   23515471.195
        48.0004         43.0004
 -14696682.66948 -11399098.90247  21549099.1024   21549105.1384   21549099.235
        52.0004         47.0004
   -516189.03347   -392839.01346  24367669.7874   24367679.2864   24367671.104
        43.0004         37.0004
 -11824146.55148  -9207980.84748  21468891.5654   21468900.6014   21468891.154
        53.0004         48.0004
  -3880545.62949  -3012113.68148  20638251.3104   20638259.5944   20638251.345
        56.0004         51.0004
   -745468.71447   -530601.37246  24052523.3484   24052535.8894   24052523.351
        46.0004         41.0004
  -4719716.03248  -3636027.57447  22393055.0994   22393066.3844   22393054.154
        50.0004         45.0004
 15  5  1  0 45  0.0000000  0  8G28G17G07G09G06G30G01G03
 -14624613.39248 -11350552.75647  22094792.8584   22094798.0354   22094793.197
        51.0004         46.0004
  -3828623.68447  -2936171.90147  23516526.4674   23516532.7174   23516527.183
        47.0004         42.0004
 -14609908.23048 -11331482.46547  21565610.8824   21565618.0714   21565610.522
        52.0004         47.0004
   -505132.65047   -384223.57446  24369773.4314   24369782.7504   24369774.205
        42.0004         37.0004
 -11862769.05548  -9238076.21848  21461542.5624   21461551.7534   21461541.840
        53.0004         48.0004
  -3845927.31549  -2985138.37648  20644838.9884   20644847.3184   20644839.290
        56.0004         51.0004
   -643359.01847   -451035.48346  24071952.8384   24071966.6494   24071951.586
        45.0004         40.0004
  -4697859.73148  -3618996.69247  22397213.9764   22397223.6894   22397213.922
        50.0004         45.0004
 15  5  1  0 45 30.0000000  0  8G28G17G07G09G06G30G01G03
 -14699368.18548 -11408803.17847  22080567.1294   22080573.3544   22080567.073
        51.0004         46.0004
  -3823211.38447  -2931954.46347  23517556.9784   23517564.2324   23517557.320
        47.0004         43.0004
 -14522895.17248 -11263680.10147  21582169.6524   21582175.5434   21582169.102
        52.0004         47.0004
   -494321.13847   -375798.99246  24371830.5264   24371838.6584   24371831.647
        42.0004         37.0004
 -11900917.07148  -9267801.85348  21454282.7824   21454292.0974   21454282.288
        53.0004         48.0004
  -3810833.83749  -2957792.81748  20651516.9154   20651525.0954   20651517.044
        56.0004         51.0004
   -541265.31847   -371482.08746  24091380.2394   24091393.0644   24091380.024
        45.0004         39.0004
  -4675564.00948  -3601623.40447  22401455.8384   22401468.1074   22401455.182
        50.0004         45.0004
 15  5  1  0 46  0.0000000  0  8G28G17G07G09G06G30G01G03
 -14774056.42548 -11467001.74147  22066354.2244   22066360.4264   22066354.059
        51.0004         46.0004
  -3817941.71547  -2927848.19247  23518560.1224   23518566.2064   23518559.557
        47.0004         43.0004
 -14435649.85248 -11195696.73547  21598771.6704   21598778.4164   21598770.978
        52.0004         47.0004
   -483757.18946   -367567.32046  24373843.1104   24373851.6284   24373843.315
        41.0004         37.0004
 -11938593.44048  -9297159.97048  21447113.0044   21447122.3894   21447112.247
        53.0004         48.0004
  -3775270.36949  -2930081.02648  20658284.1624   20658292.8114   20658284.453
        56.0004         51.0004
   -439193.16447   -291945.46446  24110805.6884   24110814.7934   24110803.502
        44.0004         39.0004
  -4652831.40548  -3583909.68147  22405782.0764   22405793.2564   22405781.405
        50.0004         45.0004
 15  5  1  0 46 30.0000000  0  8G28G17G07G09G06G30G01G03
 -14848670.59848 -11525142.60047  22052155.5604   22052162.1844   22052156.025
        51.0004         46.0004
  -3812810.98448  -2923850.17347  23519536.1044   23519542.7254   23519535.279
        48.0004         43.0004
 -14348170.53948 -11127531.05747  21615418.7724   21615425.0684   21615418.341
        52.0004         47.0004
   -473435.46547   -359524.35646  24375805.8264   24375814.9664   24375806.051
        42.0004         37.0004
 -11975792.97348  -9326146.53048  21440033.7364   21440043.5354   21440033.500
        53.0004         49.0004
  -3739234.04349  -2902000.78148  20665141.8494   20665150.6244   20665141.991
        56.0004         51.0004
   -337140.06647   -212423.69146  24130224.7594   24130237.2834   24130225.316
        44.0004         39.0004
  -4629656.46748  -3565851.28447  22410192.7714   22410203.4104   22410191.636
        50.0004         46.0004
 15  5  1  0 47  0.0000000  0  8G28G17G07G09G06G30G01G03
 -14923214.68548 -11583228.84347  22037970.8384   22037976.2734   22037970.446
        51.0004         47.0004
  -3807826.91647  -2919966.45647  23520483.8574   23520490.3144   23520484.449
        47.0004         42.0004
 -14260467.21448 -11059190.81047  21632107.3844   21632114.6294   21632106.511
        52.0004         47.0004
   -463362.30647   -351675.10646  24377723.2744   24377731.7344   24377723.757
        42.0004         37.0004
 -12012522.17248  -9354766.58948  21433044.6064   21433054.5494   21433044.061
        53.0004         49.0004
  -3702733.72949  -2873558.97748  20672087.6624   20672096.1824   20672087.915
        56.0004         51.0004
   -235115.10947   -132923.83446  24149639.5964   24149651.7544   24149638.523
        44.0004         40.0004
  -4606045.47648  -3547453.09947  22414685.7624   22414697.2394   22414684.510
        50.0004         45.0004
 15  5  1  0 47 30.0000000  0  8G28G17G07G09G06G30G01G03
 -14997680.81948 -11641254.34247  22023800.0094   22023805.8504   22023800.959
        51.0004         46.0004
  -3802985.90247  -2916194.21647  23521406.1264   23521411.4564   23521406.065
        47.0004         42.0004
 -14172537.95148 -10990674.51847  21648840.1384   21648846.3974   21648839.954
        52.0004         47.0004
   -453532.11146   -344015.16646  24379595.3424   24379602.9744   24379595.005
        41.0004         36.0004
 -12048775.76748  -9383016.06448  21426146.3024   21426155.1104   21426145.799
        53.0004         49.0004
  -3665766.33249  -2844753.21848  20679122.7664   20679130.8494   20679122.927
        56.0004         51.0004
   -133115.66047    -53443.85546  24169049.3194   24169061.7544   24169049.068
        44.0004         40.0004
  -4581992.89848  -3528710.81947  22419262.3074   22419273.2954   22419261.097
        50.0004         46.0004
 15  5  1  0 48  0.0000000  0  8G28G17G07G09G06G30G01G03
 -15072067.17148 -11699217.66547  22009644.6344   22009650.3294   22009644.501
        51.0004         46.0004
  -3798289.79847  -2912534.88347  23522300.1244   23522306.0734   23522300.631
        47.0004         43.0004
 -14084387.01448 -10921985.47447  21665614.6704   21665621.7104   21665613.695
        52.0004         47.0004
   -443945.25446   -336544.85546  24381418.0664   24381425.1974   24381415.617
        41.0004         36.0004
 -12084554.40148  -9410895.43848  21419337.4044   21419346.6934   21419336.762
        53.0004         49.0004
  -3628335.07449  -2815586.00848  20686245.6244   20686253.8014   20686245.916
        56.0004         51.0004
    -31144.88447     26013.76846  24188455.1294   24188467.0144   24188453.459
        45.0004         40.0004
  -4557499.09148  -3509624.73647  22423923.2864   22423934.6614   22423921.828
        50.0004         45.0004
 15  5  1  0 48 30.0000000  0  8G28G17G07G09G06G30G01G03
 -15146371.50048 -11757117.07447  21995504.5314   21995510.1014   21995504.767
        51.0004         46.0004
  -3793740.37448  -2908989.83947  23523164.5014   23523172.4424   23523164.800
        48.0004         43.0004
 -13996017.91948 -10853126.45747  21682430.9924   21682437.4964   21682430.159
        52.0004         47.0004
   -434601.90446   -329264.24246  24383196.5164   24383203.8114   24383196.757
        41.0004         37.0004
 -12119858.58148  -9438405.11148  21412619.1334   21412628.1604   21412618.226
        53.0004         49.0004
  -3590442.64649  -2786059.45148  20693456.3894   20693464.2204   20693456.308
        56.0004         51.0004
     70794.11947    105446.59946  24207853.2164   24207866.6334   24207853.207
        45.0004         40.0004
  -4532564.34348  -3490195.05047  22428668.3674   22428679.3084   22428666.867
        50.0004         45.0004
 15  5  1  0 49  0.0000000  0  8G28G17G07G09G06G30G01G03
 -15220589.82148 -11814949.47147  21981381.9374   21981386.9274   21981382.222
        51.0004         47.0004
  -3789337.56148  -2905559.03947  23524003.1154   23524009.8374   23524002.761
        48.0004         43.0004
 -13907433.01648 -10784099.26647  21699287.0634   21699294.8564   21699286.584
        51.0004         47.0004
   -425500.37647   -322172.10246  24384929.4854   24384936.5974   24384930.035
        42.0004         37.0004
 -12154686.94948  -9465544.01848  21405991.8574   21406000.7554   21405990.957
        53.0004         49.0004
  -3552090.02549  -2756174.29848  20700754.3904   20700762.9544   20700754.456
        56.0004         51.0004
    172700.19047    184853.78246  24227244.3004   24227257.6214   24227246.118
        44.0004         39.0004
  -4507187.02548  -3470420.50647  22433497.7364   22433507.7154   22433497.009
        50.0004         45.0004
 15  5  1  0 49 30.0000000  0  8G28G17G07G09G06G30G01G03
 -15294722.23448 -11872714.92347  21967274.7534   21967280.3444   21967274.881
        51.0004         47.0004
  -3785085.18047  -2902245.47247  23524812.5804   23524819.2934   23524812.108
        47.0004         42.0004
 -13818638.09448 -10714908.43647  21716185.3124   21716192.4494   21716185.479
        51.0004         47.0004
   -416642.96147   -315270.19546  24386613.4454   24386621.9424   24386612.854
        42.0004         37.0004
 -12189042.16249  -9492314.23948  21399454.3364   21399463.3784   21399453.778
        54.0004         49.0004
  -3513282.19149  -2725934.43648  20708139.2054   20708147.5464   20708139.469
        56.0004         51.0004
    274568.20247    264231.29346  24246629.4394   24246643.4774   24246628.815
        44.0004         39.0004
  -4481369.54048  -3450302.98747  22438410.1744   22438420.6934   22438410.059
        50.0004         45.0004
 15  5  1  0 50  0.0000000  0  8G28G17G07G09G06G30G01G03
 -15368762.66548 -11930408.70747  21953185.2674   21953190.9374   21953185.654
        51.0004         47.0004
  -3780981.22947  -2899047.58147  23525594.0474   23525599.2654   23525592.841
        47.0004         43.0004
 -13729633.26948 -10645554.03247  21733121.5644   21733128.9804   21733120.876
        51.0004         47.0004
   -408025.95246   -308555.60746  24388250.2154   24388261.5174   24388250.351
        41.0004         36.0004
 -12222920.88849  -9518713.16848  21393007.1054   21393015.8954   21393006.205
        54.0004         49.0004
  -3474018.11649  -2695339.06048  20715610.8694   20715619.5144   20715610.910
        56.0004         51.0004
    376399.05847    343579.88746  24266007.7984   24266020.8974   24266008.290
        43.0004         38.0004
  -4455108.28448  -3429839.66147  22443407.6544   22443418.8844   22443407.893
        50.0004         46.0004
 15  5  1  0 50 30.0000000  0  8G28G17G07G09G06G30G01G03
 -15442710.29548 -11988030.17547  21939113.4504   21939118.3334   21939113.759
        51.0004         47.0004
  -3777028.87347  -2895967.79047  23526344.0574   23526352.7164   23526344.462
        47.0004         43.0004
 -13640423.51248 -10576039.94447  21750098.0254   21750104.8814   21750097.686
        51.0004         47.0004
   -399650.69446   -302029.40846  24389847.0394   24389852.3994   24389848.651
        41.0004         36.0004
 -12256325.02548  -9544742.27648  21386650.4004   21386659.3394   21386650.010
        53.0004         49.0004
  -3434301.96049  -2664391.41248  20723168.8334   20723177.0054   20723169.179
        56.0004         51.0004
    478188.43747    422896.14246  24285379.3294   24285392.1244   24285377.976
        43.0004         39.0004
  -4428404.89048  -3409031.82147  22448489.2104   22448499.7984   22448488.630
        50.0004         45.0004
 15  5  1  0 51  0.0000000  0  9G28G17G07G09G06G30G10G01G03
 -15516566.47048 -12045580.39047  21925058.9754   21925063.8664   21925059.487
        51.0004         47.0004
  -3773233.29948  -2893010.17647  23527067.5354   23527074.5644   23527066.793
        48.0004         43.0004
 -13551016.50748 -10506372.14947  21767111.4574   21767119.1604   21767111.277
        51.0004         47.0004
   -391520.93546   -295694.52246  24391395.1394   24391402.3754   24391395.963
        41.0004         36.0004
 -12289258.83249  -9570404.90448  21380383.2434   21380392.1394   21380382.299
        54.0004         49.0004
  -3394140.30549  -2633096.61848  20730810.8204   20730819.5554   20730811.172
        56.0004         51.0004
   -424956.70147   -320394.02446  23425452.7844   23425461.0584   23425452.916
        47.0004         41.0004
    579929.72947    502174.94046  24304738.0944   24304752.1794   24304738.591
        43.0004         39.0004
  -4401263.33948  -3387882.54747  22453654.5914   22453664.8094   22453653.390
        50.0004         45.0004
 15  5  1  0 51 30.0000000  0  9G28G17G07G09G06G30G10G01G03
 -15590322.03048 -12103052.19347  21911023.9664   21911029.2494   21911023.999
        51.0004         47.0004
  -3769589.23247  -2890170.63047  23527760.9454   23527766.0904   23527761.293
        47.0004         42.0004
 -13461408.77648 -10436547.95747  21784163.9664   21784170.9924   21784163.150
        51.0004         47.0004
   -383629.60846   -289545.38746  24392895.5764   24392903.4604   24392894.759
        41.0004         36.0004
 -12321715.66949  -9595695.86748  21374207.1644   21374215.8514   21374206.148
        54.0004         49.0004
  -3353528.75649  -2601451.26048  20738539.6254   20738547.8384   20738539.509
        56.0004         51.0004
   -519114.01247   -393763.28746  23407534.4444   23407543.6044   23407534.725
        46.0004         41.0004
    681627.13247    581419.53446  24324091.4844   24324104.9374   24324090.580
        44.0004         39.0004
  -4373676.71248  -3366386.47547  22458903.7024   22458915.0954   22458903.880
        50.0004         46.0004
 15  5  1  0 52  0.0000000  0  9G28G17G07G09G06G30G10G01G03
 -15663973.45948 -12160442.85047  21897008.6324   21897013.9304   21897008.115
        52.0004         47.0004
  -3766096.86047  -2887449.29447  23528424.3824   23528431.2794   23528425.012
        47.0004         42.0004
 -13371603.16348 -10366569.55647  21801252.6184   21801259.6164   21801252.582
        51.0004         47.0004
   -375975.42646   -283581.03246  24394351.3244   24394358.2254   24394349.520
        41.0004         37.0004
 -12353694.86749  -9620614.63848  21368121.5854   21368130.2884   21368121.140
        54.0004         49.0004
  -3312468.99649  -2569456.64748  20746352.7714   20746360.9634   20746352.976
        56.0004         51.0004
   -613320.85147   -467171.14746  23389606.3654   23389616.2794   23389606.643
        46.0004         41.0004
    783279.03747    660628.66146  24343435.0734   24343447.8534   24343434.276
        43.0004         39.0004
  -4345644.13748  -3344542.89347  22464237.5334   22464248.4724   22464236.990
        50.0004         45.0004
 15  5  1  0 52 30.0000000  0  9G28G17G07G09G06G30G10G01G03
 -15737517.98948 -12217750.21847  21883013.0844   21883018.2334   21883012.961
        52.0004         47.0004
  -3762757.29547  -2884847.00547  23529060.8154   23529066.9044   23529060.798
        47.0004         43.0004
 -13281602.66348 -10296439.31547  21818379.8534   21818386.9434   21818379.812
        51.0004         47.0004
   -368557.78747   -277801.02746  24395764.6824   24395772.6384   24395762.767
        42.0004         38.0004
 -12385196.43449  -9645161.24248  21362127.2084   21362135.3964   21362126.864
        54.0004         49.0004
  -3270963.29749  -2537114.55048  20754251.2034   20754259.1694   20754251.239
        56.0004         51.0004
   -707574.55247   -540615.54546  23371670.5234   23371681.2674   23371671.445
        45.0004         41.0004
    884883.23247    739800.63546  24362769.3124   24362782.1694   24362769.272
        43.0004         39.0004
  -4317165.29148  -3322351.59147  22469657.3334   22469668.1174   22469656.602
        50.0004         45.0004
 15  5  1  0 53  0.0000000  0  9G28G17G07G09G06G30G10G01G03
 -15810957.36848 -12274975.66047  21869038.0394   21869043.3464   21869038.672
        52.0004         47.0004
  -3759576.24147  -2882368.25847  23529667.3894   23529672.8734   23529666.794
        47.0004         43.0004
 -13191415.11948 -10226163.30247  21835541.7844   21835548.8414   21835541.549
        51.0004         47.0004
   -361380.92947   -272208.66846  24397129.1754   24397136.7704   24397130.095
        43.0004         39.0004
 -12416225.23649  -9669339.45148  21356222.0364   21356231.1734   21356221.693
        54.0004         49.0004
  -3229018.80149  -2504430.53348  20762232.7294   20762241.0974   20762232.474
        56.0004         51.0004
   -801877.41347   -614098.25546  23353726.0924   23353735.3674   23353727.206
        46.0004         41.0004
    986432.47547    818929.73346  24382094.7474   24382105.6904   24382093.500
        43.0004         38.0004
  -4288244.84648  -3299816.16247  22475160.9264   22475172.3344   22475159.587
        50.0004         45.0004
 15  5  1  0 53 30.0000000  0  9G28G17G07G09G06G30G10G01G03
 -15884284.64348 -12332113.75047  21855084.0874   21855089.5964   21855084.723
        52.0004         47.0004
  -3756550.27048  -2880010.33147  23530241.2014   23530248.8194   23530242.658
        48.0004         43.0004
 -13101039.41748 -10155740.68747  21852739.6484   21852746.7464   21852738.450
        51.0004         47.0004
   -354439.87247   -266800.00846  24398449.5844   24398459.1114   24398447.842
        43.0004         38.0004
 -12446776.92849  -9693145.88048  21350408.5904   21350416.9934   21350407.973
        54.0004         49.0004
  -3186633.37449  -2471402.93948  20770298.5544   20770306.6854   20770298.764
        56.0004         51.0004
   -896222.69647   -687613.99346  23335772.3304   23335781.5294   23335772.667
        46.0004         41.0004
   1087928.98047    898017.73546  24401407.8814   24401419.8604   24401406.326
        42.0004         37.0004
  -4258878.10048  -3276932.98047  22480749.1324   22480760.7024   22480749.089
        50.0004         45.0004
 15  5  1  0 54  0.0000000  0  9G28G17G07G09G06G30G10G01G03
 -15957497.73148 -12389162.86047  21841152.3414   21841157.5954   21841152.807
        52.0004         47.0004
  -3753681.65347  -2877775.02647  23530787.8104   23530794.2114   23530786.495
        47.0004         42.0004
 -13010479.79448 -10085174.74347  21869972.9454   21869979.4494   21869972.738
        51.0004         47.0004
   -347734.91547   -261575.34246  24399723.9764   24399735.1714   24399724.966
        43.0004         38.0004
 -12476852.50749  -9716581.30348  21344685.0044   21344693.6904   21344684.239
        54.0004         49.0004
  -3143810.33149  -2438034.34448  20778446.9464   20778455.7014   20778446.857
        55.0004         51.0004
   -990608.81647   -761161.54546  23317811.5254   23317821.0074   23317811.504
        46.0004         41.0004
   1189369.51947    977062.19846  24420710.9594   24420725.2204   24420711.190
        42.0004         37.0004
  -4229065.82448  -3253702.63247  22486422.0724   22486433.4374   22486420.881
        50.0004         45.0004
 15  5  1  0 54 30.0000000  0  9G28G17G07G09G06G30G10G01G03
 -16030597.63048 -12446123.76147  21827242.1914   21827247.1304   21827242.163
        52.0004         47.0004
  -3750975.21247  -2875666.09847  23531303.2504   23531308.9024   23531303.460
        47.0004         42.0004
 -12919743.14648 -10014470.86547  21887238.6894   21887246.8284   21887238.390
        51.0004         46.0004
   -341269.25647   -256537.19946  24400954.7414   24400963.9754   24400955.559
        42.0004         37.0004
 -12506455.97749  -9739648.86448  21339051.4774   21339060.6084   21339050.388
        54.0004         49.0004
  -3100555.90049  -2404329.60248  20786678.5904   20786686.7964   20786678.599
        55.0004         51.0004
  -1085037.13647   -834741.99046  23299842.1354   23299851.1214   23299843.064
        46.0004         41.0004
   1290748.01547   1056058.18546  24440003.0344   24440016.4264   24440001.030
        42.0004         38.0004
  -4198811.69548  -3230127.98847  22492179.8114   22492190.7444   22492179.134
        50.0004         45.0004
 15  5  1  0 55  0.0000000  0  9G28G17G07G09G06G30G10G01G03
 -16103576.25548 -12502990.16847  21813354.6494   21813360.1034   21813354.985
        52.0004         47.0004
  -3748426.62847  -2873680.18447  23531788.1464   23531794.2944   23531787.593
        47.0004         42.0004
 -12828827.37648  -9943627.41647  21904539.9964   21904547.7844   21904539.461
        51.0004         47.0004
   -335037.01847   -251680.88146  24402143.2064   24402149.9404   24402142.941
        42.0004         37.0004
 -12535582.09649  -9762344.46548  21333509.2554   21333517.7094   21333508.313
        54.0004         49.0004
  -3056867.10649  -2370286.40148  20794992.1744   20795000.4764   20794992.216
        55.0004         51.0004
  -1179499.70747   -908349.12946  23281867.4054   23281875.1884   23281867.479
        46.0004         41.0004
   1392067.41047   1135008.23546  24459284.8424   24459298.2664   24459284.498
        43.0004         38.0004
  -4168110.30548  -3206204.81947  22498022.3384   22498032.0064   22498021.854
        50.0004         45.0004
 15  5  1  0 55 30.0000000  0  9G28G17G07G09G06G30G10G01G03
 -16176432.91048 -12559761.53947  21799490.2874   21799495.4554   21799490.023
        52.0004         47.0004
  -3746039.11147  -2871819.76447  23532241.3794   23532249.1634   23532241.503
        47.0004         43.0004
 -12737738.01248  -9872648.69847  21921873.9784   21921880.7794   21921873.620
        51.0004         46.0004
   -329039.91047   -247007.75046  24403282.1454   24403291.0334   24403282.156
        42.0004         37.0004
 -12564233.40649  -9784670.07148  21328056.8294   21328065.0734   21328056.038
        54.0004         49.0004
  -3012748.69449  -2335908.42148  20803387.7574   20803395.8774   20803387.802
        55.0004         51.0004
  -1273996.34447   -981982.82646  23263883.6874   23263893.4464   23263885.670
        46.0004         41.0004
   1493323.22747   1213908.70746  24478552.4904   24478566.7094   24478552.144
        43.0004         38.0004
  -4136963.80948  -3181934.81247  22503948.5584   22503958.8974   22503947.487
        50.0004         45.0004
 15  5  1  0 56  0.0000000  0  9G28G17G07G09G06G30G10G01G03
 -16249165.04748 -12616435.87547  21785649.1634   21785655.3564   21785650.230
        52.0004         47.0004
  -3743813.76347  -2870085.68947  23532664.7894   23532672.8584   23532664.870
        47.0004         43.0004
 -12646478.77648  -9801537.61747  21939239.8944   21939246.4684   21939239.566
        51.0004         46.0004
   -323277.33847   -242517.39746  24404378.3484   24404390.2954   24404378.603
        42.0004         38.0004
 -12592410.22349  -9806625.95248  21322695.0714   21322703.4334   21322693.791
        54.0004         49.0004
  -2968203.24549  -2301197.69648  20811864.4144   20811873.0214   20811864.557
        55.0004         51.0004
  -1368524.89047  -1055641.35846  23245896.3804   23245905.4244   23245896.395
        46.0004         41.0004
   1594512.96347   1292757.66546  24497809.2594   24497823.5064   24497809.348
        43.0004         39.0004
  -4105372.31748  -3157318.06747  22509960.8644   22509971.0634   22509960.012
        50.0004         45.0004
 15  5  1  0 56 30.0000000  0  9G28G17G07G09G06G30G10G01G03
 -16321770.43948 -12673011.46947  21771833.7804   21771838.1594   21771834.152
        52.0004         47.0004
  -3741752.31147  -2868479.33947  23533057.9624   23533064.7654   23533057.481
        47.0004         43.0004
 -12555052.87748  -9730296.65347  21956637.1894   21956644.3164   21956636.810
        51.0004         46.0004
   -317749.24747   -238209.75446  24405431.2714   24405439.8984   24405430.481
        42.0004         38.0004
 -12620113.27149  -9828212.66648  21317422.8644   21317431.9854   21317422.259
        54.0004         49.0004
  -2923233.68149  -2266156.49148  20820421.7994   20820430.0654   20820421.943
        55.0004         51.0004
  -1463083.31947  -1129323.18346  23227901.6944   23227911.5414   23227903.609
        46.0004         41.0004
   1695633.96147   1371553.05946  24517051.3724   24517066.8244   24517051.020
        43.0004         39.0004
  -4073336.22448  -3132354.86747  22516056.4594   22516067.1164   22516055.994
        50.0004         45.0004
 15  5  1  0 57  0.0000000  0  9G28G17G07G09G06G30G10G01G03
 -16394243.31348 -12729483.80347  21758041.9604   21758046.5354   21758042.518
        52.0004         47.0004
  -3739852.32848  -2866998.82847  23533419.7764   23533425.7124   23533420.070
        48.0004         43.0004
 -12463460.51348  -9658925.97647  21974067.1354   21974074.1154   21974066.813
        51.0004         46.0004
   -312451.95847   -234081.97346  24406438.5914   24406447.7984   24406439.246
        43.0004         38.0004
 -12647339.89249  -9849428.13648  21312242.1544   21312250.7844   21312241.696
        54.0004         49.0004
  -2877839.57549  -2230784.47248  20829060.0684   20829068.2154   20829060.354
        55.0004         51.0004
  -1557666.21847  -1203024.06846  23209903.7394   23209912.2324   23209904.105
        46.0004         41.0004
   1796686.84447   1450295.39846  24536279.1744   24536296.1844   24536280.436
        43.0004         38.0004
  -4040852.64548  -3107042.98047  22522237.4024   22522248.5054   22522237.276
        50.0004         45.0004
 15  5  1  0 57 30.0000000  0  9G28G17G07G09G06G30G10G01G03
 -16466584.22548 -12785853.30248  21744276.1544   21744281.5504   21744276.571
        52.0004         48.0004
  -3738118.92247  -2865648.12247  23533748.6144   23533755.1684   23533749.577
        47.0004         43.0004
 -12371708.57648  -9587430.97447  21991526.5884   21991533.6294   21991526.752
        51.0004         46.0004
   -307388.31447   -230136.28046  24407401.9424   24407411.6444   24407402.572
        43.0004         38.0004
 -12674093.81449  -9870275.27048  21307151.0664   21307159.3104   21307150.055
        54.0004         49.0004
  -2832026.85849  -2195086.26348  20837777.8384   20837786.3624   20837778.056
        55.0004         51.0004
  -1652274.43347  -1276744.70246  23191901.0314   23191908.9294   23191901.152
        46.0004         41.0004
   1897665.96747   1528980.31246  24555497.2394   24555511.5854   24555496.231
        43.0004         38.0004
  -4007924.99848  -3081385.06447  22528503.9074   22528515.4294   22528502.652
        50.0004         45.0004
 15  5  1  0 58  0.0000000  0  9G28G17G07G09G06G30G10G01G03
 -16538789.30148 -12842116.95147  21730535.6094   21730541.7554   21730535.923
        52.0004         47.0004
  -3736551.71547  -2864426.87747  23534047.4614   23534053.5274   23534046.773
        47.0004         43.0004
 -12279799.84348  -9515813.78047  22009016.2394   22009023.7394   22009016.584
        51.0004         46.0004
   -302556.70947   -226371.37046  24408322.6354   24408331.4664   24408322.427
        43.0004         38.0004
 -12700374.35449  -9890753.52648  21302150.0424   21302158.5944   21302149.531
        54.0004         49.0004
  -2785797.06949  -2159063.07148  20846575.2694   20846583.4154   20846575.160
        55.0004         51.0004
  -1746904.14747  -1350482.08646  23173894.2274   23173901.9244   23173894.445
        46.0004         41.0004
   1998570.00647   1607606.69146  24574697.3484   24574713.2824   24574697.224
        43.0004         38.0004
  -3974552.32948  -3055380.37747  22534854.9084   22534864.3454   22534853.468
        49.0004         45.0004
 15  5  1  0 58 30.0000000  0  9G28G17G07G09G06G30G10G01G03
 -16610854.44048 -12898271.54947  21716822.2374   21716827.2044   21716822.447
        52.0004         47.0004
  -3735150.22347  -2863334.78647  23534314.8684   23534319.8614   23534313.879
        47.0004         43.0004
 -12187735.43448  -9444075.29047  22026536.7824   22026542.8554   22026536.141
        51.0004         46.0004
   -297955.04447   -222785.67046  24409198.0734   24409207.5484   24409198.240
        43.0004         39.0004
 -12726180.52049  -9910862.14648  21297238.8964   21297247.5064   21297238.482
        54.0004         49.0004
  -2739151.37949  -2122715.78848  20855451.2214   20855459.5254   20855451.705
        55.0004         51.0004
  -1841551.70347  -1424233.38447  23155882.0784   23155890.6224   23155882.552
        46.0004         42.0004
   2099398.17247   1686173.90246  24593883.5634   24593899.8564   24593883.721
        42.0004         37.0004
  -3940733.33148  -3029027.90847  22541290.0144   22541301.6984   22541289.100
        49.0004         45.0004
 15  5  1  0 59  0.0000000  0  9G28G17G07G09G06G30G10G01G03
 -16682778.80748 -12954316.47547  21703134.9094   21703141.2664   21703135.647
        52.0004         47.0004
  -3733917.68948  -2862374.34647  23534548.2844   23534554.7044   23534547.784
        48.0004         43.0004
 -12095520.77148  -9372219.70047  22044083.8084   22044089.8134   22044082.523
        51.0004         46.0004
   -293584.81047   -219380.30146  24410029.3634   24410038.1974   24410029.547
        43.0004         38.0004
 -12751514.76949  -9930603.04048  21292418.0134   21292426.7514   21292417.416
        54.0004         49.0004
  -2692094.43649  -2086048.06048  20864406.5254   20864414.6894   20864406.490
        55.0004         51.0004
  -1936216.72747  -1497998.27546  23137868.3544   23137877.3114   23137869.135
        46.0004         41.0004
   2200146.10047   1764678.59946  24613056.9324   24613072.6184   24613057.657
        42.0004         37.0004
  -3906470.22048  -3002329.35447  22547809.9264   22547820.8324   22547809.263
        49.0004         45.0004
 15  5  1  0 59 30.0000000  0  9G28G17G07G09G06G30G10G01G03
 -16754557.08548 -13010247.55047  21689475.6414   21689481.7834   21689476.284
        52.0004         47.0004
  -3732852.41847  -2861544.24547  23534751.2074   23534757.6534   23534750.884
        47.0004         43.0004
 -12003156.47048  -9300247.52947  22061659.7044   22061666.3854   22061659.966
        50.0004         46.0004
   -289442.64347   -216152.62746  24410816.4924   24410824.7184   24410815.697
        43.0004         38.0004
 -12776374.79749  -9949974.41248  21287687.2144   21287695.4734   21287687.032
        54.0004         49.0004
  -2644626.08149  -2049059.75048  20873438.8274   20873447.6344   20873438.589
        55.0004         51.0004
  -2030893.93847  -1571772.67747  23119851.4654   23119860.1764   23119852.271
        46.0004         42.0004
   2300814.18647   1843121.12046  24632215.9974   24632228.5664   24632214.720
        42.0004         37.0004
  -3871760.37948  -2975282.70547  22554413.9774   22554425.9704   22554413.695
        49.0004         45.0004
 15  5  1  1  0  0.0000000  0  9G28G17G07G09G06G30G10G01G03
 -16826175.61448 -13066054.15347  21675847.5344   21675853.2944   21675847.404
        52.0004         47.0004
  -3731944.61348  -2860836.81047  23534924.3194   23534930.8314   23534924.513
        48.0004         43.0004
 -11910635.34048  -9228153.14447  22079266.2364   22079273.3884   22079266.212
        51.0004         46.0004
   -285517.16847   -213093.81446  24411564.1724   24411573.9314   24411563.928
        43.0004         39.0004
 -12800750.43949  -9968968.34148  21283048.8844   21283056.9934   21283048.140
        54.0004         49.0004
  -2596738.33949  -2011744.63948  20882551.9564   20882560.1854   20882552.070
        55.0004         51.0004
  -2125570.11047  -1645546.27347  23101835.5734   23101843.8804   23101835.181
        46.0004         42.0004
   2401410.89047   1921508.01846  24651357.5864   24651370.6764   24651355.576
        42.0004         37.0004
  -3836593.36748  -2947879.83247  22561107.2344   22561117.3944   22561106.823
        49.0004         45.0004
 15  5  1  1  0 30.0000000  0  9G28G17G07G09G06G30G10G01G03
 -16897653.46448 -13121751.14048  21662246.0834   21662251.5644   21662246.304
        52.0004         48.0004
  -3731217.32348  -2860270.07847  23535063.3384   23535067.7264   23535063.032
        48.0004         43.0004
 -11817982.28348  -9155955.96047  22096897.1104   22096905.0524   22096897.025
        51.0004         46.0004
   -281829.52147   -210220.27346  24412265.9134   24412275.4714   24412264.732
        44.0004         39.0004
 -12824663.88349  -9987602.10948  21278498.0684   21278506.5574   21278497.636
        54.0004         49.0004
  -2548455.53149  -1974121.69248  20891739.7564   20891748.2434   20891740.371
        55.0004         51.0004
  -2220264.67347  -1719334.19947  23083815.4254   23083825.7824   23083815.809
        46.0004         42.0004
   2501912.27946   1999820.60746  24670481.6804   24670495.7034   24670480.257
        41.0004         37.0004
  -3800991.11048  -2920137.78447  22567882.4464   22567892.2904   22567881.643
        49.0004         45.0004
 15  5  1  1  1  0.0000000  0  9G28G17G07G09G06G30G10G01G03
 -16968977.62548 -13177328.36948  21648673.6424   21648678.5924   21648673.807
        52.0004         48.0004
  -3730661.02748  -2859836.57847  23535168.6434   23535174.8404   23535168.344
        48.0004         43.0004
 -11725190.34148  -9083650.54947  22114554.8954   22114562.0264   22114554.473
        50.0004         46.0004
   -278368.82547   -207523.61946  24412925.5284   24412934.6214   24412926.713
        44.0004         39.0004
 -12848105.50449 -10005868.23748  21274037.1854   21274045.3714   21274036.436
        54.0004         49.0004
  -2499770.23449  -1936185.10648  20901004.5054   20901012.6464   20901004.184
        55.0004         51.0004
  -2314965.08547  -1793126.67347  23065794.3284   23065803.7554   23065795.449
        46.0004         42.0004
   2602326.18146   2078064.98546  24689589.5144   24689602.7534   24689588.560
        41.0004         37.0004
  -3764943.67148  -2892048.87447  22574741.6444   22574751.3834   22574741.433
        49.0004         45.0004
 15  5  1  1  1 30.0000000  0  9G28G17G07G09G06G30G10G01G03
 -17040144.63348 -13232783.12847  21635130.4034   21635136.1054   21635130.459
        52.0004         47.0004
  -3730276.13647  -2859536.62847  23535242.2354   23535247.9714   23535240.317
        47.0004         43.0004
 -11632262.09448  -9011238.94447  22132238.6944   22132245.9594   22132238.876
        50.0004         46.0004
   -275133.82247   -205002.80446  24413540.9024   24413549.4104   24413539.523
        44.0004         39.0004
 -12871075.21849 -10023766.63648  21269666.3054   21269674.3254   21269665.746
        54.0004         49.0004
  -2450684.44649  -1897936.45848  20910345.3234   20910353.6444   20910345.212
        55.0004         51.0004
  -2409668.01747  -1866921.12747  23047772.6224   23047782.3634   23047773.649
        47.0004         42.0004
   2702650.98347   2156239.96846  24708680.9924   24708696.2944   24708680.087
        42.0004         37.0004
  -3728450.68048  -2863612.75147  22581684.6904   22581697.1124   22581684.078
        49.0004         44.0004
 15  5  1  1  2  0.0000000  0  9G28G17G07G09G06G30G10G01G03
 -17111153.41448 -13288114.59348  21621618.5144   21621623.4644   21621618.556
        52.0004         48.0004
  -3730065.45848  -2859372.42847  23535281.8534   23535288.7314   23535281.523
        48.0004         43.0004
 -11539202.56548  -8938725.01547  22149947.4424   22149954.7924   22149946.628
        50.0004         46.0004
   -272125.51247   -202658.65446  24414112.6104   24414122.8024   24414111.521
        43.0004         39.0004
 -12893575.22949 -10041299.03248  21265384.5034   21265392.8414   21265383.837
        54.0004         49.0004
  -2401202.53149  -1859379.13048  20919761.2644   20919769.5774   20919760.879
        55.0004         51.0004
  -2504372.55747  -1940716.81247  23029750.6294   23029760.3874   23029751.985
        47.0004         42.0004
   2802882.79647   2234342.54746  24727755.6594   24727769.4684   24727756.878
        42.0004         37.0004
  -3691514.03648  -2834830.93947  22588714.3804   22588725.6924   22588713.053
        49.0004         45.0004
 15  5  1  1  2 30.0000000  0  9G28G17G07G09G06G30G10G01G03
 -17182000.19648 -13343319.83248  21608136.4414   21608141.6754   21608136.599
        52.0004         48.0004
  -3730028.90448  -2859343.88947  23535288.7884   23535295.2034   23535289.175
        48.0004         43.0004
 -11446013.93448  -8866110.50647  22167681.3604   22167686.9614   22167680.753
        50.0004         45.0004
   -269342.15547   -200489.80546  24414643.1694   24414650.5304   24414643.178
        43.0004         39.0004
 -12915605.18049 -10058465.15648  21261191.9074   21261200.5564   21261191.411
        54.0004         49.0004
  -2351326.24849  -1820514.50648  20929252.4534   20929261.0694   20929252.317
        55.0004         51.0004
  -2599075.24147  -2014511.06147  23011730.6684   23011739.5644   23011731.041
        47.0004         42.0004
   2903020.34047   2312371.65746  24746811.7754   24746825.2784   24746812.080
        42.0004         37.0004
  -3654133.13348  -2805702.94747  22595827.1304   22595838.8284   22595827.553
        49.0004         44.0004
 15  5  1  1  3  0.0000000  0  9G28G17G07G09G06G30G10G01G03
 -17252679.06748 -13398394.23048  21594686.8004   21594691.8304   21594687.231
        52.0004         48.0004
  -3730164.05948  -2859449.17647  23535262.8914   23535268.9994   23535263.131
        48.0004         43.0004
 -11352696.37348  -8793395.51147  22185438.3384   22185445.0014   22185437.623
        50.0004         45.0004
   -266780.02647   -198493.34246  24415131.1874   24415139.9424   24415131.659
        44.0004         39.0004
 -12937162.54049 -10075263.02848  21257090.3004   21257098.2414   21257089.540
        54.0004         50.0004
  -2301055.18049  -1781342.26348  20938818.6254   20938826.7614   20938818.634
        55.0004         51.0004
  -2693770.42547  -2088299.46847  22993710.1184   22993719.1424   22993710.714
        47.0004         42.0004
   3003064.62447   2390328.05546  24765848.0794   24765862.6354   24765849.747
        42.0004         37.0004
  -3616305.09148  -2776226.53547  22603026.2074   22603037.6344   22603025.457
        49.0004         44.0004
 15  5  1  1  3 30.0000000  0  9G28G17G07G09G06G30G10G01G03
 -17323190.29848 -13453337.99048  21581268.8854   21581274.0124   21581269.238
        52.0004         48.0004
  -3730475.00548  -2859691.45547  23535204.2634   23535210.1934   23535202.444
        48.0004         43.0004
 -11259256.14248  -8720584.95347  22203219.2924   22203226.0954   22203218.903
        50.0004         45.0004
   -264441.30047   -196670.94446  24415575.7614   24415584.2924   24415575.216
        44.0004         39.0004
 -12958250.89649 -10091695.44048  21253076.8274   21253085.2184   21253076.296
        54.0004         50.0004
  -2250395.00849  -1741866.82148  20948459.1354   20948467.3834   20948459.001
        55.0004         51.0004
  -2788458.53247  -2162082.36747  22975692.0494   22975699.9224   22975692.687
        47.0004         43.0004
   3103010.39547   2468207.66646  24784866.5124   24784880.9384   24784865.542
        42.0004         37.0004
  -3578033.26048  -2746404.32347  22610309.7504   22610320.0924   22610308.609
        49.0004         45.0004
 15  5  1  1  4  0.0000000  0  9G28G17G07G09G06G30G10G01G03
 -17393529.88748 -13508148.01648  21567883.6574   21567888.6594   21567884.435
        52.0004         48.0004
  -3730961.56548  -2860070.53747  23535110.7464   23535117.4144   23535110.278
        48.0004         43.0004
 -11165695.41548  -8647680.49947  22221023.7344   22221029.3154   22221023.504
        50.0004         45.0004
   -262324.16547   -195021.22146  24415977.4174   24415986.7534   24415978.024
        44.0004         39.0004
 -12978869.84349 -10107762.07448  21249153.1384   21249161.5074   21249152.039
        54.0004         50.0004
  -2199347.38949  -1702089.47348  20958173.0754   20958181.2734   20958173.201
        55.0004         51.0004
  -2883135.95847  -2235856.92847  22957675.0104   22957683.5264   22957676.153
        47.0004         43.0004
   3202856.65347   2546009.75946  24803867.2274   24803881.1674   24803866.289
        42.0004         38.0004
  -3539316.91748  -2716235.71847  22617676.7034   22617686.3564   22617676.131
        49.0004         44.0004
 15  5  1  1  4 30.0000000  0  9G28G17G07G09G06G30G10G01G03
 -17463695.60948 -13562822.55448  21554531.4704   21554536.5934   21554531.616
        52.0004         48.0004
  -3731625.27648  -2860587.69647  23534984.6734   23534991.0544   23534986.147
        48.0004         43.0004
 -11072017.91448  -8574685.04647  22238849.6564   22238856.8784   22238849.804
        50.0004         46.0004
   -260428.47847   -193544.07246  24416339.3114   24416348.0784   24416340.655
        44.0004         40.0004
 -12999020.59649 -10123463.89448  21245318.5774   21245326.4644   21245317.876
        54.0004         50.0004
  -2147915.65749  -1662012.81248  20967960.2894   20967968.3784   20967960.374
        55.0004         51.0004
  -2977800.57047  -2309621.50147  22939661.1984   22939669.5834   22939662.106
        47.0004         43.0004
   3302600.47147   2623732.05846  24822847.1014   24822862.7574   24822846.465
        42.0004         38.0004
  -3500157.01348  -2685721.49147  22625128.1614   22625139.7384   22625128.058
        49.0004         44.0004
 15  5  1  1  5  0.0000000  0  9G28G17G07G09G06G30G10G01G03
 -17533683.81848 -13617358.76348  21541213.1444   21541218.2974   21541213.567
        52.0004         48.0004
  -3732465.79948  -2861242.60947  23534824.6974   23534830.7534   23534825.122
        48.0004         43.0004
 -10978225.89848  -8501600.35047  22256697.5404   22256704.5764   22256697.330
        50.0004         45.0004
   -258752.69247   -192238.25946  24416657.7884   24416666.7754   24416656.490
        44.0004         40.0004
 -13018703.08349 -10138800.81548  21241573.0084   21241581.3054   21241571.896
        54.0004         50.0004
  -2096101.78049  -1621638.37548  20977819.9894   20977828.4804   20977820.214
        55.0004         51.0004
  -3072449.40947  -2383373.79047  22921649.6184   22921658.0764   22921650.827
        47.0004         43.0004
   3402240.60247   2701373.56146  24841809.5274   24841823.6804   24841808.388
        42.0004         38.0004
  -3460553.13448  -2654861.32147  22632665.5024   22632676.1364   22632664.810
        49.0004         45.0004
 15  5  1  1  5 30.0000000  0  9G28G17G07G09G06G30G10G01G03
 -17603491.43848 -13671754.25548  21527928.9624   21527934.6984   21527928.857
        52.0004         48.0004
  -3733484.30348  -2862036.21047  23534629.7114   23534637.4334   23534629.934
        48.0004         43.0004
 -10884322.24448  -8428428.66947  22274566.5974   22274574.0004   22274566.957
        50.0004         45.0004
   -257295.61947   -191102.86146  24416935.6764   24416944.0764   24416935.940
        44.0004         40.0004
 -13037917.60849 -10153773.10648  21237916.6714   21237924.7204   21237915.787
        54.0004         50.0004
  -2043908.13349  -1580968.01048  20987751.8354   20987760.4164   20987751.404
        55.0004         50.0004
  -3167079.10447  -2457111.15947  22903642.5844   22903651.2804   22903642.762
        47.0004         43.0004
   3501775.28347   2778932.87746  24860749.4404   24860766.5674   24860750.498
        42.0004         37.0004
  -3420505.33848  -2623655.22447  22640285.9794   22640296.0804   22640285.352
        49.0004         44.0004
 15  5  1  1  6  0.0000000  0  9G28G17G07G09G06G30G10G01G03
 -17673113.90848 -13726005.47548  21514680.6554   21514685.6054   21514680.788
        53.0004         48.0004
  -3734680.00948  -2862967.89047  23534403.3964   23534409.5414   23534402.589
        48.0004         43.0004
 -10790308.96948  -8355171.57447  22292457.0874   22292464.5224   22292456.575
        50.0004         45.0004
   -256055.03647   -190136.17446  24417172.2324   24417179.4964   24417172.486
        45.0004         40.0004
 -13056663.46349 -10168380.20548  21234349.3374   21234357.8454   21234348.787
        54.0004         50.0004
  -1991336.03749  -1540002.76148  20997756.7024   20997764.6504   20997757.020
        55.0004         50.0004
  -3261685.47147  -2530830.33447  22885639.6084   22885648.1974   22885639.646
        47.0004         43.0004
   3601203.79247   2856409.46346  24879672.2404   24879686.4824   24879672.224
        42.0004         37.0004
  -3380012.57548  -2592102.40547  22647991.8084   22648001.6674   22647990.931
        49.0004         44.0004
 15  5  1  1  6 30.0000000  0  9G28G17G07G09G06G30G10G01G03
 -17742551.40048 -13780112.56248  21501466.7964   21501471.5754   21501467.074
        53.0004         48.0004
  -3736056.34048  -2864040.32747  23534141.2644   23534147.2124   23534141.512
        48.0004         43.0004
 -10696191.80648  -8281833.53147  22310367.0924   22310373.7684   22310366.477
        50.0004         45.0004
   -255032.89647   -189339.72546  24417364.9814   24417373.3144   24417365.154
        44.0004         39.0004
 -13074944.08049 -10182624.77248  21230870.8814   21230879.0034   21230870.026
        54.0004         50.0004
  -1938391.01749  -1498746.91248  21007831.1704   21007840.0274   21007830.733
        55.0004         50.0004
  -3356268.84448  -2604531.61547  22867640.9204   22867649.7794   22867641.832
        48.0004         43.0004
   3700521.29246   2933799.56046  24898571.6304   24898586.6794   24898573.528
        41.0004         36.0004
  -3339078.03148  -2560205.34047  22655780.3554   22655790.9924   22655780.248
        49.0004         44.0004
 15  5  1  1  7  0.0000000  0  9G28G17G07G09G06G30G10G01G03
 -17811799.32048 -13834071.92748  21488289.4814   21488294.7264   21488289.466
        53.0004         48.0004
  -3737612.25048  -2865252.70447  23533845.8964   23533852.0234   23533845.213
        48.0004         43.0004
 -10601972.09048  -8208415.58247  22328296.8474   22328303.5274   22328296.239
        50.0004         45.0004
   -254226.57447   -188711.42046  24417519.3444   24417527.2224   24417518.668
        44.0004         39.0004
 -13092758.47449 -10196506.04648  21227480.7944   21227488.4644   21227480.384
        54.0004         50.0004
  -1885074.03849  -1457201.23548  21017977.6804   21017985.6484   21017977.867
        55.0004         50.0004
  -3450824.97848  -2678211.65347  22849647.0374   22849655.7704   22849647.504
        48.0004         43.0004
   3799727.55546   3011102.93145  24917452.7404   24917465.2574   24917450.934
        40.0004         35.0004
  -3297700.40048  -2527963.01647  22663655.2454   22663665.3474   22663654.724
        49.0004         44.0004
 15  5  1  1  7 30.0000000  0  8G28G17G07G09G06G30G10G03
 -17880855.56748 -13887881.94148  21475149.0844   21475153.5074   21475149.479
        53.0004         48.0004
  -3739349.74647  -2866606.54647  23533515.6664   23533521.3094   23533514.171
        47.0004         43.0004
 -10507654.32848  -8134921.21047  22346244.6324   22346251.0264   22346243.856
        50.0004         45.0004
   -253636.35147   -188251.47646  24417631.8674   24417640.4474   24417632.788
        44.0004         39.0004
 -13110108.53049 -10210025.49848  21224179.0224   21224187.0944   21224178.022
        54.0004         50.0004
  -1831389.06549  -1415368.80248  21028193.3474   21028201.8114   21028192.897
        55.0004         50.0004
  -3545352.02048  -2751869.02847  22831659.0974   22831668.4424   22831659.420
        48.0004         43.0004
  -3255881.26848  -2495376.66547  22671612.3554   22671623.2224   22671613.108
        49.0004         44.0004
 15  5  1  1  8  0.0000000  0  8G28G17G07G09G06G30G10G03
 -17949716.12448 -13941539.47148  21462044.4874   21462049.4174   21462045.091
        53.0004         48.0004
  -3741268.43847  -2868101.62147  23533148.7664   23533155.9644   23533147.633
        47.0004         43.0004
 -10413240.26348  -8061351.80847  22364211.6004   22364218.4884   22364210.958
        50.0004         45.0004
   -253259.99547   -187958.21446  24417703.7834   24417712.3454   24417703.554
        44.0004         40.0004
 -13126993.67749 -10223182.69448  21220965.6484   21220973.5354   21220965.109
        54.0004         50.0004
  -1777337.51949  -1373250.72648  21038478.7924   21038487.3864   21038478.904
        55.0004         50.0004
  -3639845.88048  -2825500.53847  22813677.7664   22813685.6504   22813678.034
        48.0004         43.0004
  -3213619.78148  -2462445.62247  22679654.3654   22679664.1184   22679654.361
        49.0004         44.0004
 15  5  1  1  8 30.0000000  0  8G28G17G07G09G06G30G10G03
 -18018377.50848 -13995041.79748  21448978.8694   21448983.8644   21448979.053
        53.0004         48.0004
  -3743368.01647  -2869737.61847  23532750.5024   23532756.8544   23532750.787
        47.0004         43.0004
 -10318732.24648  -7987709.20547  22382195.6004   22382202.4514   22382194.414
        50.0004         45.0004
   -253095.91947   -187830.37146  24417734.4674   24417742.0944   24417734.242
        44.0004         39.0004
 -13143414.02549 -10235977.69748  21217840.8564   21217849.3914   21217839.968
        54.0004         50.0004
  -1722921.46349  -1330848.61948  21048834.0004   21048842.5154   21048834.191
        55.0004         50.0004
  -3734303.44748  -2899103.77947  22795703.0634   22795711.5724   22795703.186
        48.0004         43.0004
  -3170915.72348  -2429169.72547  22687780.1384   22687791.9874   22687779.583
        49.0004         44.0004
 15  5  1  1  9  0.0000000  0  8G28G17G07G09G06G30G10G03
 -18086839.14848 -14048388.48048  21435950.8114   21435955.6024   21435951.344
        53.0004         48.0004
  -3745652.20647  -2871517.49147  23532315.3584   23532322.7154   23532315.923
        47.0004         43.0004
 -10224135.89948  -7913997.77247  22400196.8814   22400203.9654   22400196.487
        50.0004         45.0004
   -253145.83247   -187869.25346  24417724.3954   24417733.6294   24417724.491
        44.0004         39.0004
 -13159372.94749 -10248413.15348  21214803.8774   21214811.9514   21214803.222
        54.0004         49.0004
  -1668146.29249  -1288166.67948  21059257.1294   21059266.0194   21059257.300
        55.0004         50.0004
  -3828724.66048  -2972678.67947  22777734.7424   22777742.7604   22777735.845
        48.0004         43.0004
  -3127772.20648  -2395551.38447  22695991.5134   22696001.4914   22695990.980
        49.0004         44.0004
 15  5  1  1  9 30.0000000  0  8G28G17G07G09G06G30G10G03
 -18155094.97148 -14101574.78448  21422962.0794   21422967.6154   21422962.373
        53.0004         48.0004
  -3748118.02547  -2873438.87447  23531845.8884   23531851.5914   23531846.016
        47.0004         42.0004
 -10129451.08848  -7840217.40547  22418213.9244   22418220.4024   22418214.438
        49.0004         45.0004
   -253405.48347   -188071.58046  24417675.8554   24417684.7954   24417676.351
        44.0004         39.0004
 -13174867.98149 -10260487.13848  21211855.6894   21211863.6994   21211854.816
        54.0004         50.0004
  -1613011.48549  -1245204.50748  21069749.1294   21069757.6564   21069749.338
        55.0004         50.0004
  -3923103.21948  -3046220.34047  22759775.8114   22759782.8714   22759776.245
        48.0004         43.0004
  -3084186.44448  -2361588.42847  22704285.3174   22704296.5194   22704285.082
        49.0004         44.0004
 15  5  1  1 10  0.0000000  0  8G28G17G07G09G06G30G10G03
 -18223143.90248 -14154599.87848  21410012.6094   21410017.9514   21410013.280
        53.0004         48.0004
  -3750768.16747  -2875503.88847  23531341.5774   23531347.5964   23531341.273
        47.0004         42.0004
 -10034682.78148  -7766371.96747  22436247.2904   22436254.1004   22436247.524
        49.0004         44.0004
   -253875.82047   -188438.06846  24417587.4164   24417594.4364   24417586.228
        44.0004         39.0004
 -13189901.79349 -10272201.72348  21208994.7744   21209002.9414   21208993.897
        54.0004         50.0004
  -1557521.64849  -1201965.69648  21080308.8014   21080316.8684   21080309.084
        55.0004         50.0004
  -4017438.54648  -3119728.32047  22741824.1764   22741831.8134   22741824.829
        48.0004         43.0004
  -3040160.77248  -2327282.71647  22712662.3914   22712673.8104   22712661.584
        49.0004         44.0004
 15  5  1  1 10 30.0000000  0  8G28G17G07G09G06G30G10G03
 -18290981.80748 -14207460.52948  21397103.7684   21397109.1634   21397103.961
        53.0004         48.0004
  -3753602.33647  -2877712.29947  23530801.5364   23530808.7154   23530802.358
        47.0004         43.0004
  -9939832.83748  -7692462.93347  22454297.0934   22454304.6474   22454296.850
        49.0004         45.0004
   -254554.47247   -188966.89646  24417455.0954   24417464.7404   24417456.303
        43.0004         39.0004
 -13204473.91049 -10283556.54948  21206221.6094   21206229.3864   21206220.739
        54.0004         50.0004
  -1501678.31449  -1158451.41648  21090935.1284   21090943.9684   21090934.919
        55.0004         50.0004
  -4111726.38848  -3193199.30847  22723882.2314   22723890.7844   22723882.972
        48.0004         43.0004
  -2995694.48148  -2292633.64747  22721124.7334   22721134.5574   22721123.733
        49.0004         44.0004
 15  5  1  1 11  0.0000000  0  8G28G17G07G09G06G30G10G03
 -18358607.16848 -14260155.57048  21384234.8294   21384239.8824   21384235.391
        53.0004         48.0004
  -3756622.52847  -2880065.68447  23530227.1304   23530233.7864   23530227.986
        47.0004         43.0004
  -9844905.46948  -7618493.57547  22472362.3244   22472367.7754   22472361.536
        49.0004         45.0004
   -255441.95147   -189658.42846  24417287.2804   24417295.2084   24417287.089
        44.0004         39.0004
 -13218586.64649 -10294553.41448  21203535.9644   21203544.0974   21203535.340
        54.0004         50.0004
  -1445485.69449  -1114664.97648  21101628.3094   21101636.6804   21101628.471
        55.0004         50.0004
  -4205965.37848  -3266632.21647  22705948.1054   22705956.9574   22705949.875
        48.0004         44.0004
  -2950789.56048  -2257642.77747  22729669.1214   22729680.3744   22729667.986
        49.0004         44.0004
 15  5  1  1 11 30.0000000  0  8G28G17G07G09G06G30G10G03
 -18426015.27248 -14312681.32748  21371407.5894   21371412.5024   21371408.083
        53.0004         48.0004
  -3759827.28047  -2882562.86347  23529618.1464   23529624.1884   23529618.834
        47.0004         43.0004
  -9749902.26948  -7544465.12047  22490439.0534   22490447.4614   22490439.479
        49.0004         44.0004
   -256535.59547   -190510.62546  24417080.8264   24417089.4314   24417081.506
        44.0004         40.0004
 -13232239.17549 -10305191.68448  21200937.6474   21200945.7984   21200936.764
        54.0004         50.0004
  -1388944.87249  -1070607.20948  21112387.6624   21112396.3204   21112387.814
        55.0004         50.0004
  -4300151.22748  -3340023.73447  22688024.7274   22688034.0784   22688025.323
        48.0004         43.0004
  -2905444.82148  -2222309.21647  22738298.3164   22738309.5954   22738298.127
        49.0004         44.0004
 15  5  1  1 12  0.0000000  0  8G28G17G07G09G06G30G10G03
 -18493207.26848 -14365038.68948  21358621.2074   21358626.5444   21358621.809
        53.0004         48.0004
  -3763221.51947  -2885207.68647  23528971.8034   23528978.4984   23528970.721
        47.0004         42.0004
  -9654830.38948  -7470383.16347  22508531.7704   22508537.7504   22508532.185
        49.0004         44.0004
   -257838.48547   -191525.87746  24416833.0904   24416841.0344   24416832.629
        44.0004         39.0004
 -13245436.52649 -10315475.26848  21198426.7374   21198434.0394   21198426.324
        54.0004         50.0004
  -1332062.79749  -1026283.53148  21123212.0334   21123220.3934   21123212.174
        55.0004         50.0004
  -4394285.25948  -3413374.85947  22670112.2024   22670119.8114   22670112.517
        48.0004         43.0004
  -2859665.09048  -2186636.68847  22747009.4994   22747019.8664   22747009.423
        49.0004         44.0004
 15  5  1  1 12 30.0000000  0  8G28G17G07G09G06G30G10G03
 -18560172.90248 -14417219.66648  21345878.1944   21345883.0164   21345878.776
        53.0004         49.0004
  -3766798.49747  -2887994.91447  23528291.8764   23528296.2324   23528290.711
        47.0004         42.0004
  -9559685.23548  -7396244.06747  22526637.5554   22526643.8024   22526636.121
        49.0004         44.0004
   -259342.17347   -192697.59046  24416545.1904   24416554.3854   24416546.851
        44.0004         39.0004
 -13258172.21649 -10325399.11048  21196002.6534   21196010.9474   21196002.407
        54.0004         50.0004
  -1274834.86749   -981690.35448  21134102.2334   21134110.6944   21134102.311
        55.0004         50.0004
  -4488357.33948  -3486677.70347  22652211.0204   22652218.8754   22652210.598
        48.0004         44.0004
  -2813443.48248  -2150619.83447  22755806.5524   22755815.6014   22755805.307
        49.0004         44.0004
 15  5  1  1 13  0.0000000  0  8G28G17G07G09G06G30G10G03
 -18626914.60148 -14469226.14948  21333177.9604   21333182.8854   21333177.930
        53.0004         49.0004
  -3770564.40747  -2890929.38547  23527574.1454   23527580.8784   23527574.550
        47.0004         42.0004
  -9464475.22948  -7322054.47347  22544755.3414   22544761.8684   22544754.873
        49.0004         44.0004
   -261051.06047   -194029.20446  24416219.8924   24416228.1764   24416219.054
        43.0004         38.0004
 -13270452.54049 -10334968.13348  21193666.1304   21193674.0674   21193665.675
        54.0004         50.0004
  -1217269.28549   -936834.07848  21145056.4464   21145065.0214   21145056.351
        55.0004         50.0004
  -4582369.85248  -3559934.14747  22634321.0844   22634328.2864   22634320.628
        48.0004         43.0004
  -2766786.04248  -2114263.36847  22764684.6704   22764694.3244   22764683.708
        48.0004         44.0004
 15  5  1  1 13 30.0000000  0  8G28G17G07G09G06G30G10G03
 -18693426.91748 -14521053.89048  21320520.8044   21320525.6144   21320521.013
        53.0004         49.0004
  -3774517.27547  -2894009.50747  23526822.0524   23526828.6454   23526822.038
        47.0004         43.0004
  -9369201.26348  -7247815.04547  22562884.8934   22562891.8234   22562884.710
        49.0004         44.0004
   -262961.62247   -195517.96446  24415857.0634   24415865.0204   24415855.616
        43.0004         38.0004
 -13282276.08949 -10344181.22348  21191415.7144   21191423.8914   21191415.180
        54.0004         50.0004
  -1159366.50749   -891715.04648  21156074.8624   21156083.3674   21156074.718
        55.0004         50.0004
  -4676317.53948  -3633140.08347  22616443.6314   22616451.3764   22616443.360
        48.0004         44.0004
  -2719691.05048  -2077565.97747  22773646.6364   22773657.0434   22773645.626
        48.0004         44.0004
 15  5  1  1 14  0.0000000  0  9G28G17G07G02G09G06G30G10G03
 -18759721.31448 -14572711.82548  21307905.4574   21307910.2514   21307905.174
        53.0004         49.0004
  -3778671.56147  -2897246.58747  23526032.0134   23526038.5084   23526031.486
        47.0004         43.0004
  -9273880.09748  -7173538.82547  22581023.9694   22581030.1134   22581022.784
        49.0004         44.0004
   -556230.47348   -397571.09346  23934030.7054   23934038.5914   23934032.446
        49.0004         39.0004
   -265086.89647   -197174.02046  24415452.8824   24415460.5214   24415453.023
        43.0004         39.0004
 -13293657.85849 -10353050.06948  21189249.9224   21189258.0254   21189249.293
        54.0004         50.0004
  -1101143.37349   -846346.38948  21167154.4364   21167162.9234   21167154.812
        55.0004         50.0004
  -4770211.48248  -3706304.11847  22598575.4024   22598583.9444   22598576.636
        48.0004         44.0004
  -2672173.18748  -2040539.04647  22782688.5084   22782699.1494   22782688.532
        49.0004         44.0004
 15  5  1  1 14 30.0000000  0  9G28G17G07G02G09G06G30G10G03
 -18825775.36748 -14624182.47248  21295335.4774   21295340.7674   21295335.631
        53.0004         49.0004
  -3783008.90648  -2900626.30447  23525206.5284   23525211.6504   23525206.571
        48.0004         43.0004
  -9178495.63748  -7099213.29347  22599174.8724   22599181.7074   22599174.778
        48.0004         44.0004
   -613676.51247   -442334.17846  23923098.6424   23923107.3034   23923098.243
        45.0004         39.0004
   -267406.75647   -198981.70946  24415012.4534   24415019.6044   24415012.421
        44.0004         39.0004
 -13304579.75349 -10361560.57648  21187171.3244   21187179.6784   21187170.382
        54.0004         50.0004
  -1042583.62449   -800715.44148  21178297.8684   21178306.7834   21178297.580
        55.0004         50.0004
  -4864029.91448  -3779409.33847  22580722.5484   22580729.5714   22580723.170
        48.0004         44.0004
  -2624214.06148  -2003168.31147  22791815.6134   22791825.3764   22791814.198
        48.0004         44.0004
 15  5  1  1 15  0.0000000  0  9G28G17G07G02G09G06G30G10G03
 -18891588.83648 -14675465.66248  21282811.8774   21282816.6984   21282812.675
        53.0004         49.0004
  -3787532.61247  -2904151.25247  23524346.0384   23524350.7244   23524345.428
        47.0004         43.0004
  -9083053.86348  -7024843.08847  22617336.8054   22617343.5294   22617335.946
        49.0004         44.0004
   -670785.55347   -486834.64046  23912230.6124   23912238.0674   23912230.856
        44.0004         39.0004
   -269922.84747   -200942.31846  24414532.1784   24414540.6904   24414532.449
        44.0004         39.0004
 -13315045.54749 -10369715.67848  21185179.7654   21185187.5564   21185178.653
        54.0004         50.0004
   -983692.89649   -754826.58248  21189504.3684   21189513.0184   21189504.453
        55.0004         50.0004
  -4957772.76948  -3852455.65347  22562883.5214   22562892.1014   22562884.184
        48.0004         44.0004
  -2575817.15748  -1965456.41647  22801024.4234   22801035.4004   22801022.848
        48.0004         44.0004
 15  5  1  1 15 30.0000000  0  9G28G17G07G02G09G06G30G10G03
 -18957161.66048 -14726561.33948  21270333.5694   21270338.1114   21270334.091
        53.0004         49.0004
  -3792245.86347  -2907823.88047  23523448.8914   23523454.8894   23523447.383
        47.0004         43.0004
  -8987560.14648  -6950432.42147  22635509.6404   22635516.0044   22635509.400
        49.0004         44.0004
   -727559.72947   -531074.17646  23901427.7844   23901434.7064   23901428.992
        44.0004         40.0004
   -272636.66847   -203056.98446  24414015.9484   24414024.6824   24414015.201
        44.0004         39.0004
 -13325058.94149 -10377518.26448  21183274.5734   21183282.4444   21183273.643
        54.0004         50.0004
   -924476.70749   -708684.12848  21200772.8564   21200781.6604   21200772.745
        54.0004         50.0004
  -5051439.94648  -3925443.00747  22545059.5074   22545067.6014   22545060.117
        49.0004         44.0004
  -2526985.82448  -1927406.00447  22810317.2744   22810328.3424   22810316.067
        48.0004         44.0004
 15  5  1  1 16  0.0000000  0  9G28G17G07G02G09G06G30G10G03
 -19022488.61848 -14777465.43248  21257901.9954   21257906.9114   21257902.724
        53.0004         49.0004
  -3797146.84248  -2911642.80047  23522516.2894   23522521.4734   23522515.879
        48.0004         43.0004
  -8892015.32448  -6875981.91947  22653690.3994   22653697.7074   22653690.517
        48.0004         44.0004
   -783996.14647   -575050.51846  23890687.4724   23890695.7384   23890687.283
        45.0004         40.0004
   -275544.93147   -205323.14346  24413462.8284   24413471.5164   24413462.899
        44.0004         39.0004
 -13334618.71949 -10384967.38448  21181454.9524   21181463.0624   21181454.107
        54.0004         50.0004
   -864935.60749   -662288.48748  21212103.1914   21212112.3494   21212103.058
        54.0004         50.0004
  -5145026.41848  -3998367.46847  22527249.8314   22527259.0754   22527250.781
        49.0004         44.0004
  -2477718.57248  -1889015.93647  22819691.8824   22819702.9684   22819690.997
        48.0004         44.0004
 15  5  1  1 16 30.0000000  0  9G28G17G07G02G09G06G30G10G03
 -19087567.61348 -14828176.30648  21245518.3484   21245522.5934   21245519.125
        53.0004         49.0004
  -3802236.91947  -2915609.06747  23521547.0044   23521553.4214   23521546.173
        47.0004         43.0004
  -8796423.27648  -6801494.60747  22671880.9094   22671887.4874   22671881.149
        48.0004         44.0004
   -840094.78447   -618763.66946  23880012.9814   23880020.1504   23880013.418
        45.0004         41.0004
   -278647.15347   -207740.49746  24412872.3754   24412881.3094   24412871.625
        43.0004         39.0004
 -13343726.62549 -10392064.40048  21179721.8644   21179729.6284   21179721.630
        54.0004         50.0004
   -805073.15149   -615642.44148  21223494.6204   21223503.3474   21223494.595
        54.0004         50.0004
  -5238529.72748  -4071227.12247  22509456.7914   22509465.4224   22509458.156
        49.0004         44.0004
  -2428016.85048  -1850287.30847  22829150.3484   22829161.2134   22829150.555
        49.0004         44.0004
 15  5  1  1 17  0.0000000  0  9G28G17G07G02G09G06G30G10G03
 -19152399.70848 -14878694.78748  21233180.4614   21233185.1824   21233181.043
        53.0004         49.0004
  -3807520.90947  -2919726.44047  23520542.1184   23520547.3224   23520542.918
        47.0004         43.0004
  -8700790.70448  -6726975.73347  22690078.3254   22690086.1494   22690077.818
        48.0004         44.0004
   -895859.38547   -662216.50146  23869399.6794   23869408.6734   23869400.253
        45.0004         41.0004
   -281946.45447   -210311.41546  24412244.0354   24412252.7754   24412243.619
        43.0004         39.0004
 -13352388.00449 -10398813.47548  21178073.7004   21178081.7494   21178072.713
        54.0004         50.0004
   -744896.46249   -568751.53348  21234945.8734   21234954.6344   21234945.958
        54.0004         50.0004
  -5331951.29448  -4144023.08447  22491678.7054   22491687.4844   22491680.592
        49.0004         44.0004
  -2377885.65148  -1811224.02447  22838690.5304   22838699.8264   22838688.441
        49.0004         44.0004
 15  5  1  1 17 30.0000000  0  9G28G17G07G02G09G06G30G10G03
 -19216979.22048 -14929016.44648  21220891.8524   21220896.6924   21220892.399
        53.0004         49.0004
  -3812996.50648  -2923993.12147  23519499.3364   23519506.7244   23519499.251
        48.0004         43.0004
  -8605118.26048  -6652425.81147  22708285.2944   22708292.5544   22708284.821
        48.0004         44.0004
   -951286.92447   -705406.69146  23858853.1114   23858861.6454   23858853.151
        46.0004         41.0004
   -285439.14947   -213033.00746  24411580.1054   24411589.1494   24411579.883
        43.0004         39.0004
 -13360601.44849 -10405213.51748  21176510.9734   21176518.6334   21176510.135
        54.0004         50.0004
   -684405.93249   -521616.08248  21246456.9014   21246465.5834   21246457.279
        54.0004         50.0004
  -5425285.88648  -4216751.27947  22473918.6164   22473927.1824   22473919.301
        49.0004         44.0004
  -2327323.30248  -1771824.79447  22848311.7334   22848320.9314   22848310.862
        48.0004         44.0004
 15  5  1  1 18  0.0000000  0  9G28G17G07G02G09G06G30G10G03
 -19281300.96048 -14979137.23848  21208652.0584   21208656.4904   21208652.231
        53.0004         49.0004
  -3818661.93748  -2928407.71647  23518421.9484   23518428.6354   23518420.640
        48.0004         43.0004
  -8509406.47548  -6577845.21147  22726498.7794   22726504.6934   22726498.208
        48.0004         43.0004
  -1006374.92247   -748332.27046  23848370.4154   23848376.7344   23848370.104
        46.0004         41.0004
   -289121.86047   -215902.64046  24410879.5834   24410888.7374   24410879.674
        43.0004         39.0004
 -13368365.81749 -10411263.63548  21175033.0534   21175041.2744   21175032.509
        55.0004         50.0004
   -623602.10649   -474236.50348  21258027.0514   21258036.4184   21258027.109
        54.0004         50.0004
  -5518528.44548  -4289407.74647  22456174.7814   22456183.9694   22456175.031
        49.0004         44.0004
  -2276328.35348  -1732088.45247  22858015.5814   22858025.2994   22858014.698
        48.0004         44.0004
 15  5  1  1 18 30.0000000  0  9G28G17G07G02G09G06G30G10G03
 -19345366.12848 -15029058.10848  21196460.8284   21196465.3674   21196461.230
        53.0004         49.0004
  -3824521.71248  -2932973.75847  23517307.9204   23517312.5454   23517306.808
        48.0004         43.0004
  -8413662.81748  -6503239.75247  22744717.9704   22744724.5474   22744718.385
        48.0004         43.0004
  -1061126.87047   -790995.97146  23837951.1074   23837959.4654   23837951.257
        46.0004         41.0004
   -292997.66947   -218922.75546  24410140.3164   24410150.2634   24410140.352
        43.0004         38.0004
 -13375686.47149 -10416968.00348  21173640.1624   21173647.5494   21173639.440
        54.0004         50.0004
   -562492.14949   -426618.37948  21269656.7274   21269665.1684   21269657.032
        54.0004         50.0004
  -5611680.07348  -4361993.36647  22438448.6144   22438456.9174   22438448.879
        49.0004         45.0004
  -2224905.90148  -1692019.00347  22867801.0744   22867810.7924   22867799.640
        48.0004         44.0004
 15  5  1  1 19  0.0000000  0  9G28G17G07G02G09G06G30G10G03
 -19409169.93448 -15078775.31948  21184319.2964   21184324.3024   21184319.467
        53.0004         49.0004
  -3830574.11248  -2937689.89947  23516155.3094   23516160.4184   23516154.636
        48.0004         43.0004
  -8317887.49948  -6428609.64347  22762943.3314   22762950.5594   22762943.503
        48.0004         44.0004
  -1115539.85747   -833395.54847  23827597.5744   23827604.9754   23827596.739
        46.0004         42.0004
   -297062.91447   -222090.45246  24409367.9704   24409376.1714   24409366.187
        43.0004         38.0004
 -13382562.19949 -10422325.67248  21172331.4544   21172339.6554   21172330.611
        54.0004         50.0004
   -501076.52149   -378762.06348  21281343.2734   21281352.0024   21281343.156
        54.0004         50.0004
  -5704735.57548  -4434504.07447  22420740.8504   22420749.3964   22420741.742
        49.0004         45.0004
  -2173054.31948  -1651615.17247  22877667.7344   22877678.9424   22877666.576
        48.0004         44.0004
 15  5  1  1 19 30.0000000  0  9G28G17G07G02G09G06G30G10G03
 -19472709.58548 -15128286.70548  21172227.7484   21172232.5394   21172228.423
        53.0004         49.0004
  -3836820.43847  -2942557.14447  23514965.4554   23514971.2994   23514964.581
        47.0004         43.0004
  -8222084.11248  -6353957.67647  22781173.9114   22781180.9024   22781173.688
        48.0004         44.0004
  -1169614.29647   -875531.35847  23817306.5404   23817314.1874   23817307.807
        46.0004         42.0004
   -301317.24447   -225405.51546  24408558.4244   24408566.8694   24408556.728
        43.0004         39.0004
 -13388994.95849 -10427338.16848  21171107.9274   21171115.0194   21171107.254
        55.0004         50.0004
   -439358.90949   -330670.43748  21293088.1584   21293096.6934   21293087.859
        54.0004         50.0004
  -5797692.65348  -4506938.09447  22403051.7704   22403060.4074   22403052.320
        49.0004         45.0004
  -2120775.33048  -1610878.31147  22887617.3984   22887626.0894   22887616.951
        48.0004         44.0004
 15  5  1  1 20  0.0000000  0  9G28G17G07G02G09G06G30G10G03
 -19535979.66748 -15177588.03248  21160187.8484   21160192.7324   21160188.304
        53.0004         49.0004
  -3843258.16148  -2947573.52547  23513741.7174   23513747.8264   23513741.290
        48.0004         43.0004
  -8126252.81348  -6279283.92347  22799409.5344   22799416.4224   22799409.380
        48.0004         43.0004
  -1223347.07947   -917400.90747  23807081.1734   23807088.1444   23807082.129
        47.0004         42.0004
   -305756.89147   -228864.96446  24407714.2984   24407721.3594   24407714.326
        43.0004         39.0004
 -13394983.23049 -10432004.31548  21169968.0434   21169975.6524   21169967.388
        55.0004         50.0004
   -377339.50249   -282343.65348  21304889.8544   21304898.7714   21304889.972
        54.0004         50.0004
  -5890545.76648  -4579291.10547  22385383.2844   22385390.3614   22385383.269
        49.0004         44.0004
  -2068067.12148  -1569806.97447  22897645.5814   22897656.8034   22897645.593
        48.0004         44.0004
 15  5  1  1 20 30.0000000  0  9G28G17G07G02G09G06G30G10G03
 -19598983.18548 -15226681.64648  21148198.8724   21148203.7494   21148199.334
        53.0004         49.0004
  -3849893.72348  -2952744.08347  23512478.6444   23512484.9084   23512478.329
        48.0004         43.0004
  -8030402.65248  -6204595.48747  22817650.1844   22817656.8594   22817649.406
        48.0004         43.0004
  -1276743.67247   -959008.45747  23796920.2584   23796927.8774   23796920.599
        46.0004         42.0004
   -310386.24447   -232472.25146  24406833.9244   24406841.9064   24406833.698
        43.0004         39.0004
 -13400534.19549 -10436329.69748  21168911.6564   21168919.6854   21168910.976
        55.0004         50.0004
   -315027.16549   -233788.60248  21316747.8724   21316756.4244   21316747.731
        54.0004         50.0004
  -5983298.00748  -4651565.51347  22367732.7334   22367740.8154   22367733.864
        49.0004         45.0004
  -2014936.50048  -1528406.49947  22907755.7204   22907767.4304   22907754.908
        48.0004         44.0004
 15  5  1  1 21  0.0000000  0  9G28G17G07G02G09G06G30G10G03
 -19661709.38549 -15275559.16248  21136262.5774   21136267.3904   21136262.453
        54.0004         49.0004
  -3856719.96847  -2958063.20747  23511179.3724   23511186.0384   23511178.634
        47.0004         43.0004
  -7934528.69448  -6129888.53147  22835894.6024   22835900.5834   22835894.389
        48.0004         44.0004
  -1329795.76747  -1000347.59947  23786824.2584   23786833.0394   23786825.419
        47.0004         42.0004
   -315196.32147   -236220.35546  24405916.6464   24405924.2764   24405917.783
        43.0004         39.0004
 -13405641.15849 -10440309.11848  21167939.9664   21167947.8744   21167939.363
        55.0004         50.0004
   -252416.83949   -185001.36048  21328661.6684   21328670.3604   21328661.585
        54.0004         50.0004
  -6075938.50948  -4723752.85047  22350104.8454   22350111.7094   22350104.401
        49.0004         45.0004
  -1961376.52148  -1486671.44747  22917949.0674   22917958.7194   22917948.262
        48.0004         44.0004
 15  5  1  1 21 30.0000000  0  9G28G17G07G02G09G06G30G10G03
 -19724161.70949 -15324223.26748  21124378.2574   21124382.6514   21124378.586
        54.0004         49.0004
  -3863743.08248  -2963535.75247  23509843.3884   23509849.8114   23509843.211
        48.0004         43.0004
  -7838640.23548  -6055170.25047  22854141.0864   22854147.5354   22854140.681
        48.0004         43.0004
  -1382509.28847  -1041422.92647  23776793.6984   23776799.5514   23776794.037
        47.0004         42.0004
   -320192.30147   -240113.34246  24404965.2544   24404976.5514   24404964.904
        43.0004         39.0004
 -13410311.74749 -10443948.50048  21167050.6694   21167058.6724   21167050.356
        55.0004         50.0004
   -189517.82449   -135989.16348  21340631.2994   21340640.2214   21340631.554
        54.0004         50.0004
  -6168470.58248  -4795855.69247  22332495.5114   22332503.4764   22332495.887
        49.0004         45.0004
  -1907394.49348  -1444607.52447  22928221.1484   22928231.3504   22928220.591
        48.0004         44.0004
 15  5  1  1 22  0.0000000  0  9G28G17G07G02G09G06G30G10G03
 -19786332.95449 -15372668.35648  21112546.9274   21112551.7894   21112547.813
        54.0004         49.0004
  -3870959.47347  -2969158.90847  23508469.3884   23508474.0314   23508470.529
        47.0004         43.0004
  -7742735.28848  -5980439.12747  22872391.3874   22872398.8654   22872390.556
        48.0004         43.0004
  -1434879.72347  -1082230.87647  23766827.5224   23766835.5264   23766827.515
        47.0004         42.0004
   -325368.65947   -244146.88846  24403981.6544   24403990.1924   24403980.699
        43.0004         38.0004
 -13414543.01649 -10447245.55848  21166245.9994   21166253.4874   21166245.328
        55.0004         50.0004
   -126328.81449    -86750.99248  21352655.8034   21352664.3754   21352656.069
        54.0004         50.0004
  -6260887.22348  -4867868.57547  22314908.2534   22314916.2214   22314909.651
        49.0004         45.0004
  -1852987.15648  -1402212.20647  22938574.5554   22938584.6594   22938574.474
        48.0004         44.0004
 15  5  1  1 22 30.0000000  0  9G28G17G07G02G09G06G30G10G03
 -19848223.95149 -15420895.07048  21100769.9014   21100774.7784   21100770.353
        54.0004         49.0004
  -3878373.56947  -2974936.10547  23507058.6094   23507065.6494   23507059.073
        47.0004         43.0004
  -7646821.06248  -5905700.76447  22890642.7154   22890650.2424   22890641.785
        48.0004         43.0004
  -1486910.67847  -1122774.30947  23756926.2824   23756932.1994   23756926.866
        47.0004         42.0004
   -330728.19547   -248323.14646  24402962.0244   24402969.4264   24402962.461
        43.0004         39.0004
 -13418340.28249 -10450204.42948  21165523.1474   21165530.9514   21165522.321
        55.0004         50.0004
    -62856.78349    -37292.28548  21364733.8514   21364743.0034   21364733.827
        54.0004         50.0004
  -6353189.47448  -4939792.33447  22297344.0184   22297351.5934   22297344.992
        49.0004         45.0004
  -1798159.51048  -1359489.37147  22949007.2134   22949019.0894   22949006.034
        48.0004         44.0004
 15  5  1  1 23  0.0000000  0  9G28G17G07G02G09G06G30G10G03
 -19909828.89749 -15468898.88648  21089046.6414   21089051.6784   21089046.832
        54.0004         49.0004
  -3885982.81847  -2980865.39347  23505611.7634   23505617.0174   23505611.915
        47.0004         43.0004
  -7550897.57948  -5830955.20547  22908895.9284   22908903.8064   22908896.043
        48.0004         43.0004
  -1538598.85247  -1163050.62347  23747090.0094   23747097.6894   23747090.870
        47.0004         43.0004
   -336266.64847   -252638.86746  24401908.7494   24401916.9484   24401908.338
        43.0004         39.0004
 -13421701.88449 -10452823.82548  21164883.3394   21164891.3344   21164882.784
        55.0004         50.0004
       898.36949     12387.03348  21376866.2464   21376874.9844   21376866.915
        54.0004         50.0004
  -6445371.28548  -5011622.24447  22279803.4114   22279811.1844   22279802.887
        49.0004         45.0004
  -1742909.58548  -1316437.50047  22959521.7414   22959532.6644   22959520.515
        48.0004         44.0004
 15  5  1  1 23 30.0000000  0  9G28G17G07G02G09G06G30G10G03
 -19971143.43449 -15516676.40048  21077378.7884   21077383.7894   21077379.243
        54.0004         49.0004
  -3893785.82047  -2986945.63847  23504126.4614   23504132.4204   23504126.088
        47.0004         42.0004
  -7454966.32848  -5756203.59447  22927151.6334   22927159.7854   22927152.315
        48.0004         43.0004
  -1589942.54747  -1203058.52047  23737318.9214   23737326.9164   23737319.919
        47.0004         42.0004
   -341981.38547   -257091.93046  24400820.5704   24400827.9114   24400819.152
        43.0004         38.0004
 -13424627.80349 -10455103.71548  21164327.0704   21164334.6044   21164326.596
        55.0004         50.0004
     64935.03849     62285.72248  21389052.0084   21389060.9834   21389052.198
        54.0004         49.0004
  -6537428.34448  -5083354.94347  22262284.9024   22262291.7584   22262285.484
        50.0004         45.0004
  -1687237.10548  -1273056.33247  22970115.3844   22970126.2084   22970114.754
        48.0004         44.0004
 15  5  1  1 24  0.0000000  0  9G28G17G07G02G09G06G30G10G03
 -20032167.94449 -15564227.92748  21065766.1494   21065771.2304   21065766.768
        54.0004         49.0004
  -3901786.29547  -2993179.75547  23502604.9784   23502610.3364   23502604.688
        47.0004         43.0004
  -7359033.27648  -5681450.55947  22945407.8234   22945414.5884   22945407.739
        48.0004         43.0004
  -1640944.67147  -1242800.27247  23727614.7414   23727620.8844   23727614.317
        47.0004         42.0004
   -347874.37847   -261683.87746  24399698.4514   24399708.1514   24399698.270
        43.0004         39.0004
 -13427122.64449 -10457047.71048  21163851.4244   21163859.6024   21163850.510
        55.0004         50.0004
    129247.04149    112398.95748  21401290.5884   21401298.5294   21401289.866
        54.0004         49.0004
  -6629361.01348  -5154990.71847  22244790.3204   22244798.7604   22244790.822
        50.0004         45.0004
  -1631146.32148  -1229349.22647  22980790.0884   22980799.9924   22980789.485
        48.0004         44.0004
 15  5  1  1 24 30.0000000  0  9G28G17G07G02G09G06G30G10G03
 -20092898.05849 -15611550.05848  21054209.5264   21054214.1534   21054209.446
        54.0004         49.0004
  -3909982.87547  -2999566.70247  23501043.9744   23501049.9104   23501043.748
        47.0004         43.0004
  -7263099.40148  -5606696.91147  22963662.9584   22963670.0884   22963663.242
        48.0004         43.0004
  -1691603.34747  -1282274.37346  23717974.6604   23717979.7584   23717975.162
        46.0004         41.0004
   -353942.72447   -266412.46746  24398544.0564   24398552.2434   24398544.762
        43.0004         39.0004
 -13429186.21649 -10458655.64648  21163459.3924   21163466.9524   21163458.275
        55.0004         50.0004
    193833.01549    162725.66848  21413580.9484   21413589.2194   21413581.210
        54.0004         49.0004
  -6721164.80348  -5226526.07247  22227320.2464   22227328.2654   22227320.177
        49.0004         45.0004
  -1574636.70648  -1185315.76447  22991542.5594   22991553.2454   22991541.420
        48.0004         43.0004
 15  5  1  1 25  0.0000000  0  9G28G17G07G02G09G06G30G10G03
 -20153330.54449 -15658640.26848  21042709.6564   21042714.2324   21042710.222
        54.0004         49.0004
  -3918376.32647  -3006107.05347  23499446.4554   23499451.7534   23499446.740
        47.0004         42.0004
  -7167167.75648  -5531944.99547  22981919.1344   22981925.5814   22981917.034
        48.0004         43.0004
  -1741918.55047  -1321480.84347  23708398.5614   23708407.8884   23708399.351
        46.0004         42.0004
   -360185.27847   -271276.81746  24397357.3294   24397365.0594   24397355.613
        43.0004         39.0004
 -13430819.98549 -10459928.68648  21163148.3274   21163156.0464   21163147.806
        55.0004         50.0004
    258689.92049    213263.49448  21425922.6424   21425931.0914   21425922.949
        54.0004         49.0004
  -6812836.66748  -5297958.61847  22209875.3234   22209883.6404   22209876.290
        50.0004         45.0004
  -1517709.47648  -1140956.88947  23002375.4404   23002386.1564   23002374.369
        48.0004         44.0004
 15  5  1  1 25 30.0000000  0  9G28G17G07G02G09G06G30G10G03
 -20213463.26449 -15705496.89548  21031266.9064   21031271.8624   21031266.783
        54.0004         49.0004
  -3926966.82047  -3012800.93247  23497812.2414   23497817.8254   23497812.182
        47.0004         43.0004
  -7071241.60148  -5457197.34947  23000173.0594   23000180.0634   23000172.647
        48.0004         43.0004
  -1791890.12947  -1360419.56746  23698889.1654   23698895.5754   23698891.133
        46.0004         41.0004
   -366600.98147   -276276.08746  24396135.1784   24396143.6604   24396133.999
        44.0004         39.0004
 -13432025.69449 -10460868.16148  21162918.8024   21162926.5724   21162917.512
        55.0004         50.0004
    323814.48649    264009.89648  21438315.0924   21438323.5534   21438315.236
        54.0004         49.0004
  -6904374.09748  -5369286.40447  22192456.6914   22192464.6404   22192456.912
        50.0004         45.0004
  -1460366.03148  -1096273.69147  23013287.6224   23013298.4324   23013286.730
        48.0004         44.0004
 15  5  1  1 26  0.0000000  0  9G28G17G07G02G09G06G30G10G03
 -20273292.94149 -15752117.37548  21019881.4054   21019886.0484   21019882.133
        54.0004         49.0004
  -3935754.44948  -3019648.43447  23496140.6994   23496146.4244   23496139.400
        48.0004         43.0004
  -6975323.22348  -5382455.76547  23018424.7464   23018431.6634   23018424.945
        48.0004         43.0004
  -1841517.51947  -1399090.05446  23689446.4064   23689451.7894   23689445.497
        46.0004         41.0004
   -373188.25347   -281409.04846  24394880.5484   24394890.6954   24394880.894
        44.0004         39.0004
 -13432804.46249 -10461474.95448  21162770.3864   21162778.2034   21162769.458
        55.0004         50.0004
    389204.08649    314962.81848  21450758.3354   21450767.1594   21450757.886
        54.0004         49.0004
  -6995773.71248  -5440506.82347  22175063.4084   22175071.4464   22175065.106
        50.0004         45.0004
  -1402607.21348  -1051266.82247  23024278.4194   23024290.2734   23024278.352
        48.0004         43.0004
 15  5  1  1 26 30.0000000  0  9G28G17G07G02G09G06G30G10G03
 -20332814.91049 -15798498.08948  21008554.8224   21008559.9834   21008554.942
        54.0004         49.0004
  -3944737.92348  -3026648.53747  23494429.4554   23494435.9604   23494430.979
        48.0004         43.0004
  -6879413.96548  -5307721.28547  23036676.0434   23036683.4134   23036675.855
        48.0004         43.0004
  -1890799.12847  -1437491.12547  23680067.0894   23680075.1394   23680067.843
        46.0004         42.0004
   -379944.20047   -286673.44846  24393597.0624   24393605.2444   24393596.611
        44.0004         39.0004
 -13433156.18749 -10461748.98648  21162703.5764   21162711.3014   21162702.877
        54.0004         50.0004
    454857.27649    366121.13648  21463252.0774   21463260.5394   21463252.285
        54.0004         49.0004
  -7087030.88048  -5511616.22647  22157697.8294   22157706.0894   22157698.523
        50.0004         45.0004
  -1344432.62948  -1005935.96747  23035349.1754   23035359.3434   23035348.649
        48.0004         44.0004
 15  5  1  1 27  0.0000000  0  9G28G17G07G02G09G06G30G10G03
 -20392029.16849 -15844639.02348  20997286.6894   20997291.4844   20997286.732
        54.0004         49.0004
  -3953920.29647  -3033803.61847  23492682.8644   23492689.0454   23492682.161
        47.0004         43.0004
  -6783519.15248  -5232998.05847  23054925.2064   23054931.5134   23054924.576
        48.0004         43.0004
  -1939737.55547  -1475624.76346  23670755.3244   23670762.0264   23670754.645
        46.0004         41.0004
   -386870.16347   -292070.32246  24392279.0994   24392287.0414   24392279.338
        45.0004         40.0004
 -13433085.15849 -10461693.60648  21162716.8344   21162724.4964   21162716.551
        55.0004         50.0004
    520768.27548    417480.33848  21475794.1864   21475802.9544   21475794.170
        53.0004         49.0004
  -7178145.58248  -5582614.64247  22140359.6844   22140367.4774   22140360.037
        50.0004         45.0004
  -1285846.22648   -960284.20847  23046498.4074   23046508.6504   23046496.817
        48.0004         43.0004
 15  5  1  1 27 30.0000000  0  9G28G17G07G02G09G06G30G10G03
 -20450930.98849 -15890536.50848  20986078.2574   20986082.3004   20986078.694
        54.0004         49.0004
  -3963300.49647  -3041112.85847  23490898.6494   23490903.9884   23490897.936
        47.0004         43.0004
  -6687640.04248  -5158287.07747  23073169.9304   23073176.8654   23073168.820
        48.0004         43.0004
  -1988331.06447  -1513489.63046  23661508.2084   23661515.3654   23661507.506
        46.0004         41.0004
   -393963.22047   -297597.39946  24390928.8754   24390937.8104   24390927.470
        44.0004         39.0004
 -13432591.13849 -10461308.61148  21162811.1044   21162818.8974   21162810.069
        55.0004         50.0004
    586935.92248    469039.52948  21488385.8104   21488394.2074   21488386.090
        53.0004         49.0004
  -7269113.34848  -5653498.52647  22123048.8114   22123057.4154   22123048.781
        50.0004         45.0004
  -1226847.42948   -914311.14347  23057724.6994   23057735.4664   23057723.876
        48.0004         44.0004
 15  5  1  1 28  0.0000000  0  9G28G17G07G02G09G06G30G10G03
 -20509517.53549 -15936188.32748  20974929.6524   20974933.8834   20974930.175
        54.0004         49.0004
  -3972878.19447  -3048575.98747  23489075.2024   23489079.9774   23489075.249
        47.0004         43.0004
  -6591779.38248  -5083590.48147  23091410.9694   23091416.5254   23091411.024
        48.0004         43.0004
  -2036578.89447  -1551085.17146  23652326.6404   23652333.4514   23652326.329
        46.0004         41.0004
   -401221.99347   -303253.59346  24389546.0344   24389556.2574   24389546.019
        44.0004         40.0004
 -13431675.60349 -10460595.16948  21162985.1774   21162993.1634   21162984.112
        55.0004         50.0004
    653357.18648    520796.33948  21501024.9124   21501033.2434   21501024.582
        53.0004         49.0004
  -7359931.04948  -5724265.49847  22105766.7904   22105774.3874   22105767.021
        50.0004         45.0004
  -1167437.52548   -868017.70747  23069029.9064   23069040.9764   23069029.332
        48.0004         43.0004
 15  5  1  1 28 30.0000000  0  9G28G17G07G02G09G06G30G10G03
 -20567787.75049 -15981593.64748  20963840.9944   20963845.9794   20963840.888
        54.0004         49.0004
  -3982655.54447  -3056194.68647  23487214.1174   23487220.8874   23487215.062
        47.0004         43.0004
  -6495941.69747  -5008911.76347  23109647.3214   23109655.2884   23109646.911
        47.0004         42.0004
  -2084482.99747  -1588412.86946  23643210.6324   23643216.4274   23643210.421
        46.0004         41.0004
   -408647.00647   -309039.35546  24388134.4654   24388141.5854   24388134.497
        44.0004         40.0004
 -13430342.11749 -10459556.04748  21163238.9834   21163246.1574   21163238.257
        55.0004         50.0004
    720027.10048    572746.89948  21513712.2454   21513721.0144   21513712.606
        53.0004         49.0004
  -7450597.54148  -5794914.63147  22088513.6164   22088521.4814   22088513.728
        50.0004         46.0004
  -1107619.63348   -821406.36547  23080413.3054   23080423.8794   23080412.809
        48.0004         43.0004
 15  5  1  1 29  0.0000000  0  9G28G17G07G02G09G06G30G10G03
 -20625733.74749 -16026746.32548  20952813.7634   20952818.5854   20952814.200
        54.0004         49.0004
  -3992627.72448  -3063965.20647  23485317.8604   23485323.6364   23485317.857
        48.0004         43.0004
  -6400124.38147  -4934248.95647  23127880.8454   23127889.2064   23127881.110
        47.0004         43.0004
  -2132038.34347  -1625468.81647  23634160.1934   23634168.2084   23634161.207
        46.0004         42.0004
   -416231.44247   -314949.34246  24386692.2754   24386699.9984   24386691.492
        44.0004         40.0004
 -13428586.69249 -10458188.14248  21163572.5924   21163580.2184   21163572.176
        54.0004         50.0004
    786948.18748    624893.19248  21526446.3954   21526454.9904   21526446.283
        53.0004         49.0004
  -7541104.25148  -5865439.26247  22071290.7804   22071298.1124   22071291.281
        50.0004         46.0004
  -1047389.56248   -774473.84447  23091875.6994   23091884.5244   23091874.059
        48.0004         43.0004
 15  5  1  1 29 30.0000000  0  9G28G17G07G02G09G06G30G10G03
 -20683358.13249 -16071648.39948  20941848.4874   20941853.1144   20941848.318
        54.0004         49.0004
  -4002800.40948  -3071891.94947  23483381.2884   23483387.8394   23483380.913
        48.0004         43.0004
  -6304335.99248  -4859608.66547  23146110.1114   23146116.8154   23146110.322
        48.0004         43.0004
  -2179250.51747  -1662257.36047  23625176.4904   23625183.9354   23625177.098
        46.0004         42.0004
   -423979.70347   -320986.95346  24385216.5894   24385224.0584   24385216.483
        44.0004         39.0004
 -13426416.73449 -10456497.22348  21163985.9784   21163993.3454   21163985.478
        54.0004         50.0004
    854111.66448    677228.34848  21539227.1554   21539235.8104   21539227.689
        53.0004         49.0004
  -7631453.94748  -5935841.54847  22054097.6394   22054105.2574   22054098.620
        50.0004         46.0004
   -986754.40348   -727225.66647  23103413.0164   23103423.7864   23103412.594
        48.0004         43.0004
 15  5  1  1 30  0.0000000  0  9G28G17G07G02G09G06G30G10G03
 -20740654.97949 -16116295.25248  20930945.3974   20930949.7274   20930946.348
        54.0004         49.0004
  -4013170.81547  -3079972.77347  23481407.5224   23481413.3384   23481407.295
        47.0004         43.0004
  -6208576.28548  -4784990.69447  23164332.4794   23164338.6764   23164332.026
        48.0004         43.0004
  -2226115.80247  -1698775.57146  23616258.2424   23616265.3204   23616258.917
        46.0004         41.0004
   -431887.51147   -327148.87446  24383711.1804   24383719.4814   24383711.183
        44.0004         39.0004
 -13423830.83049 -10454482.19548  21164477.7844   21164485.3444   21164477.069
        54.0004         50.0004
    921517.49048    729752.35748  21552054.4354   21552063.2274   21552054.807
        53.0004         49.0004
  -7721640.75548  -6006116.91147  22036935.3014   22036942.6734   22036936.411
        50.0004         46.0004
   -925712.39448   -679660.48047  23115027.8874   23115039.6744   23115027.290
        48.0004         43.0004
 15  5  1  1 30 30.0000000  0  9G28G17G07G02G09G06G30G10G03
 -20797622.82949 -16160685.74848  20920104.1594   20920109.4954   20920104.756
        54.0004         49.0004
  -4023740.32348  -3088208.74547  23479397.0284   23479402.0024   23479396.813
        48.0004         43.0004
  -6112849.07647  -4710398.07247  23182548.4214   23182555.6734   23182548.226
        47.0004         42.0004
  -2272635.86347  -1735024.77246  23607404.0574   23607412.7504   23607404.943
        46.0004         41.0004
   -439954.79347   -333435.07946  24382177.5094   24382184.9024   24382177.208
        44.0004         39.0004
 -13420831.94449 -10452145.35948  21165048.4204   21165055.7724   21165047.523
        54.0004         50.0004
    989161.36548    782461.84548  21564926.5074   21564935.2644   21564926.406
        53.0004         49.0004
  -7811663.08648  -6076264.10547  22019804.4494   22019812.4774   22019805.227
        50.0004         46.0004
   -864266.22848   -631780.36047  23126721.9634   23126732.4824   23126721.240
        48.0004         43.0004
 15  5  1  1 31  0.0000000  0  9G28G17G07G02G09G06G30G10G03
 -20854255.44749 -16204815.01948  20909327.4774   20909332.2714   20909327.974
        54.0004         50.0004
  -4034506.03048  -3096597.59547  23477347.9674   23477353.9774   23477347.359
        48.0004         43.0004
  -6017154.11847  -4635830.59247  23200758.5194   23200765.7294   23200757.390
        47.0004         42.0004
  -2318807.27747  -1771002.34746  23598620.1184   23598625.9614   23598620.043
        46.0004         41.0004
   -448176.59147   -339841.70146  24380614.2494   24380620.6844   24380614.097
        44.0004         39.0004
 -13417418.22449 -10449485.28048  21165697.9644   21165705.6614   21165697.220
        54.0004         50.0004
   1057043.76748    835357.20748  21577844.5994   21577852.5404   21577844.792
        53.0004         49.0004
  -7901514.33948  -6146277.97847  22002706.0594   22002714.9164   22002707.200
        50.0004         46.0004
   -802413.73548   -583583.62047  23138491.6404   23138503.1934   23138490.785
        48.0004         43.0004
 15  5  1  1 31 30.0000000  0  9G28G17G07G02G09G06G30G10G03
 -20910553.86249 -16248683.88148  20898614.5484   20898618.7894   20898615.055
        54.0004         50.0004
  -4045471.79148  -3105142.33847  23475262.0864   23475267.0894   23475261.302
        48.0004         43.0004
  -5921497.51947  -4561292.98247  23218961.6074   23218968.6004   23218960.922
        47.0004         42.0004
  -2364633.85247  -1806711.16746  23589898.4764   23589904.4534   23589899.079
        45.0004         41.0004
   -456555.43547   -346370.67146  24379017.2574   24379025.8384   24379016.209
        44.0004         39.0004
 -13413595.24149 -10446506.29548  21166425.5414   21166433.3084   21166424.722
        55.0004         50.0004
   1125157.70948    888432.98848  21590805.7254   21590814.9174   21590805.973
        53.0004         49.0004
  -7991195.59648  -6216159.39547  21985640.4544   21985648.4704   21985641.421
        50.0004         46.0004
   -740160.20148   -535074.38747  23150338.2264   23150349.1044   23150337.164
        48.0004         44.0004
 15  5  1  1 32  0.0000000  0  9G28G17G07G02G09G06G30G10G03
 -20966516.59049 -16292291.16148  20887965.0894   20887969.3884   20887965.296
        54.0004         50.0004
  -4056638.85448  -3113843.92847  23473134.8444   23473141.6764   23473135.784
        48.0004         43.0004
  -5825883.35547  -4486788.43647  23237156.4814   23237162.8794   23237157.781
        47.0004         42.0004
  -2410116.83447  -1842152.28046  23581243.4774   23581249.8264   23581243.115
        46.0004         41.0004
   -465091.27447   -353021.93846  24377392.3524   24377402.3144   24377391.823
        43.0004         38.0004
 -13409365.96449 -10443210.71148  21167230.4104   21167238.0204   21167230.026
        55.0004         50.0004
   1193498.93048    941685.86948  21603810.9724   21603820.1114   21603810.877
        53.0004         49.0004
  -8080705.02448  -6285906.91347  21968607.4224   21968615.6304   21968608.148
        50.0004         46.0004
   -677508.31848   -486254.77747  23162260.9804   23162271.8964   23162259.671
        48.0004         43.0004
 15  5  1  1 32 30.0000000  0  9G28G17G07G02G09G06G30G10G03
 -21022133.67749 -16335629.11148  20877381.4674   20877386.0564   20877382.000
        54.0004         50.0004
  -4068000.33848  -3122697.01447  23470973.1534   23470979.6864   23470973.102
        48.0004         43.0004
  -5730306.93247  -4412313.29647  23255343.8344   23255351.1844   23255343.774
        47.0004         42.0004
  -2455249.00847  -1877320.03347  23572654.2744   23572661.6254   23572654.806
        46.0004         42.0004
   -473775.21847   -359788.68846  24375741.2054   24375749.5554   24375741.120
        42.0004         37.0004
 -13404724.68349 -10439594.09348  21168113.5324   21168121.1764   21168112.816
        55.0004         50.0004
   1262071.83648    995119.27948  21616859.8804   21616868.3204   21616859.804
        53.0004         48.0004
  -8170032.26048  -6355512.46247  21951609.2054   21951617.8654   21951609.631
        51.0004         46.0004
   -614452.02948   -437120.03147  23174260.0874   23174271.5014   23174259.214
        48.0004         43.0004
 15  5  1  1 33  0.0000000  0  9G28G17G07G02G09G06G30G10G03
 -21077407.96549 -16378699.94048  20866862.9994   20866867.5914   20866863.099
        54.0004         50.0004
  -4079562.22948  -3131706.26447  23468773.6974   23468779.1604   23468774.079
        48.0004         43.0004
  -5634777.22847  -4337874.57947  23273522.8264   23273530.5444   23273522.148
        47.0004         42.0004
  -2500036.34047  -1912219.07647  23564130.4224   23564138.3514   23564131.916
        47.0004         42.0004
   -482611.95347   -366674.48646  24374059.3034   24374067.7184   24374060.875
        42.0004         38.0004
 -13399679.17849 -10435662.49448  21169073.6494   21169081.3434   21169072.814
        55.0004         50.0004
   1330867.28948   1048726.11548  21629951.1974   21629960.2944   21629951.191
        53.0004         48.0004
  -8259180.46748  -6424978.50947  21934644.9714   21934653.3034   21934645.657
        51.0004         46.0004
   -550998.82448   -387676.00147  23186334.8844   23186345.1724   23186332.987
        48.0004         43.0004
 15  5  1  1 33 30.0000000  0  9G28G17G07G02G09G06G30G10G03
 -21132336.24249 -16421501.15748  20856410.7634   20856414.8354   20856410.943
        54.0004         50.0004
  -4091324.37548  -3140871.57147  23466535.8124   23466540.3204   23466536.635
        48.0004         43.0004
  -5539296.05847  -4263473.67947  23291691.4754   23291699.3634   23291691.671
        47.0004         42.0004
  -2544478.15047  -1946848.88647  23555674.6454   23555681.2014   23555674.612
        47.0004         43.0004
   -491599.55147   -373677.84446  24372349.5394   24372357.6314   24372349.456
        43.0004         38.0004
 -13394230.68149 -10431416.87248  21170110.3584   21170117.6744   21170109.444
        55.0004         50.0004
   1399882.79948   1102504.40948  21643084.6614   21643093.2594   21643084.762
        53.0004         48.0004
  -8348146.03848  -6494302.23247  21917715.0504   21917722.6284   21917715.910
        51.0004         46.0004
   -487149.66448   -337923.42447  23198484.1554   23198496.3184   23198483.805
        48.0004         43.0004
 15  5  1  1 34  0.0000000  0  9G28G17G07G02G09G06G30G10G03
 -21186911.86949 -16464027.57948  20846025.1864   20846029.7024   20846025.284
        54.0004         50.0004
  -4103283.12948  -3150190.06947  23464260.5264   23464266.8994   23464260.602
        48.0004         43.0004
  -5443862.67947  -4189110.03647  23309852.5674   23309859.9964   23309852.491
        47.0004         42.0004
  -2588571.12247  -1981206.88347  23547283.1784   23547289.4884   23547283.602
        47.0004         42.0004
   -500732.82947   -380794.67146  24370611.1764   24370618.0644   24370610.818
        43.0004         38.0004
 -13388377.17249 -10426855.66048  21171224.3614   21171231.6144   21171223.535
        55.0004         50.0004
   1469119.06148   1156454.73248  21656259.7964   21656268.4894   21656259.542
        53.0004         48.0004
  -8436922.41948  -6563478.54947  21900821.1594   21900828.3054   21900821.500
        51.0004         46.0004
   -422902.19848   -287860.50647  23210711.7554   23210720.6734   23210711.235
        48.0004         43.0004
 15  5  1  1 34 30.0000000  0  9G28G17G07G02G09G06G30G10G03
 -21241134.54049 -16506278.98248  20835707.2024   20835711.6604   20835707.461
        54.0004         50.0004
  -4115440.46548  -3159663.29247  23461945.9264   23461953.4004   23461947.036
        48.0004         43.0004
  -5348481.36047  -4114786.92047  23328002.9704   23328009.8274   23328003.616
        47.0004         42.0004
  -2632317.26547  -2015294.62947  23538958.6144   23538965.5634   23538959.054
        46.0004         42.0004
   -510012.42847   -388025.50146  24368844.1684   24368854.2234   24368844.801
        42.0004         38.0004
 -13382122.53549 -10421981.88448  21172414.3764   21172422.2314   21172413.882
        55.0004         50.0004
   1538570.95548   1210573.06948  21669476.2254   21669484.5874   21669476.168
        53.0004         48.0004
  -8525508.47648  -6632506.54647  21883964.2284   21883971.3164   21883964.020
        51.0004         46.0004
   -358260.03848   -237490.03247  23223011.8964   23223022.2044   23223012.093
        48.0004         43.0004
 15  5  1  1 35  0.0000000  0  9G28G17G07G02G09G06G30G10G03
 -21295002.55949 -16548254.03348  20825456.2884   20825460.5974   20825456.442
        54.0004         50.0004
  -4127797.79248  -3169292.38447  23459595.0494   23459600.5804   23459594.829
        48.0004         43.0004
  -5253156.52747  -4040507.81047  23346142.0784   23346149.7494   23346143.075
        47.0004         42.0004
  -2675718.08247  -2049113.26446  23530699.5404   23530706.3934   23530699.963
        46.0004         41.0004
   -519438.29247   -395370.38446  24367051.8034   24367060.7914   24367052.008
        43.0004         39.0004
 -13375469.96549 -10416798.02448  21173680.2644   21173688.0194   21173679.722
        55.0004         50.0004
   1608234.03748   1264855.97548  21682732.3244   21682741.1644   21682732.555
        53.0004         48.0004
  -8613902.53848  -6701384.95047  21867142.3894   21867150.7084   21867143.302
        51.0004         46.0004
   -293226.07848   -186814.25247  23235387.7494   23235397.4944   23235387.074
        48.0004         43.0004
 15  5  1  1 35 30.0000000  0  9G28G17G07G02G09G06G30G10G03
 -21348512.16649 -16589949.79748  20815273.7554   20815278.2974   20815274.100
        54.0004         50.0004
  -4140354.00848  -3179076.43347  23457205.8804   23457210.6414   23457205.353
        48.0004         43.0004
  -5157889.50747  -3966273.78547  23364271.3484   23364279.1344   23364270.161
        47.0004         42.0004
  -2718772.47147  -2082661.94446  23522506.3594   23522513.6304   23522507.641
        46.0004         41.0004
   -529007.63247   -402826.99146  24365231.4214   24365240.4604   24365231.248
        43.0004         39.0004
 -13368419.97049 -10411304.49348  21175021.9404   21175029.3004   21175021.374
        55.0004         50.0004
   1678106.56348   1319302.08648  21696028.3554   21696036.5644   21696028.565
        53.0004         48.0004
  -8702100.40048  -6770110.45147  21850359.7574   21850367.3974   21850360.469
        51.0004         46.0004
   -227800.48248   -135833.32247  23247837.2444   23247848.4284   23247835.979
        48.0004         43.0004
 15  5  1  1 36  0.0000000  0  9G28G17G07G02G09G06G30G10G03
 -21401659.19849 -16631363.03648  20805159.8994   20805164.5604   20805160.361
        54.0004         50.0004
  -4153108.30148  -3189014.83847  23454779.0274   23454785.5654   23454777.859
        48.0004         43.0004
  -5062681.67247  -3892085.89847  23382388.9834   23382395.4194   23382389.147
        47.0004         42.0004
  -2761479.29847  -2115939.81746  23514379.8384   23514385.5874   23514380.050
        46.0004         41.0004
   -538718.02447   -410393.57146  24363383.7794   24363391.9514   24363382.558
        43.0004         38.0004
 -13360973.27849 -10405501.84248  21176438.6174   21176446.4424   21176437.650
        54.0004         50.0004
   1748186.60348   1373909.88748  21709364.9844   21709373.1384   21709364.509
        53.0004         48.0004
  -8790098.07348  -6838679.97247  21833614.3604   21833621.2364   21833615.364
        51.0004         46.0004
   -161983.77648    -84547.59047  23260362.0614   23260372.4444   23260361.888
        48.0004         43.0004
 15  5  1  1 36 30.0000000  0  9G28G17G07G02G09G06G30G10G03
 -21454442.27449 -16672492.66748  20795115.7764   20795120.2194   20795115.978
        54.0004         50.0004
  -4166061.53748  -3199108.26747  23452312.5304   23452319.4284   23452313.187
        48.0004         43.0004
  -4967537.03147  -3817947.22247  23400494.4304   23400500.4124   23400493.973
        47.0004         42.0004
  -2803840.24947  -2148948.17946  23506317.7634   23506323.9314   23506319.500
        46.0004         41.0004
   -548569.03147   -418069.71046  24361506.0904   24361516.0844   24361506.613
        42.0004         36.0004
 -13353132.83249 -10399392.36948  21177930.9034   21177938.5484   21177930.205
        55.0004         50.0004
   1818469.99048   1428676.14048  21722738.9414   21722747.8974   21722738.938
        53.0004         48.0004
  -8877893.51448  -6907091.91347  21816907.3924   21816914.3984   21816907.333
        51.0004         47.0004
    -95778.50548    -32959.12447  23272960.0884   23272971.9994   23272960.918
        48.0004         43.0004
 15  5  1  1 37  0.0000000  0  9G28G17G07G02G09G06G30G10G03
 -21506857.60149 -16713335.75248  20785141.1604   20785146.1174   20785141.517
        54.0004         50.0004
  -4179212.98248  -3209356.15047  23449811.1174   23449816.0054   23449810.826
        48.0004         43.0004
  -4872456.98447  -3743858.86147  23418587.1574   23418593.6624   23418587.595
        47.0004         42.0004
  -2845854.18347  -2181686.12646  23498323.0974   23498328.9404   23498325.051
        45.0004         41.0004
   -558558.21746   -425853.51246  24359607.2454   24359616.2694   24359605.906
        41.0004         37.0004
 -13344899.55549 -10392976.79548  21179497.5884   21179504.7294   21179496.957
        55.0004         50.0004
   1888954.62348   1483599.21348  21736152.1254   21736160.3084   21736151.895
        52.0004         48.0004
  -8965482.85948  -6975343.25847  21800239.6824   21800246.7784   21800240.456
        51.0004         47.0004
    -29185.34048     18931.59947  23285633.0854   23285643.3254   23285632.291
        48.0004         44.0004
 15  5  1  1 37 30.0000000  0  9G28G17G07G02G09G06G30G10G03
 -21558903.37449 -16753890.86748  20775237.5664   20775242.0374   20775237.610
        54.0004         50.0004
  -4192563.35647  -3219759.03347  23447269.6664   23447275.5304   23447269.717
        47.0004         43.0004
  -4777444.78047  -3669823.36047  23436667.0904   23436674.8624   23436665.934
        47.0004         42.0004
  -2887522.16647  -2214154.53346  23490393.9614   23490400.0764   23490394.667
        45.0004         41.0004
   -568684.71046   -433744.31246  24357683.3704   24357691.1594   24357679.236
        41.0004         37.0004
 -13336275.96849 -10386257.08748  21181138.7484   21181146.1264   21181138.191
        55.0004         50.0004
   1959636.79648   1538676.21248  21749602.3634   21749610.8204   21749602.050
        52.0004         48.0004
  -9052863.83348  -7043432.23047  21783611.5014   21783619.1614   21783612.481
        51.0004         47.0004
     37793.45748     71122.80947  23298377.9234   23298389.6624   23298377.635
        48.0004         43.0004
 15  5  1  1 38  0.0000000  0  9G28G17G07G02G09G06G30G10G03
 -21610574.23549 -16794153.84748  20765404.6974   20765409.0194   20765404.870
        54.0004         50.0004
  -4206110.24047  -3230315.05247  23444692.2994   23444698.3294   23444692.473
        47.0004         43.0004
  -4682500.62647  -3595840.90147  23454733.9094   23454742.4474   23454733.996
        46.0004         42.0004
  -2928841.94047  -2246351.57546  23482531.3934   23482536.8954   23482530.246
        45.0004         40.0004
   -578944.76347   -441739.22346  24355729.6814   24355738.8874   24355728.360
        42.0004         37.0004
 -13327261.60049 -10379232.87848  21182853.9804   21182861.4584   21182853.733
        55.0004         50.0004
   2030515.82848   1593906.60248  21763089.5424   21763098.8644   21763089.518
        52.0004         48.0004
  -9140030.96948  -7111354.58447  21767023.5174   21767031.4294   21767024.565
        51.0004         47.0004
    105158.69248    123615.13947  23311197.8904   23311208.1114   23311196.229
        48.0004         43.0004
 15  5  1  1 38 30.0000000  0  9G28G17G07G02G09G06G30G10G03
 -21661872.01149 -16834126.10948  20755643.2784   20755647.6964   20755643.381
        54.0004         50.0004
  -4219858.11748  -3241027.69047  23442077.4254   23442082.1514   23442076.316
        48.0004         43.0004
  -4587631.87147  -3521917.18847  23472787.8124   23472794.1794   23472787.471
        46.0004         42.0004
  -2969818.16147  -2278280.93546  23474733.8854   23474740.2064   23474734.374
        45.0004         41.0004
   -589341.21547   -449840.35046  24353750.0884   24353758.0554   24353750.606
        42.0004         37.0004
 -13317862.75149 -10371909.07648  21184642.3984   21184650.1424   21184641.684
        55.0004         50.0004
   2101584.28648   1649284.59948  21776613.8994   21776622.6484   21776614.279
        52.0004         48.0004
  -9226985.83848  -7179111.52647  21750477.3064   21750483.8814   21750477.581
        51.0004         47.0004
    172904.32948    176403.90347  23324089.4864   23324099.5464   23324088.275
        48.0004         43.0004
 15  5  1  1 39  0.0000000  0  9G28G17G07G02G09G06G30G10G03
 -21712789.60649 -16873802.12748  20745953.7144   20745957.9474   20745953.965
        54.0004         50.0004
  -4233802.50748  -3251893.46247  23439422.6214   23439429.6494   23439421.653
        48.0004         43.0004
  -4492836.33947  -3448050.55647  23490826.4504   23490833.6764   23490827.293
        46.0004         42.0004
  -3010446.72247  -2309939.37746  23467002.4754   23467007.9034   23467002.623
        45.0004         41.0004
   -599868.19246   -458043.19446  24351746.4924   24351756.5754   24351746.613
        41.0004         36.0004
 -13308076.92249 -10364283.72148  21186504.6754   21186512.2934   21186503.766
        55.0004         50.0004
   2172843.53748   1704811.26048  21790174.2224   21790183.2084   21790174.098
        52.0004         48.0004
  -9313720.97948  -7246697.26547  21733971.7584   21733978.5584   21733972.266
        51.0004         47.0004
    241033.12348    229491.23147  23337054.5214   23337064.9574   23337053.528
        48.0004         43.0004
 15  5  1  1 39 30.0000000  0  8G28G17G07G02G06G30G10G03
 -21763329.46649 -16913183.80648  20736336.2964   20736340.5964   20736336.988
        54.0004         50.0004
  -4247948.57048  -3262916.36347  23436731.1254   23436736.7124   23436731.069
        48.0004         43.0004
  -4398121.83747  -3374247.06046  23508851.0734   23508857.3084   23508851.018
        46.0004         41.0004
  -3050733.05547  -2341331.16946  23459335.6354   23459340.9774   23459334.751
        45.0004         41.0004
 -13297911.29349 -10356362.41948  21188439.2194   21188446.8984   21188438.754
        55.0004         50.0004
   2244285.29948   1760480.14748  21803768.6954   21803777.9264   21803769.045
        52.0004         48.0004
  -9400238.75948  -7314113.61847  21717508.0434   21717515.3674   21717508.498
        51.0004         47.0004
    309538.24648    282871.79447  23350090.1024   23350101.4844   23350089.965
        48.0004         43.0004
 15  5  1  1 40  0.0000000  0  8G28G17G07G02G06G30G10G03
 -21813482.51149 -16952264.07748  20726792.7834   20726796.7274   20726792.923
        54.0004         50.0004
  -4262289.61648  -3274091.21647  23434003.1014   23434007.2764   23434002.260
        48.0004         43.0004
  -4303484.33947  -3300503.56046  23526858.8664   23526867.1834   23526859.257
        46.0004         41.0004
  -3090670.80647  -2372451.31946  23451736.8244   23451742.0884   23451736.317
        45.0004         41.0004
 -13287361.14449 -10348141.49848  21190446.9074   21190454.3324   21190446.511
        55.0004         50.0004
   2315913.18248   1816294.04448  21817398.8784   21817408.5924   21817398.907
        52.0004         48.0004
  -9486529.38848  -7381352.97847  21701086.7534   21701094.5714   21701087.619
        51.0004         47.0004
    378424.68048    336549.46447  23363198.3704   23363209.0484   23363197.649
        48.0004         43.0004
 15  5  1  1 40 30.0000000  0  8G28G17G07G02G06G30G10G03
 -21863245.93049 -16991040.73548  20717322.6314   20717327.2984   20717323.081
        54.0004         50.0004
  -4276825.63648  -3285418.00247  23431235.2064   23431240.8124   23431236.257
        48.0004         43.0004
  -4208926.35347  -3226821.99146  23544851.5394   23544860.4104   23544850.957
        45.0004         41.0004
  -3130260.38247  -2403300.20646  23444201.7674   23444207.9744   23444201.167
        45.0004         40.0004
 -13276428.41649 -10339622.45548  21192527.0734   21192534.7044   21192526.426
        55.0004         50.0004
   2387724.21048   1872250.67647  21831064.3664   21831074.1534   21831064.801
        52.0004         47.0004
  -9572589.91248  -7448413.03647  21684710.2834   21684717.1594   21684711.038
        52.0004         47.0004
    447690.78248    390522.98347  23376379.9814   23376391.0144   23376378.855
        48.0004         43.0004
 15  5  1  1 41  0.0000000  0  8G28G17G07G02G06G30G10G03
 -21912621.27549 -17029514.99848  20707926.8324   20707931.2394   20707927.209
        54.0004         50.0004
  -4291560.94448  -3296900.06347  23428431.9744   23428439.5264   23428431.218
        48.0004         43.0004
  -4114454.66247  -3153207.67146  23562828.9114   23562838.5574   23562830.131
        45.0004         40.0004
  -3169506.28047  -2433881.22246  23436733.5984   23436740.4294   23436733.830
        45.0004         40.0004
 -13265119.39349 -10330810.19948  21194679.1624   21194686.3944   21194678.235
        55.0004         50.0004
   2459710.99348   1928344.24748  21844763.1904   21844772.3834   21844763.210
        52.0004         48.0004
  -9658421.52048  -7515294.71947  21668376.9734   21668384.4544   21668377.705
        52.0004         47.0004
    517330.58048    444787.71047  23389631.7594   23389641.3684   23389631.179
        48.0004         43.0004
 15  5  1  1 41 30.0000000  0  8G28G17G07G02G06G30G10G03
 -21961605.14149 -17067684.21648  20698605.3894   20698609.7784   20698605.481
        54.0004         50.0004
  -4306494.65948  -3308536.71847  23425590.2194   23425596.2834   23425589.141
        48.0004         43.0004
  -4020070.77547  -3079661.77246  23580790.3994   23580798.9524   23580790.149
        45.0004         40.0004
  -3208407.86347  -2464194.01346  23429330.8114   23429336.5704   23429331.187
        44.0004         39.0004
 -13253435.18149 -10321705.59348  21196902.4914   21196910.0494   21196901.843
        55.0004         50.0004
   2531871.40048   1984573.10747  21858494.9264   21858504.0204   21858495.159
        52.0004         47.0004
  -9744020.14348  -7581994.84447  21652088.5014   21652095.2014   21652089.192
        52.0004         47.0004
    587343.19048    499342.91547  23402955.1234   23402965.9664   23402953.573
        48.0004         43.0004
 15  5  1  1 42  0.0000000  0  8G28G17G07G02G06G30G10G03
 -22010191.67349 -17105543.83148  20689360.1004   20689364.1504   20689360.028
        54.0004         50.0004
  -4321623.65348  -3320325.55647  23422711.4604   23422716.4834   23422710.656
        48.0004         43.0004
  -3925774.21847  -3006183.95346  23598734.8214   23598741.7534   23598735.499
        45.0004         40.0004
  -3246962.77047  -2494236.63846  23421993.1004   23421998.9334   23421993.949
        44.0004         39.0004
 -13241374.63349 -10312307.73948  21199197.7814   21199205.1074   21199196.861
        55.0004         50.0004
   2604205.52348   2040937.33747  21872259.2864   21872268.3114   21872259.256
        52.0004         47.0004
  -9829379.85448  -7648508.81847  21635844.7304   21635852.4584   21635844.563
        52.0004         47.0004
    657730.07348    554189.78547  23416349.0294   23416359.7944   23416348.600
        48.0004         43.0004
 15  5  1  1 42 30.0000000  0  8G28G17G07G02G06G30G10G03
 -22058381.60649 -17143094.39748  20680189.6534   20680194.2564   20680189.880
        54.0004         50.0004
  -4336950.91248  -3332268.87447  23419793.6614   23419799.3254   23419793.960
        48.0004         43.0004
  -3831571.06847  -2932778.90646  23616662.0124   23616669.2944   23616660.844
        45.0004         40.0004
  -3285174.11647  -2524011.54746  23414722.2894   23414727.5434   23414724.351
        44.0004         39.0004
 -13228943.00649 -10302620.72548  21201563.2314   21201570.6454   21201562.616
        55.0004         50.0004
   2676707.11348   2097432.05147  21886056.3324   21886064.6574   21886056.216
        52.0004         47.0004
  -9914500.67748  -7714836.64047  21619645.8624   21619653.8844   21619646.750
        52.0004         47.0004
    728486.26647    609324.41847  23429813.6054   23429823.4574   23429814.871
        47.0004         43.0004
 15  5  1  1 43  0.0000000  0  8G28G17G07G02G06G30G10G03
 -22106169.90749 -17180332.00948  20671095.4174   20671099.9984   20671095.882
        54.0004         50.0004
  -4352473.85448  -3344364.68247  23416840.4794   23416846.4264   23416838.481
        48.0004         43.0004
  -3737460.70847  -2859446.15046  23634569.6764   23634577.3544   23634570.523
        44.0004         40.0004
  -3323039.95147  -2553517.24246  23407517.5304   23407523.1014   23407518.010
        44.0004         40.0004
 -13216139.91449 -10292644.26948  21203999.7514   21204007.2524   21203998.465
        55.0004         50.0004
   2749375.50248   2154056.75247  21899885.0484   21899893.4364   21899884.726
        52.0004         47.0004
  -9999377.43048  -7780974.27847  21603495.4824   21603502.4364   21603495.702
        52.0004         47.0004
    799612.32948    664747.28147  23443348.7304   23443359.0484   23443348.334
        48.0004         43.0004
 15  5  1  1 43 30.0000000  0  8G28G17G07G02G06G30G10G03
 -22153554.83049 -17217255.30148  20662078.7734   20662082.4554   20662078.850
        54.0004         50.0004
  -4368193.27348  -3356613.58247  23413849.2864   23413854.3344   23413849.199
        48.0004         44.0004
  -3643446.62347  -2786188.40646  23652460.1534   23652466.7394   23652459.702
        44.0004         39.0004
  -3360561.51047  -2582754.70046  23400376.3774   23400382.3404   23400376.464
        44.0004         39.0004
 -13202968.16849 -10282380.54648  21206506.0784   21206513.2184   21206504.902
        55.0004         50.0004
   2822206.96548   2210808.50447  21913743.3984   21913753.0144   21913743.782
        52.0004         47.0004
 -10084007.80648  -7846919.94548  21587390.5824   21587397.7544   21587390.933
        52.0004         48.0004
    871105.92648    720456.49147  23456953.4724   23456963.1814   23456952.395
        48.0004         43.0004
 15  5  1  1 44  0.0000000  0  8G28G17G07G02G06G30G10G03
 -22200533.54749 -17253862.06748  20653138.8154   20653142.8494   20653138.989
        54.0004         50.0004
  -4384108.67148  -3369015.20047  23410820.5874   23410826.0374   23410819.357
        48.0004         43.0004
  -3549531.14247  -2713007.50346  23670332.6704   23670339.5004   23670332.359
        43.0004         38.0004
  -3397739.15347  -2611724.16246  23393302.6384   23393306.6954   23393302.939
        43.0004         38.0004
 -13189429.69349 -10271831.06248  21209082.0224   21209089.6494   21209081.472
        54.0004         50.0004
   2895198.55148   2267685.03647  21927634.1814   21927642.8604   21927633.936
        52.0004         47.0004
 -10168388.52348  -7912671.06347  21571333.0154   21571340.0034   21571333.865
        52.0004         47.0004
    942965.24748    776450.68047  23470627.0204   23470639.9494   23470626.406
        48.0004         43.0004
 15  5  1  1 44 30.0000000  0  8G28G17G07G02G06G30G10G03
 -22247104.24349 -17290150.90148  20644277.1274   20644281.1624   20644277.540
        55.0004         50.0004
  -4400220.89448  -3381570.18847  23407753.6544   23407761.1424   23407753.894
        48.0004         43.0004
  -3455717.54247  -2639906.01346  23688183.6644   23688190.8204   23688184.196
        43.0004         38.0004
  -3434574.12747  -2640426.59046  23386292.2074   23386296.6604   23386293.637
        43.0004         39.0004
 -13175527.30649 -10260998.01048  21211727.6924   21211734.9944   21211727.240
        54.0004         50.0004
   2968346.48948   2324683.41747  21941552.8004   21941561.8984   21941553.176
        52.0004         47.0004
 -10252517.53748  -7978226.04847  21555324.1044   21555331.2014   21555324.102
        52.0004         47.0004
   1015187.81148    832727.94047  23484371.2644   23484381.9364   23484370.265
        48.0004         43.0004
 15  5  1  1 45  0.0000000  0  8G28G17G07G02G06G30G10G03
 -22293263.10449 -17326118.81248  20635492.7124   20635497.1014   20635493.287
        55.0004         50.0004
  -4416528.46148  -3394277.39547  23404650.8954   23404657.8214   23404650.711
        48.0004         43.0004
  -3362006.99047  -2566884.79346  23706014.7494   23706023.9864   23706015.559
        43.0004         38.0004
  -3471065.37747  -2668861.20946  23379349.1384   23379352.8814   23379349.714
        43.0004         39.0004
 -13161261.85649 -10249882.04948  21214442.2824   21214449.6714   21214441.889
        54.0004         50.0004
   3041649.05348   2381802.26147  21955501.9554   21955511.9014   21955502.281
        52.0004         47.0004
 -10336390.69048  -8043581.66147  21539362.9724   21539370.4434   21539363.798
        52.0004         47.0004
   1087773.02347    889287.76747  23498183.2404   23498194.4484   23498181.838
        47.0004         43.0004
 15  5  1  1 45 30.0000000  0  8G28G17G07G02G06G30G10G03
 -22339007.07349 -17361763.44048  20626788.1884   20626792.4244   20626788.455
        55.0004         50.0004
  -4433030.54248  -3407136.14247  23401511.3634   23401517.2544   23401511.575
        48.0004         44.0004
  -3268401.35047  -2493945.30946  23723828.8484   23723836.1654   23723827.423
        43.0004         38.0004
  -3507213.10847  -2697028.15546  23372470.1494   23372474.1744   23372470.109
        43.0004         39.0004
 -13146634.82249 -10238484.34248  21217225.6444   21217232.8914   21217225.632
        54.0004         50.0004
   3115103.76448   2439039.67347  21969480.3074   21969489.1714   21969480.083
        52.0004         47.0004
 -10420003.99348  -8108734.78848  21523452.1224   21523459.0414   21523453.292
        52.0004         48.0004
   1160719.66848    946129.26347  23512065.0734   23512075.9734   23512064.447
        48.0004         43.0004
 15  5  1  1 46  0.0000000  0  8G28G17G07G02G06G30G10G03
 -22384334.18849 -17397083.24948  20618162.8034   20618167.3844   20618163.155
        55.0004         50.0004
  -4449727.08448  -3420146.44447  23398334.1754   23398339.9694   23398334.692
        48.0004         44.0004
  -3174903.59347  -2421089.90446  23741620.1214   23741628.1814   23741619.954
        43.0004         38.0004
  -3543018.21747  -2724928.08546  23365654.5694   23365660.8804   23365654.395
        44.0004         39.0004
 -13131648.93149 -10226807.00748  21220077.8864   21220085.0154   21220077.302
        54.0004         50.0004
   3188707.02748   2496392.83847  21983486.4084   21983495.1444   21983486.363
        52.0004         47.0004
 -10503355.27948  -8173683.74847  21507590.6584   21507598.0094   21507591.708
        52.0004         47.0004
   1234025.31348   1003250.48547  23526015.3564   23526025.4994   23526014.987
        48.0004         43.0004
 15  5  1  1 46 30.0000000  0  8G28G17G07G02G06G30G10G03
 -22429241.79049 -17432076.15948  20609617.0994   20609621.0894   20609617.629
        55.0004         50.0004
  -4466618.80648  -3433308.82647  23395120.2034   23395125.4844   23395118.624
        48.0004         43.0004
  -3081515.91447  -2348320.28746  23759392.6134   23759399.7064   23759391.855
        43.0004         39.0004
  -3578480.85347  -2752561.18946  23358907.3164   23358913.5314   23358907.765
        45.0004         40.0004
 -13116306.00949 -10214851.46448  21222997.0024   21223004.3204   21222996.216
        54.0004         50.0004
   3262456.12648   2553859.63047  21997520.1324   21997530.2294   21997520.323
        51.0004         47.0004
 -10586441.38948  -8238426.07748  21491779.9184   21491787.0944   21491780.888
        52.0004         48.0004
   1307688.41948   1060650.24647  23540031.9124   23540043.4704   23540031.666
        48.0004         43.0004
 15  5  1  1 47  0.0000000  0  8G28G17G07G02G06G30G10G03
 -22473728.60049 -17466741.18248  20601151.8094   20601155.9044   20601151.877
        55.0004         50.0004
  -4483706.14048  -3446623.63347  23391869.4044   23391873.6814   23391867.704
        48.0004         43.0004
  -2988241.72147  -2275639.09046  23777142.3114   23777148.8244   23777141.575
        43.0004         39.0004
  -3613603.05547  -2779928.99846  23352224.5244   23352227.6584   23352223.768
        45.0004         40.0004
 -13100609.59749 -10202620.46548  21225983.8074   21225991.4004   21225983.129
        54.0004         50.0004
   3336346.61948   2611436.60847  22011581.8264   22011590.7684   22011581.398
        51.0004         47.0004
 -10669260.60648  -8302960.43348  21476019.7904   21476027.5394   21476020.598
        52.0004         48.0004
   1381705.70448   1118325.97847  23554117.1524   23554128.9154   23554117.221
        48.0004         43.0004
 15  5  1  1 47 30.0000000  0  8G28G17G07G02G06G30G10G03
 -22517789.89749 -17501074.63048  20592767.1544   20592771.2774   20592767.398
        55.0004         50.0004
  -4500986.76648  -3460089.05147  23388579.5804   23388585.5734   23388577.879
        48.0004         43.0004
  -2895081.45747  -2203046.68146  23794869.9864   23794875.8764   23794869.890
        44.0004         39.0004
  -3648383.17347  -2807030.24246  23345605.5784   23345611.0344   23345605.844
        45.0004         41.0004
 -13084559.58749 -10190113.95148  21229038.6974   21229045.5364   21229037.634
        54.0004         50.0004
   3410377.75048   2669123.17347  22025668.5404   22025677.6114   22025669.393
        51.0004         47.0004
 -10751807.62248  -8367282.68548  21460311.5684   21460318.8534   21460311.962
        52.0004         48.0004
   1456077.51448   1176277.95147  23568270.2894   23568280.9334   23568269.398
        48.0004         43.0004
 15  5  1  1 48  0.0000000  0  8G28G17G07G02G06G30G10G03
 -22561422.38749 -17535073.94248  20584463.8594   20584468.3374   20584463.923
        55.0004         50.0004
  -4518459.54348  -3473704.20147  23385254.8244   23385262.1434   23385254.183
        48.0004         44.0004
  -2802036.55047  -2130544.12746  23812576.1304   23812582.4014   23812574.715
        44.0004         40.0004
  -3682821.08447  -2833864.86446  23339051.9874   23339057.6344   23339052.706
        46.0004         41.0004
 -13068157.27249 -10177332.90648  21232159.8604   21232166.9554   21232158.710
        54.0004         50.0004
   3484547.40048   2726917.66947  22039783.0224   22039791.9694   22039782.698
        51.0004         47.0004
 -10834078.68448  -8431389.90948  21444655.5434   21444662.9164   21444656.507
        52.0004         48.0004
   1530802.87548   1234505.43647  23582489.3054   23582500.8524   23582488.894
        48.0004         43.0004
 15  5  1  1 48 30.0000000  0  8G28G17G07G02G06G30G10G03
 -22604627.36149 -17568740.12448  20576241.9974   20576246.4394   20576242.342
        55.0004         50.0004
  -4536127.82248  -3487471.69447  23381891.5114   23381896.9674   23381892.490
        48.0004         43.0004
  -2709113.11647  -2058136.23346  23830258.0104   23830264.5724   23830258.638
        44.0004         39.0004
  -3716920.61547  -2860435.79546  23332560.6304   23332567.1484   23332561.068
        45.0004         40.0004
 -13051408.70049 -10164282.05548  21235346.5984   21235354.0604   21235345.815
        54.0004         50.0004
   3558848.69548   2784814.75347  22053922.6954   22053931.4764   22053922.561
        51.0004         47.0004
 -10916074.65648  -8495282.77748  21429052.4174   21429059.6014   21429052.813
        52.0004         48.0004
   1605875.96448   1293003.88147  23596775.3004   23596786.6634   23596775.510
        48.0004         43.0004
 15  5  1  1 49  0.0000000  0  8G28G17G07G02G06G30G10G03
 -22647397.07249 -17602067.14648  20568103.4654   20568107.7524   20568104.159
        55.0004         50.0004
  -4553986.44448  -3501387.51047  23378496.0704   23378499.1124   23378493.740
        48.0004         43.0004
  -2616308.34447  -1985820.82546  23847918.5454   23847924.7404   23847918.547
        44.0004         39.0004
  -3750677.40347  -2886739.69046  23326139.4894   23326143.0304   23326138.778
        45.0004         41.0004
 -13034310.65349 -10150958.89148  21238600.5584   21238607.9224   21238599.974
        54.0004         50.0004
   3633284.00048   2842816.25147  22068087.1454   22068096.3044   22068087.545
        51.0004         47.0004
 -10997787.18548  -8558954.77848  21413502.8344   21413509.9684   21413503.614
        52.0004         48.0004
   1681300.25247   1351776.00047  23611128.0644   23611139.7894   23611127.370
        47.0004         43.0004
 15  5  1  1 49 30.0000000  0  8G28G17G07G02G06G30G10G03
 -22689731.70849 -17635055.14448  20560047.5674   20560051.7814   20560047.525
        55.0004         50.0004
  -4572038.02748  -3515453.68647  23375058.8874   23375064.7764   23375058.794
        48.0004         43.0004
  -2523627.33047  -1913601.86746  23865554.9464   23865562.5034   23865554.058
        43.0004         39.0004
  -3784094.76147  -2912779.06646  23319780.3274   23319785.1754   23319780.834
        46.0004         41.0004
 -13016868.10849 -10137367.28448  21241919.7954   21241926.7634   21241919.496
        54.0004         50.0004
   3707847.53648   2900917.66647  22082276.4204   22082285.2904   22082276.294
        51.0004         47.0004
 -11079215.70748  -8622405.47848  21398007.5714   21398014.2574   21398008.227
        52.0004         48.0004
   1757071.00648   1410818.07847  23625546.1254   23625557.6614   23625546.630
        48.0004         43.0004
 15  5  1  1 50  0.0000000  0  8G28G17G07G02G06G30G10G03
 -22731630.79049 -17667703.75248  20552074.3904   20552078.5804   20552075.019
        55.0004         50.0004
  -4590283.58548  -3529670.97247  23371586.5304   23371592.4844   23371585.896
        48.0004         43.0004
  -2431073.75247  -1841482.18046  23883168.0284   23883174.3214   23883166.833
        43.0004         38.0004
  -3817174.80747  -2938555.61946  23313483.3674   23313489.9094   23313484.619
        46.0004         41.0004
 -12999084.86249 -10123510.18548  21245303.4624   21245310.9414   21245302.820
        54.0004         50.0004
   3782534.75648   2959115.47547  22096488.7604   22096497.2704   22096487.764
        51.0004         47.0004
 -11160359.23448  -8685634.09848  21382566.4664   21382573.8714   21382567.229
        52.0004         48.0004
   1833184.72148   1470127.41347  23640030.9024   23640042.8174   23640031.258
        48.0004         43.0004
 15  5  1  1 50 30.0000000  0  8G28G17G07G02G06G30G10G03
 -22773088.62549 -17700008.53148  20544185.1764   20544189.2434   20544185.105
        55.0004         50.0004
  -4608719.37348  -3544036.52347  23368078.9324   23368084.1034   23368078.607
        48.0004         43.0004
  -2338646.84347  -1769461.18946  23900755.8014   23900760.8334   23900756.124
        43.0004         38.0004
  -3849915.04747  -2964067.37947  23307254.2354   23307259.5574   23307254.473
        47.0004         42.0004
 -12980959.96249 -10109386.86448  21248752.4934   21248759.7684   21248751.829
        54.0004         49.0004
   3857345.80248   3017409.75147  22110724.5224   22110733.9914   22110724.428
        51.0004         47.0004
 -11241211.58248  -8748635.83148  21367180.0814   21367187.4244   21367181.495
        52.0004         48.0004
   1909642.64348   1529704.94147  23654580.9394   23654591.3294   23654580.910
        48.0004         43.0004
 15  5  1  1 51  0.0000000  0  8G28G17G07G02G06G30G10G03
 -22814103.72749 -17731968.31548  20536380.3874   20536384.2854   20536380.665
        55.0004         50.0004
  -4627346.58548  -3558551.23047  23364533.4064   23364540.5114   23364533.578
        48.0004         43.0004
  -2246350.14247  -1697541.64046  23918316.6624   23918324.3654   23918318.525
        42.0004         37.0004
  -3882317.34847  -2989315.80347  23301088.5964   23301093.4554   23301088.512
        47.0004         42.0004
 -12962496.65749 -10094999.85848  21252265.6084   21252272.7664   21252264.937
        54.0004         49.0004
   3932276.68548   3075797.43647  22124983.4634   22124993.1534   22124983.565
        51.0004         47.0004
 -11321770.77448  -8811409.12948  21351850.8844   21351857.3114   21351851.516
        52.0004         48.0004
   1986441.67947   1589548.28847  23669195.4564   23669206.7324   23669194.744
        47.0004         43.0004
 15  5  1  1 51 30.0000000  0  8G28G17G07G02G06G30G10G03
 -22854672.26349 -17763580.13448  20528660.3364   20528664.3774   20528660.632
        55.0004         50.0004
  -4646163.24248  -3573213.54547  23360953.2684   23360959.8014   23360952.888
        48.0004         43.0004
  -2154184.58646  -1625724.29246  23935858.9594   23935864.2704   23935857.283
        41.0004         36.0004
  -3914381.01647  -3014300.36747  23294986.2864   23294993.0194   23294986.903
        47.0004         42.0004
 -12943695.80249 -10080349.82548  21255843.7324   21255850.8534   21255843.017
        54.0004         49.0004
   4007325.84548   3134277.26547  22139264.7144   22139273.4484   22139265.912
        51.0004         47.0004
 -11402032.27648  -8873950.45748  21336577.3234   21336584.1904   21336577.937
        53.0004         48.0004
   2063581.32947   1649657.03247  23683872.8634   23683884.9774   23683873.579
        47.0004         42.0004
 15  5  1  1 52  0.0000000  0  8G28G17G07G02G06G30G10G03
 -22894793.12749 -17794843.11448  20521025.2404   20521029.5784   20521025.577
        55.0004         50.0004
  -4665170.53648  -3588024.41947  23357336.5984   23357340.9684   23357335.835
        48.0004         43.0004
  -2062153.29246  -1554011.54845  23953370.7334   23953376.7494   23953370.004
        40.0004         35.0004
  -3946107.52647  -3039022.21347  23288949.9534   23288954.4364   23288950.951
        47.0004         43.0004
 -12924560.77349 -10065439.39748  21259484.7984   21259491.8544   21259484.035
        54.0004         49.0004
   4082489.07148   3192845.97847  22153567.9344   22153577.3564   22153567.833
        51.0004         47.0004
 -11481994.48548  -8936258.57348  21321359.9074   21321367.7154   21321360.700
        52.0004         48.0004
   2141058.34047   1710028.65747  23698618.1984   23698629.3554   23698618.176
        47.0004         42.0004
 15  5  1  1 52 30.0000000  0  8G28G17G07G02G06G30G10G03
 -22934463.80849 -17825755.30548  20513476.3344   20513480.8744   20513476.435
        55.0004         50.0004
  -4684367.61248  -3602983.15647  23353682.3854   23353688.9894   23353682.643
        48.0004         43.0004
  -1970258.40946  -1482405.09745  23970858.0034   23970863.6184   23970857.671
        40.0004         35.0004
  -3977497.28048  -3063481.63447  23282975.8534   23282980.5064   23282976.434
        48.0004         43.0004
 -12905093.64849 -10050270.19248  21263189.3214   21263196.7114   21263188.317
        54.0004         49.0004
   4157763.67848   3251501.48547  22167893.5104   22167901.4224   22167893.302
        51.0004         47.0004
 -11561653.97448  -8998330.80948  21306201.6324   21306208.9314   21306202.739
        52.0004         48.0004
   2218871.02447   1770661.84247  23713424.4004   23713435.7574   23713423.604
        47.0004         42.0004
 15  5  1  1 53  0.0000000  0  8G28G17G07G02G06G30G10G03
 -22973682.94949 -17856315.65348  20506013.1374   20506017.4654   20506013.199
        55.0004         50.0004
  -4703755.12448  -3618090.29647  23349994.3484   23349999.2584   23349993.704
        48.0004         44.0004
  -1878503.06246  -1410907.37845  23988318.0674   23988324.7314   23988318.164
        39.0004         34.0004
  -4008552.15648  -3087680.13847  23277065.9544   23277071.7604   23277066.748
        48.0004         43.0004
 -12885297.69349 -10034844.75748  21266956.1584   21266963.2164   21266955.313
        54.0004         49.0004
   4233145.66948   3310240.66647  22182236.9314   22182245.5304   22182236.893
        51.0004         46.0004
 -11641009.00648  -9060165.80048  21291101.0814   21291107.9854   21291101.970
        53.0004         48.0004
   2297016.30647   1831554.20747  23728296.1154   23728306.7674   23728295.289
        46.0004         42.0004
 15  5  1  1 53 30.0000000  0  8G28G17G07G02G06G30G10G03
 -23012445.60549 -17886520.30448  20498636.6924   20498640.8124   20498637.276
        55.0004         50.0004
  -4723329.67648  -3633343.19047  23346269.5154   23346275.5514   23346268.941
        48.0004         43.0004
  -1786886.69446  -1339517.99945  24005751.7744   24005759.4154   24005753.690
        39.0004         34.0004
  -4039270.23348  -3111616.20147  23271221.1444   23271226.3154   23271220.008
        48.0004         43.0004
 -12865172.33249 -10019162.64548  21270786.5134   21270793.1934   21270786.294
        54.0004         49.0004
   4308634.93148   3369063.44147  22196602.1894   22196611.4404   22196602.139
        51.0004         46.0004
 -11720053.75148  -9121759.01948  21276059.9764   21276066.4894   21276060.049
        53.0004         48.0004
   2375494.93547   1892706.32747  23743229.3064   23743241.2744   23743229.800
        47.0004         42.0004
 15  5  1  1 54  0.0000000  0  7G28G17G02G06G30G10G03
 -23050756.37649 -17916372.83148  20491346.6474   20491350.6744   20491347.125
        55.0004         50.0004
  -4743098.60348  -3648747.52547  23342507.3104   23342513.2024   23342506.016
        48.0004         43.0004
  -4069659.53548  -3135296.08047  23265437.7964   23265442.6244   23265438.142
        48.0004         44.0004
 -12844727.12649 -10003231.30148  21274676.5264   21274683.7934   21274676.109
        54.0004         49.0004
   4384221.19748   3427961.80647  22210985.9614   22210994.7484   22210985.875
        51.0004         46.0004
 -11798792.50648  -9183113.80748  21261076.3414   21261083.3464   21261076.820
        53.0004         48.0004
   2454297.70347   1954111.02647  23758225.2824   23758236.9924   23758225.844
        46.0004         42.0004
 15  5  1  1 54 30.0000000  0  7G28G17G02G06G30G10G03
 -23088600.79349 -17945861.97448  20484144.7624   20484148.9204   20484145.080
        55.0004         50.0004
  -4763049.19648  -3664293.41947  23338710.4264   23338717.8884   23338711.533
        48.0004         43.0004
  -4099708.44448  -3158710.73447  23259719.8224   23259724.7904   23259720.440
        48.0004         44.0004
 -12823952.09849  -9987042.95748  21278630.2424   21278637.3134   21278629.146
        54.0004         50.0004
   4459913.86048   3486943.05847  22225389.9024   22225399.0044   22225389.927
        51.0004         46.0004
 -11877209.85648  -9244218.13748  21246154.0644   21246160.6354   21246154.127
        53.0004         48.0004
   2533434.76147   2015776.19246  23773283.4874   23773296.9224   23773283.025
        46.0004         41.0004
 15  5  1  1 55  0.0000000  0  7G28G17G02G06G30G10G03
 -23125984.20549 -17974991.88148  20477031.2524   20477035.4784   20477031.096
        55.0004         50.0004
  -4783187.93248  -3679985.93247  23334878.6494   23334884.2384   23334878.439
        48.0004         43.0004
  -4129425.18948  -3181866.55047  23254064.4054   23254069.4634   23254065.337
        48.0004         44.0004
 -12802856.99949  -9970605.20548  21282644.2534   21282651.3554   21282643.815
        54.0004         50.0004
   4535702.47248   3545999.08947  22239812.2354   22239820.7494   22239812.067
        51.0004         46.0004
 -11955310.32148  -9305075.54848  21231291.7214   21231298.5894   21231292.015
        53.0004         48.0004
   2612896.66847   2077694.45946  23788405.3424   23788418.0814   23788406.205
        46.0004         41.0004
 15  5  1  1 55 30.0000000  0  7G28G17G02G06G30G10G03
 -23162901.70349 -18003758.74948  20470006.0634   20470009.9584   20470006.423
        55.0004         50.0004
  -4803512.33048  -3695823.11647  23331010.9124   23331015.9664   23331010.104
        48.0004         43.0004
  -4158807.88848  -3204762.05047  23248473.6064   23248477.7854   23248473.464
        49.0004         44.0004
 -12781441.51249  -9953917.80948  21286719.7494   21286726.8774   21286719.438
        54.0004         50.0004
   4611586.76548   3605129.68447  22254252.5734   22254261.9364   22254252.798
        51.0004         46.0004
 -12033088.50048  -9365681.84548  21216490.8274   21216497.4844   21216491.348
        53.0004         48.0004
   2692683.84547   2139866.21546  23803587.5094   23803600.6074   23803586.839
        45.0004         41.0004
 15  5  1  1 56  0.0000000  0  7G28G17G02G06G30G10G03
 -23199351.82649 -18032161.42848  20463069.6804   20463073.8694   20463070.031
        55.0004         50.0004
  -4824022.71948  -3711805.20647  23327106.8854   23327112.6574   23327106.202
        48.0004         44.0004
  -4187858.21548  -3227398.56947  23242945.0794   23242949.1564   23242945.329
        48.0004         43.0004
 -12759708.72849  -9936983.17348  21290855.3034   21290862.3554   21290854.290
        54.0004         50.0004
   4687563.01748   3664331.92047  22268709.2984   22268719.3254   22268709.447
        51.0004         46.0004
 -12110542.20748  -9426035.29648  21201751.6274   21201758.1414   21201751.943
        53.0004         48.0004
   2772793.57747   2202289.26046  23818833.5234   23818845.0664   23818834.494
        46.0004         41.0004
 15  5  1  1 56 30.0000000  0  7G28G17G02G06G30G10G03
 -23235332.79849 -18060198.53448  20456222.8554   20456226.9694   20456223.386
        55.0004         51.0004
  -4844718.75648  -3727931.97547  23323169.4534   23323174.5764   23323169.047
        48.0004         43.0004
  -4216577.44248  -3249777.05847  23237479.4554   23237485.0894   23237480.253
        48.0004         43.0004
 -12737661.46149  -9919803.47648  21295050.6834   21295057.7164   21295049.997
        54.0004         50.0004
   4763627.83848   3723603.18247  22283184.7424   22283193.3764   22283184.787
        50.0004         46.0004
 -12187669.31648  -9486134.25648  21187074.2314   21187081.7754   21187074.818
        53.0004         48.0004
   2853223.18647   2264961.62746  23834137.2414   23834150.6834   23834135.933
        45.0004         41.0004
 15  5  1  1 57  0.0000000  0  7G28G17G02G06G30G10G03
 -23270842.66749 -18087868.54748  20449465.5434   20449469.3854   20449465.829
        55.0004         50.0004
  -4865600.72548  -3744203.62347  23319195.5554   23319202.3134   23319194.728
        48.0004         44.0004
  -4244966.59848  -3271898.38347  23232078.0524   23232082.5574   23232078.433
        48.0004         43.0004
 -12715302.36349  -9902380.78548  21299305.2354   21299312.7064   21299304.777
        54.0004         50.0004
   4839777.92948   3782940.89947  22297676.1104   22297684.1724   22297675.474
        50.0004         46.0004
 -12264466.96648  -9545976.50248  21172459.9994   21172467.7314   21172461.322
        53.0004         49.0004
   2933970.29747   2327881.35046  23849505.6774   23849516.9844   23849505.368
        46.0004         41.0004
 15  5  1  1 57 30.0000000  0  7G28G17G02G06G30G10G03
 -23305877.72549 -18115168.57848  20442798.5164   20442802.1264   20442798.563
        55.0004         50.0004
  -4886666.08248  -3760618.17147  23315187.4304   23315193.4594   23315186.418
        48.0004         44.0004
  -4273025.25747  -3293762.19547  23226737.9204   23226742.7544   23226738.207
        47.0004         43.0004
 -12692632.33349  -9884715.80948  21303618.9714   21303626.5544   21303618.366
        54.0004         50.0004
   4916011.90848   3842343.96747  22312182.5404   22312191.4954   22312182.353
        50.0004         46.0004
 -12340930.57748  -9605558.45948  21157910.1794   21157916.9424   21157910.456
        53.0004         49.0004
   3015034.20147   2391047.95246  23864929.5844   23864942.6254   23864929.256
        46.0004         41.0004
 15  5  1  1 58  0.0000000  0  7G28G17G02G06G30G10G03
 -23340435.03849 -18142096.34448  20436222.2174   20436226.6104   20436222.759
        55.0004         50.0004
  -4907914.30948  -3777175.21247  23311143.9594   23311149.3234   23311142.339
        48.0004         44.0004
  -4300753.41547  -3315368.44047  23221462.1824   23221466.7104   23221462.330
        47.0004         43.0004
 -12669652.91749  -9866809.75648  21307992.1624   21307999.5344   21307991.643
        54.0004         50.0004
   4992327.63148   3901810.73947  22326705.4714   22326714.3334   22326705.400
        50.0004         46.0004
 -12417056.41248  -9664877.21648  21143423.3634   21143430.4574   21143423.663
        53.0004         49.0004
   3096413.63047   2454460.40946  23880417.9824   23880428.2684   23880417.672
        46.0004         41.0004
 15  5  1  1 58 30.0000000  0  7G28G17G02G06G30G10G03
 -23374513.22349 -18168650.75748  20429737.4674   20429741.3004   20429737.228
        55.0004         50.0004
  -4929345.12948  -3793874.52847  23307065.5874   23307072.1454   23307065.490
        49.0004         44.0004
  -4328152.47347  -3336718.26447  23216247.2654   23216252.3464   23216248.404
        47.0004         43.0004
 -12646367.15449  -9848664.99948  21312423.2584   21312430.8224   21312423.107
        54.0004         50.0004
   5068721.49648   3961338.40847  22341242.2004   22341251.3244   22341242.904
        50.0004         46.0004
 -12492842.14648  -9723930.95448  21129001.8284   21129008.6224   21129002.298
        53.0004         49.0004
   3178105.72647   2518116.51346  23895962.2814   23895974.4094   23895961.999
        46.0004         41.0004
 15  5  1  1 59  0.0000000  0  7G28G17G02G06G30G10G03
 -23408110.68449 -18194830.58648  20423344.3174   20423348.1954   20423344.422
        55.0004         50.0004
  -4950958.42048  -3810716.01947  23302952.7324   23302958.2724   23302951.625
        49.0004         44.0004
  -4355224.10047  -3357812.95347  23211096.5274   23211101.7174   23211097.362
        47.0004         43.0004
 -12622777.75549  -9830283.64848  21316912.1704   21316919.9184   21316911.527
        54.0004         50.0004
   5145190.34448   4020924.48647  22355793.4504   22355802.5494   22355793.395
        50.0004         46.0004
 -12568285.32348  -9782717.76748  21114645.5864   21114652.4784   21114646.082
        53.0004         49.0004
   3260108.01847   2582014.28446  23911566.1524   23911578.8104   23911566.627
        45.0004         41.0004
 15  5  1  1 59 30.0000000  0  8G28G17G02G09G06G30G10G03
 -23441225.05249 -18220633.97448  20417042.8464   20417046.5334   20417042.924
        55.0004         50.0004
  -4972753.80648  -3827699.43447  23298803.7674   23298809.9894   23298804.522
        48.0004         44.0004
  -4381968.66448  -3378652.79947  23206006.5694   23206011.1214   23206006.595
        48.0004         43.0004
                                                                  24252052.149

 -12598887.31549  -9811667.70948  21321458.3564   21321465.7704   21321457.546
        54.0004         50.0004
   5221730.99948   4080566.55247  22370358.8974   22370367.8854   22370359.045
        50.0004         45.0004
 -12643383.39048  -9841235.65948  21100354.4904   21100361.7844   21100355.483
        53.0004         49.0004
   3342418.16147   2646151.97346  23927228.8264   23927241.9444   23927228.660
        45.0004         40.0004
 15  5  1  2  0  0.0000000  0  8G28G17G02G09G06G30G10G03
 -23473853.28049 -18246058.55448  20410833.9124   20410837.8724   20410834.223
        55.0004         50.0004
  -4994729.66648  -3844823.46147  23294622.6144   23294628.5704   23294622.439
        48.0004         44.0004
  -4408386.37048  -3399237.92747  23200979.4704   23200983.2944   23200979.856
        48.0004         43.0004
   -998118.66049   -757458.39846  24249292.9024   24249305.8274   24249293.487
        55.0004         38.0004
 -12574696.89449  -9792818.02548  21326061.6454   21326069.1734   21326060.830
        54.0004         50.0004
   5298341.94948   4140263.36947  22384937.2814   22384947.1524   22384937.771
        50.0004         46.0004
 -12718132.08148  -9899481.31848  21086130.3224   21086137.6894   21086130.997
        53.0004         49.0004
   3425035.24747   2710528.82846  23942951.8214   23942962.4614   23942951.396
        45.0004         40.0004
 15  5  1  2  0 30.0000000  0  8G28G17G02G09G06G30G10G03
 -23505991.21649 -18271101.08448  20404717.6984   20404722.3374   20404718.440
        55.0004         50.0004
  -5016883.44348  -3862086.13647  23290406.8674   23290411.7564   23290407.096
        48.0004         44.0004
  -4434476.23648  -3419567.59847  23196015.5474   23196018.8924   23196014.851
        48.0004         43.0004
  -1012649.55448   -768781.21046  24246527.0634   24246539.7964   24246529.981
        49.0004         38.0004
 -12550206.95649  -9773734.95548  21330722.1644   21330729.2964   21330721.235
        54.0004         50.0004
   5375022.16948   4200014.16847  22399529.5304   22399539.1784   22399529.153
        50.0004         45.0004
 -12792526.58948  -9957450.98048  21071973.7134   21071980.8154   21071974.474
        53.0004         49.0004
   3507959.02947   2775144.67146  23958730.6774   23958742.2824   23958730.657
        45.0004         40.0004
 15  5  1  2  1  0.0000000  0  8G28G17G02G09G06G30G10G03
 -23537641.69049 -18295763.77648  20398695.1174   20398699.3274   20398695.794
        55.0004         50.0004
  -5039219.20548  -3879490.62247  23286156.3424   23286161.8884   23286156.954
        48.0004         43.0004
  -4460243.80248  -3439646.12947  23191111.3124   23191115.5254   23191112.562
        48.0004         43.0004
  -1027234.72247   -780146.31746  24243757.0044   24243764.6454   24243755.750
        45.0004         39.0004
 -12525424.73249  -9754424.12148  21335438.2064   21335445.1334   21335437.241
        54.0004         50.0004
   5451764.04548   4259813.01047  22414133.0134   22414141.9424   22414133.147
        50.0004         45.0004
 -12866568.66048 -10015146.03048  21057884.0804   21057890.7154   21057884.974
        53.0004         49.0004
   3591182.55647   2839994.08146  23974568.9164   23974579.5964   23974569.367
        45.0004         40.0004
 15  5  1  2  1 30.0000000  0  8G28G17G02G09G06G30G10G03
 -23568800.41149 -18320043.28248  20392766.0274   20392769.7294   20392766.161
        55.0004         50.0004
  -5061734.39948  -3897034.89947  23281872.5574   23281878.3434   23281873.234
        49.0004         44.0004
  -4485687.97048  -3459472.67847  23186269.5134   23186273.6854   23186269.775
        48.0004         43.0004
  -1041870.13447   -791550.60346  24240970.3304   24240978.1784   24240971.910
        44.0004         39.0004
 -12500350.42849  -9734885.70148  21340209.4254   21340216.6094   21340208.731
        54.0004         50.0004
   5528566.90148   4319659.36147  22428747.7234   22428756.1244   22428748.002
        50.0004         45.0004
 -12940253.27448 -10072562.53548  21043862.5454   21043868.9004   21043863.274
        53.0004         49.0004
   3674705.75647   2905077.02846  23990461.1504   23990473.2864   23990461.055
        45.0004         40.0004
 15  5  1  2  2  0.0000000  0  8G28G17G02G09G06G30G10G03
 -23599463.98149 -18343936.95848  20386930.7594   20386934.7824   20386930.939
        55.0004         50.0004
  -5084427.15248  -3914717.54847  23277555.0634   23277558.9854   23277554.864
        49.0004         44.0004
  -4510808.44948  -3479046.96947  23181487.8674   23181492.7834   23181489.482
        48.0004         43.0004
  -1056552.79447   -802991.71246  24238175.2224   24238182.7024   24238173.066
        43.0004         38.0004
 -12474985.26349  -9715120.63248  21345036.1994   21345043.3084   21345035.414
        54.0004         49.0004
   5605429.01948   4379551.90147  22443374.5414   22443383.6634   22443374.826
        50.0004         45.0004
 -13013576.45548 -10129697.40748  21029908.6614   21029916.0414   21029909.740
        53.0004         49.0004
   3758527.64447   2970392.68746  24006412.8904   24006425.6784   24006412.330
        45.0004         40.0004
 15  5  1  2  2 30.0000000  0  8G28G17G02G09G06G30G10G03
 -23629630.16949 -18367443.06048  20381190.3144   20381194.7764   20381190.506
        55.0004         51.0004
  -5107296.23048  -3932537.60147  23273202.0264   23273207.3664   23273201.872
        48.0004         44.0004
  -4535605.51348  -3498369.27747  23176770.2914   23176774.1974   23176770.798
        48.0004         43.0004
  -1071280.15647   -814467.56946  24235371.5944   24235383.3524   24235373.293
        43.0004         38.0004
 -12449331.03849  -9695130.33248  21349917.8014   21349925.3834   21349916.858
        54.0004         49.0004
   5682348.24148   4439488.93747  22458011.4874   22458019.5034   22458011.239
        50.0004         45.0004
 -13086534.81448 -10186547.99848  21016025.1914   21016032.7044   21016026.102
        53.0004         49.0004
   3842646.66847   3035939.87646  24022420.6754   24022432.7604   24022419.403
        45.0004         40.0004
 15  5  1  2  3  0.0000000  0  9G28G20G17G02G09G06G30G10G03
 -23659302.90449 -18390564.65448  20375543.7144   20375547.7444   20375544.201
        55.0004         51.0004
  -1145209.19747   -831232.49146  24394585.7564   24394593.7364   24394585.791
        47.0004         37.0004
  -5130347.22648  -3950499.39247  23268815.8474   23268821.6704   23268815.325
        48.0004         44.0004
  -4560086.41348  -3517445.23747  23172111.6184   23172116.8314   23172112.517
        48.0004         44.0004
  -1086056.46547   -825981.62546  24232562.5474   24232570.7564   24232563.159
        43.0004         39.0004
 -12423396.31249  -9674921.46048  21354853.1464   21354860.5164   21354852.057
        54.0004         49.0004
   5759315.55248   4499463.44047  22472658.6324   22472667.5994   22472658.227
        50.0004         45.0004
 -13159131.44548 -10243116.72148  21002210.8994   21002217.6184   21002211.306
        53.0004         49.0004
   3927054.39547   3101712.01846  24038483.2784   24038495.2734   24038482.737
        45.0004         40.0004
 15  5  1  2  3 30.0000000  0  9G28G20G17G02G09G06G30G10G03
 -23688471.93149 -18413293.74548  20369993.0254   20369997.0414   20369993.684
        55.0004         51.0004
  -1248792.14747   -911946.48946  24374875.5114   24374883.1304   24374876.356
        44.0004         37.0004
  -5153571.01648  -3968595.82547  23264396.2644   23264401.4624   23264396.049
        48.0004         44.0004
  -4584244.07848  -3536269.32247  23167513.7044   23167518.6484   23167515.282
        48.0004         43.0004
  -1100871.62347   -837525.95646  24229743.2964   24229752.8244   24229742.327
        43.0004         39.0004
 -12397175.25449  -9654489.47348  21359842.7884   21359850.4414   21359841.982
        54.0004         49.0004
   5836336.39748   4559479.64947  22487315.4604   22487324.2664   22487314.936
        50.0004         45.0004
 -13231355.22648 -10299394.92048  20988467.4134   20988473.4544   20988467.880
        53.0004         49.0004
   4011756.76647   3167713.75546  24054601.7834   24054613.1214   24054601.169
        45.0004         41.0004
 15  5  1  2  4  0.0000000  0  9G28G20G17G02G09G06G30G10G03
 -23717139.89849 -18435632.39748  20364537.9394   20364541.8724   20364538.123
        55.0004         51.0004
  -1352367.26347   -992654.39946  24355165.5404   24355173.6334   24355165.937
        43.0004         38.0004
  -5176971.29748  -3986829.81347  23259943.7514   23259948.3344   23259943.068
        48.0004         44.0004
  -4608083.87348  -3554845.71347  23162977.4074   23162982.0304   23162979.131
        48.0004         43.0004
  -1115728.09847   -849102.47146  24226914.4954   24226924.4984   24226914.538
        43.0004         38.0004
 -12370674.62049  -9633839.63548  21364885.6534   21364893.1054   21364884.704
        54.0004         49.0004
   5913403.63048   4619532.00247  22501981.0964   22501988.5144   22501980.968
        50.0004         45.0004
 -13303207.71148 -10355383.79648  20974794.1054   20974800.4674   20974794.726
        53.0004         49.0004
   4096747.44947   3233940.16646  24070774.5204   24070786.8194   24070774.260
        45.0004         41.0004
 15  5  1  2  4 30.0000000  0  9G28G20G17G02G09G06G30G10G03
 -23745300.15349 -18457575.43248  20359179.1954   20359182.9534   20359179.977
        55.0004         51.0004
  -1455927.97647  -1073351.07046  24335458.3064   24335466.7994   24335459.211
        42.0004         38.0004
  -5200543.12748  -4005197.47547  23255458.5224   23255462.8744   23255457.174
        48.0004         44.0004
  -4631602.16948  -3573171.55947  23158502.8784   23158507.6224   23158502.508
        48.0004         43.0004
  -1130619.48847   -860706.17246  24224079.4184   24224089.4944   24224079.964
        42.0004         37.0004
 -12343892.39449  -9612970.37148  21369982.6414   21369989.4724   21369982.228
        54.0004         49.0004
   5990518.88948   4679621.78247  22516654.6904   22516664.1364   22516654.458
        50.0004         45.0004
 -13374681.76248 -10411077.79048  20961193.1604   20961199.3584   20961193.840
        53.0004         49.0004
   4182028.60647   3300392.91246  24087003.7344   24087014.9974   24087002.617
        45.0004         41.0004
 15  5  1  2  5  0.0000000  0  9G28G20G17G02G09G06G30G10G03
 -23772954.04649 -18479123.90548  20353916.5784   20353920.9654   20353917.013
        55.0004         51.0004
  -1559475.55447  -1154037.50046  24315754.2834   24315762.9584   24315754.819
        43.0004         38.0004
  -5224288.94848  -4023700.69447  23250939.0924   23250944.0474   23250937.792
        48.0004         44.0004
  -4654803.35348  -3591250.33647  23154088.4814   23154092.5724   23154088.985
        48.0004         44.0004
  -1145547.21247   -872338.22846  24221242.1154   24221249.7364   24221243.402
        43.0004         38.0004
 -12316834.34749  -9591886.18448  21375131.2594   21375138.3244   21375130.057
        54.0004         49.0004
   6067676.04048   4739744.22047  22531337.5244   22531346.0274   22531337.233
        50.0004         45.0004
 -13445777.83748 -10466477.25248  20947663.5374   20947670.3594   20947664.365
        53.0004         49.0004
   4267594.61347   3367067.63246  24103286.5774   24103297.7814   24103285.043
        45.0004         41.0004
 15  5  1  2  5 30.0000000  0  9G28G20G17G02G09G06G30G10G03
 -23800098.84649 -18500275.67548  20348751.1294   20348755.1264   20348751.354
        55.0004         51.0004
  -1663006.33347  -1234710.84746  24296053.5064   24296063.3474   24296053.754
        42.0004         38.0004
  -5248207.47948  -4042338.47547  23246386.4484   23246393.6124   23246386.409
        48.0004         44.0004
  -4677687.74148  -3609082.25047  23149731.4204   23149735.8124   23149732.716
        48.0004         43.0004
  -1160508.48047   -883996.44446  24218395.1394   24218403.6704   24218395.406
        43.0004         39.0004
 -12289502.02749  -9570588.27148  21380332.4264   21380339.3744   21380331.499
        54.0004         49.0004
   6144873.18148   4799897.79247  22546027.0834   22546036.4614   22546027.373
        50.0004         45.0004
 -13516491.94548 -10521579.07748  20934207.4844   20934213.5514   20934208.134
        53.0004         49.0004
   4353444.03947   3433963.17946  24119623.0684   24119634.6644   24119621.302
        45.0004         40.0004
 15  5  1  2  6  0.0000000  0  9G28G20G17G02G09G06G30G10G03
 -23826730.14149 -18521027.31848  20343683.6604   20343687.2994   20343683.637
        55.0004         51.0004
  -1766515.94847  -1315367.69346  24276356.3864   24276364.9474   24276355.206
        42.0004         38.0004
  -5272295.47448  -4061108.31047  23241804.4874   23241809.4574   23241802.863
        48.0004         44.0004
  -4700253.98948  -3626666.25547  23145437.5444   23145442.0834   23145438.678
        48.0004         43.0004
  -1175498.95347   -895677.36446  24215539.4074   24215551.2204   24215539.431
        43.0004         38.0004
 -12261895.43349  -9549076.64248  21385585.9704   21385592.8934   21385585.424
        54.0004         49.0004
   6222110.01948   4860082.31247  22560724.6864   22560734.0984   22560724.517
        50.0004         45.0004
 -13586818.90048 -10576379.22348  20920824.7174   20920830.3644   20920825.228
        53.0004         49.0004
   4439577.14147   3501079.79046  24136012.8534   24136024.5314   24136011.364
        45.0004         40.0004
 15  5  1  2  6 30.0000000  0  9G28G20G17G02G09G06G30G10G03
 -23852849.60349 -18541380.12948  20338713.1304   20338716.7914   20338713.263
        55.0004         51.0004
  -1870005.48747  -1396008.89746  24256662.1724   24256669.8444   24256662.970
        42.0004         38.0004
  -5296555.53648  -4080012.25147  23237186.9034   23237192.3994   23237187.595
        48.0004         44.0004
  -4722506.48548  -3644005.77947  23141204.0254   23141207.4204   23141205.363
        48.0004         43.0004
  -1190520.14447   -907382.21146  24212681.2504   24212692.3794   24212680.300
        42.0004         37.0004
 -12234020.48249  -9527355.90848  21390890.4274   21390897.4264   21390889.446
        54.0004         49.0004
   6299380.28648   4920292.87947  22575429.1024   22575438.5804   22575428.657
        49.0004         45.0004
 -13656759.31848 -10630878.17948  20907515.3594   20907521.2984   20907516.006
        53.0004         49.0004
   4525988.20647   3568412.97946  24152455.4804   24152468.3754   24152454.285
        45.0004         40.0004
 15  5  1  2  7  0.0000000  0  9G28G20G17G02G09G06G30G10G03
 -23878454.48249 -18561331.97348  20333840.3454   20333844.2044   20333840.390
        55.0004         51.0004
  -1973471.65247  -1476631.86546  24236972.9274   24236980.0064   24236973.044
        42.0004         38.0004
  -5320985.81948  -4099048.81747  23232538.8554   23232542.5544   23232539.064
        49.0004         44.0004
  -4744445.42547  -3661101.00147  23137029.0614   23137032.3374   23137029.430
        47.0004         42.0004
  -1205569.03947   -919108.69046  24209818.4084   24209827.2474   24209818.731
        42.0004         37.0004
 -12205878.46549  -9505427.07648  21396245.6444   21396252.6854   21396244.894
        54.0004         49.0004
   6376682.36048   4980528.22747  22590139.4474   22590149.0464   22590139.343
        49.0004         45.0004
 -13726309.49648 -10685073.04048  20894279.8794   20894286.8074   20894280.653
        53.0004         49.0004
   4612676.00547   3635961.84446  24168952.8104   24168964.1794   24168951.527
        44.0004         40.0004
 15  5  1  2  7 30.0000000  0  9G28G20G17G02G09G06G30G10G03
 -23903544.30949 -18580882.47548  20329065.9214   20329070.2404   20329066.889
        55.0004         51.0004
  -2076913.59247  -1557235.94446  24217288.0264   24217296.4664   24217289.073
        42.0004         38.0004
  -5345586.75748  -4118218.35847  23227856.5804   23227862.5664   23227855.820
        48.0004         44.0004
  -4766073.16347  -3677953.70647  23132913.0644   23132917.5794   23132913.993
        47.0004         43.0004
  -1220644.98647   -930856.23746  24206951.5284   24206957.7814   24206951.637
        42.0004         37.0004
 -12177473.26449  -9483293.15448  21401650.7484   21401657.9434   21401650.370
        54.0004         49.0004
   6454012.10148   5040785.13347  22604854.6064   22604864.3244   22604854.060
        49.0004         45.0004
 -13795467.75748 -10738962.50748  20881119.3984   20881126.1084   20881120.737
        53.0004         49.0004
   4699636.96847   3703723.52246  24185500.7944   24185513.3044   24185499.248
        44.0004         39.0004
 15  5  1  2  8  0.0000000  0  9G28G20G17G02G09G06G30G10G03
 -23928111.66749 -18600025.86548  20324390.8484   20324395.0964   20324391.141
        55.0004         51.0004
  -2180323.45647  -1637815.05446  24197610.9014   24197618.4304   24197609.644
        42.0004         38.0004
  -5370352.50948  -4137516.32047  23223143.9534   23223148.8794   23223145.181
        48.0004         44.0004
  -4787385.40448  -3694560.56847  23128856.4724   23128861.1824   23128857.683
        48.0004         43.0004
  -1235740.71247   -942619.24746  24204074.8104   24204087.2314   24204074.023
        42.0004         37.0004
 -12148801.90849  -9460951.84248  21407106.4704   21407114.3154   21407106.319
        54.0004         49.0004
   6531372.20448   5101065.68947  22619575.4784   22619584.7234   22619575.951
        49.0004         45.0004
 -13864225.72348 -10792540.06848  20868035.3554   20868041.5754   20868035.852
        53.0004         49.0004
   4786874.17447   3771700.48046  24202101.6644   24202114.9084   24202100.902
        44.0004         39.0004
 15  5  1  2  8 30.0000000  0  9G28G20G17G02G09G06G30G10G03
 -23952161.50549 -18618765.99448  20319814.7424   20319818.7184   20319814.602
        55.0004         51.0004
  -2283705.56247  -1718372.52346  24177938.4304   24177946.2484   24177937.447
        43.0004         38.0004
  -5395288.82648  -4156947.20447  23218400.4454   23218405.0594   23218399.638
        49.0004         44.0004
  -4808389.83448  -3710927.58847  23124859.9304   23124864.3784   23124860.836
        48.0004         43.0004
  -1250860.83447   -954401.19446  24201200.3664   24201208.0144   24201199.933
        42.0004         37.0004
 -12119873.50749  -9438410.24148  21412611.6904   21412618.6774   21412611.029
        54.0004         49.0004
   6608753.22048   5161362.57347  22634300.4284   22634310.0904   22634299.951
        49.0004         45.0004
 -13932587.51648 -10845808.91748  20855026.8614   20855032.7084   20855027.207
        53.0004         49.0004
   4874378.72447   3839885.72646  24218752.8334   24218764.2254   24218753.615
        43.0004         39.0004
 15  5  1  2  9  0.0000000  0  9G28G20G17G02G09G06G30G10G03
 -23975687.01849 -18637097.55648  20315337.9964   20315341.7804   20315338.553
        55.0004         51.0004
  -2387052.58147  -1798902.63946  24158270.0784   24158279.3734   24158271.902
        43.0004         39.0004
  -5420389.76548  -4176506.35447  23213622.6384   23213627.4164   23213622.450
        48.0004         44.0004
  -4829082.75547  -3727051.85847  23120921.9894   23120926.3104   23120923.138
        47.0004         43.0004
  -1265998.31547   -966196.68246  24198317.7734   24198328.5914   24198316.730
        43.0004         38.0004
 -12090685.44649  -9415666.30348  21418165.7954   21418173.6744   21418165.429
        54.0004         49.0004
   6686157.62548   5221677.66947  22649030.4024   22649040.6244   22649030.936
        49.0004         45.0004
 -14000545.26349 -10898762.92348  20842094.5274   20842101.0174   20842095.537
        54.0004         49.0004
   4962153.38247   3908281.47246  24235454.8014   24235468.0374   24235455.392
        43.0004         38.0004
 15  5  1  2  9 30.0000000  0  9G28G20G17G02G09G06G30G10G03
 -23998687.92749 -18655020.33748  20310960.7294   20310964.8154   20310961.108
        55.0004         51.0004
  -2490363.73247  -1879404.79946  24138611.1584   24138620.3784   24138611.539
        44.0004         39.0004
  -5445656.24848  -4196194.50847  23208814.2784   23208820.0254   23208812.866
        48.0004         44.0004
  -4849466.60547  -3742935.32347  23117043.2564   23117048.0614   23117044.848
        47.0004         43.0004
  -1281152.75547   -978005.44146  24195435.8334   24195444.5514   24195435.401
        43.0004         39.0004
 -12061241.70149  -9392723.13148  21423768.9414   21423776.2504   21423768.703
        54.0004         49.0004
   6763581.12648   5282007.63847  22663764.1124   22663773.1714   22663764.447
        49.0004         45.0004
 -14068097.45149 -10951400.90948  20829239.0374   20829245.7944   20829240.018
        54.0004         49.0004
   5050194.34847   3976884.72946  24252211.1184   24252222.5454   24252208.566
        43.0004         38.0004
 15  5  1  2 10  0.0000000  0  9G28G20G17G02G09G06G30G10G03
 -24021162.81349 -18672533.22848  20306684.3304   20306687.9234   20306684.618
        55.0004         51.0004
  -2593636.98347  -1959877.43546  24118958.3964   24118967.7894   24118958.906
        44.0004         39.0004
  -5471087.52448  -4216011.05547  23203974.4644   23203981.3964   23203974.608
        49.0004         44.0004
  -4869543.05147  -3758579.27747  23113222.8624   23113227.1454   23113224.439
        47.0004         43.0004
  -1296322.44647   -989825.96446  24192548.2334   24192559.6094   24192547.530
        43.0004         39.0004
 -12031545.13249  -9369582.95648  21429419.7824   21429427.3984   21429419.442
        54.0004         49.0004
   6841020.64748   5342350.08647  22678499.8804   22678509.8854   22678499.640
        49.0004         45.0004
 -14135241.92249 -11003721.19548  20816461.9414   20816468.8214   20816462.642
        54.0004         49.0004
   5138498.91547   4045693.37746  24269015.2084   24269025.2094   24269013.677
        42.0004         38.0004
 15  5  1  2 10 30.0000000  0  9G28G20G17G02G09G06G30G10G03
 -24043110.34149 -18689635.19248  20302507.7754   20302511.5444   20302508.134
        55.0004         51.0004
  -2696869.91147  -2040318.63846  24099314.1184   24099322.7134   24099314.955
        44.0004         40.0004
  -5496683.05148  -4235955.60147  23199105.8704   23199110.6514   23199104.854
        49.0004         44.0004
  -4889313.58048  -3773984.82047  23109461.3684   23109465.9754   23109459.948
        48.0004         43.0004
  -1311505.81447  -1001657.24646  24189661.4824   24189668.9744   24189659.985
        44.0004         40.0004
 -12001598.43248  -9346247.87448  21435118.7984   21435126.2694   21435118.003
        53.0004         49.0004
   6918473.26148   5402702.74947  22693238.6924   22693248.5664   22693239.171
        49.0004         45.0004
 -14201976.20449 -11055721.86048  20803763.0414   20803769.4564   20803763.614
        54.0004         49.0004
   5227064.54047   4114705.45846  24285869.2684   24285879.1924   24285866.968
        43.0004         38.0004
 15  5  1  2 11  0.0000000  0  9G28G20G17G02G09G06G30G10G03
 -24064527.94449 -18706324.22648  20298431.8984   20298436.0314   20298432.286
        55.0004         51.0004
  -2800060.06547  -2120726.49646  24079678.2824   24079686.1574   24079677.923
        44.0004         40.0004
  -5522441.35448  -4256026.98947  23194202.9194   23194208.3664   23194203.545
        49.0004         44.0004
  -4908778.52448  -3789152.24747  23105757.1314   23105760.7824   23105757.725
        48.0004         43.0004
  -1326699.91247  -1013496.80646  24186768.8844   24186779.5834   24186768.199
        44.0004         40.0004
 -11971403.33748  -9322719.24848  21440864.8454   21440871.8334   21440863.603
        53.0004         49.0004
   6995937.02448   5463064.09447  22707978.9484   22707989.3544   22707979.465
        49.0004         44.0004
 -14268296.85549 -11107400.21348  20791142.9654   20791149.1444   20791143.260
        54.0004         49.0004
   5315889.64047   4183919.73546  24302772.1094   24302783.7164   24302770.881
        43.0004         38.0004
 15  5  1  2 11 30.0000000  0  9G28G20G17G02G09G06G30G10G03
 -24085412.61749 -18722597.99148  20294457.6784   20294461.8424   20294457.932
        55.0004         51.0004
  -2903203.51447  -2201097.95646  24060050.3094   24060058.5554   24060051.218
        45.0004         40.0004
  -5548360.08848  -4276223.39547  23189270.2004   23189274.7494   23189269.782
        49.0004         44.0004
  -4927937.82648  -3804081.50047  23102110.0324   23102114.4284   23102110.639
        48.0004         43.0004
  -1341901.55447  -1025342.32546  24183875.5774   24183885.0274   24183877.209
        45.0004         40.0004
 -11940960.94248  -9298997.91448  21446657.5614   21446665.0074   21446656.607
        53.0004         49.0004
   7073410.69548   5523433.15647  22722723.2604   22722731.6804   22722723.061
        49.0004         45.0004
 -14334199.47249 -11158752.83248  20778602.2674   20778608.2264   20778602.702
        54.0004         49.0004
   5404973.30747   4253335.48946  24319722.7304   24319734.6644   24319722.600
        43.0004         38.0004
 15  5  1  2 12  0.0000000  0  9G28G20G17G02G09G06G30G10G03
 -24105766.14849 -18738457.87748  20290584.5994   20290588.3784   20290584.811
        55.0004         51.0004
  -3006301.32347  -2281433.84746  24040432.1524   24040439.9224   24040432.515
        45.0004         40.0004
  -5574441.84248  -4296546.81247  23184306.5134   23184312.6364   23184306.916
        49.0004         44.0004
  -4946796.07148  -3818776.18747  23098522.0834   23098527.1814   23098522.452
        48.0004         43.0004
  -1357112.00147  -1037194.67046  24180982.6734   24180989.4574   24180982.869
        44.0004         39.0004
 -11910277.09148  -9275088.43048  21452496.4814   21452504.0134   21452495.589
        53.0004         49.0004
   7150888.19048   5583805.21147  22737466.6194   22737475.0444   22737465.268
        49.0004         44.0004
 -14399685.02049 -11209780.45948  20766140.0964   20766146.5144   20766141.195
        54.0004         49.0004
   5494309.83247   4322948.25646  24336722.5754   24336734.3274   24336722.917
        43.0004         38.0004
 15  5  1  2 12 30.0000000  0  9G28G20G17G02G09G06G30G10G03
 -24125581.56149 -18753898.45348  20286813.4524   20286817.5594   20286813.751
        55.0004         51.0004
  -3109345.77747  -2361728.14946  24020824.7194   24020830.5534   24020824.038
        45.0004         40.0004
  -5600680.31748  -4316992.34247  23179314.3904   23179319.4334   23179313.519
        49.0004         44.0004
  -4965349.10448  -3833233.04547  23094990.4404   23094995.6454   23094992.520
        48.0004         43.0004
  -1372323.96947  -1049048.20846  24178086.2554   24178096.3054   24178085.995
        44.0004         39.0004
 -11879348.90948  -9250988.56648  21458381.9824   21458389.7564   21458381.031
        53.0004         49.0004
   7228372.24748   5644182.35647  22752211.0554   22752220.5824   22752211.519
        49.0004         44.0004
 -14464745.21949 -11260476.64248  20753759.7914   20753766.0264   20753760.359
        54.0004         49.0004
   5583902.16147   4392760.34546  24353770.5044   24353783.3264   24353771.043
        42.0004         37.0004
 15  5  1  2 13  0.0000000  0  9G28G20G17G02G09G06G30G10G03
 -24144862.74149 -18768922.74048  20283144.9094   20283148.5544   20283145.287
        55.0004         51.0004
  -3212339.89347  -2441983.22946  24001223.6474   24001231.6024   24001223.983
        45.0004         40.0004
  -5627080.04248  -4337563.54347  23174290.1994   23174295.7144   23174290.344
        49.0004         44.0004
  -4983603.73648  -3847457.38147  23091516.9254   23091521.8904   23091517.423
        48.0004         43.0004
  -1387540.87547  -1060905.64146  24175191.9374   24175199.5694   24175191.976
        43.0004         39.0004
 -11848184.40048  -9226704.55148  21464312.5484   21464319.6054   21464311.718
        53.0004         49.0004
   7305854.63148   5704558.21547  22766954.9624   22766963.8694   22766954.982
        49.0004         44.0004
 -14529382.91749 -11310843.60748  20741459.5244   20741465.8904   20741460.302
        54.0004         50.0004
   5673742.51647   4462765.73546  24370866.6904   24370879.7434   24370866.005
        42.0004         38.0004
 15  5  1  2 13 30.0000000  0  9G28G20G17G02G09G06G30G10G03
 -24163604.05649 -18783526.36148  20279578.4004   20279582.2284   20279578.873
        55.0004         51.0004
  -3315277.16147  -2522194.01246  23981634.7064   23981643.7684   23981635.036
        45.0004         40.0004
  -5653635.95448  -4358256.43447  23169236.6054   23169243.1374   23169237.082
        49.0004         44.0004
  -5001556.66548  -3861446.62747  23088101.7934   23088104.6634   23088101.673
        48.0004         44.0004
  -1402756.53647  -1072762.02246  24172295.5034   24172306.4844   24172295.929
        45.0004         41.0004
 -11816781.88248  -9202235.06048  21470287.9114   21470295.4394   21470287.367
        53.0004         49.0004
   7383337.01448   5764934.07147  22781699.6614   22781709.0474   22781699.846
        49.0004         44.0004
 -14593591.33249 -11360876.06848  20729241.1014   20729247.2314   20729241.562
        54.0004         50.0004
   5763832.72547   4532965.78846  24388012.4744   24388022.8984   24388012.018
        42.0004         37.0004
 15  5  1  2 14  0.0000000  0  9G28G20G17G02G09G06G30G10G03
 -24181806.05049 -18797709.72348  20276114.4494   20276118.4454   20276114.977
        55.0004         51.0004
  -3418157.33347  -2602360.29846  23962058.5434   23962066.2914   23962057.562
        45.0004         40.0004
  -5680349.14448  -4379071.87047  23164154.1344   23164158.6344   23164153.824
        49.0004         44.0004
  -5019211.86448  -3875203.89947  23084741.5894   23084745.0814   23084741.886
        48.0004         43.0004
  -1417971.09447  -1084617.65246  24169402.0244   24169410.0634   24169400.516
        45.0004         40.0004
 -11785145.93048  -9177583.67348  21476308.0204   21476315.4634   21476307.430
        53.0004         49.0004
   7460814.53648   5825306.13947  22796441.9064   22796451.5904   22796442.341
        48.0004         44.0004
 -14657370.00449 -11410573.66348  20717104.0844   20717110.7314   20717104.837
        54.0004         50.0004
   5854168.30747   4603357.04046  24405202.9804   24405213.6024   24405202.294
        42.0004         38.0004
 15  5  1  2 14 30.0000000  0  9G28G20G17G02G09G06G30G10G03
 -24199466.45749 -18811471.07848  20272753.8244   20272758.1194   20272754.483
        55.0004         51.0004
  -3520977.76647  -2682480.01846  23942492.3964   23942499.7484   23942491.822
        45.0004         40.0004
  -5707217.76848  -4400008.44647  23159041.3154   23159046.2094   23159040.779
        49.0004         44.0004
  -5036569.95748  -3888729.64747  23081438.7784   23081442.0284   23081439.984
        48.0004         43.0004
  -1433181.92947  -1096470.23346  24166503.6834   24166516.8904   24166501.729
        45.0004         40.0004
 -11753278.46648  -9152751.88448  21482372.4344   21482380.2324   21482371.373
        53.0004         49.0004
   7538285.24648   5885672.89347  22811184.7584   22811194.8804   22811185.788
        48.0004         44.0004
 -14720715.46249 -11459933.69048  20705050.1264   20705056.0734   20705050.895
        54.0004         50.0004
   5944747.48147   4673938.13146  24422439.4454   24422451.6114   24422439.901
        42.0004         38.0004
 15  5  1  2 15  0.0000000  0  9G28G20G17G02G09G06G30G10G03
 -24216582.95949 -18824808.60548  20269496.8414   20269500.6334   20269497.109
        55.0004         51.0004
  -3623734.87447  -2762550.39046  23922936.2824   23922945.9554   23922937.317
        45.0004         40.0004
  -5734240.40148  -4421065.00647  23153898.2564   23153904.3844   23153897.587
        49.0004         44.0004
  -5053630.78048  -3902023.71247  23078192.2014   23078195.5364   23078192.355
        48.0004         43.0004
  -1448385.97347  -1108317.64346  24163613.4724   24163622.2914   24163611.996
        45.0004         41.0004
 -11721180.95048  -9127740.84148  21488480.2424   21488487.8934   21488479.609
        53.0004         49.0004
   7615747.55648   5946033.09747  22825925.8664   22825935.2494   22825925.558
        48.0004         44.0004
 -14783623.92449 -11508953.21548  20693079.2154   20693084.9794   20693079.766
        54.0004         50.0004
   6035568.92147   4744708.02246  24439723.3904   24439732.9754   24439724.180
        42.0004         38.0004
 15  5  1  2 15 30.0000000  0  9G28G20G17G02G09G06G30G10G03
 -24233154.18549 -18837721.24048  20266343.4864   20266347.3184   20266344.163
        55.0004         51.0004
  -3726426.39747  -2842569.65146  23903394.7834   23903403.9204   23903396.134
        45.0004         41.0004
  -5761415.78748  -4442240.60547  23148727.9444   23148732.2204   23148727.829
        49.0004         44.0004
  -5070396.04348  -3915087.50847  23075001.0894   23075005.2594   23075002.265
        48.0004         43.0004
  -1463581.25647  -1120158.19546  24160723.1984   24160731.2134   24160722.498
        45.0004         41.0004
 -11688856.03948  -9102552.60848  21494631.4094   21494638.9294   21494630.902
        53.0004         48.0004
   7693198.70648   6006384.61747  22840664.7694   22840673.2094   22840664.217
        48.0004         44.0004
 -14846092.94549 -11557630.31348  20681191.6754   20681197.5964   20681192.452
        54.0004         50.0004
   6126630.11247   4815664.68246  24457050.1774   24457060.8964   24457050.433
        42.0004         37.0004
 15  5  1  2 16  0.0000000  0  9G28G20G17G02G09G06G30G10G03
 -24249179.36849 -18850208.39648  20263293.8744   20263297.9334   20263294.483
        55.0004         51.0004
  -3829050.88247  -2922536.68446  23883866.6604   23883876.3654   23883866.597
        45.0004         41.0004
  -5788744.46048  -4463535.65347  23143526.7844   23143531.3554   23143526.930
        49.0004         44.0004
  -5086867.76948  -3927922.60247  23071866.6714   23071871.2744   23071867.028
        48.0004         44.0004
  -1478766.80447  -1131991.17547  24157833.7104   24157842.2574   24157833.359
        46.0004         42.0004
 -11656307.16548  -9077189.86048  21500825.4024   21500833.4614   21500824.964
        53.0004         49.0004
   7770635.21248   6066724.71247  22855399.4274   22855409.1994   22855399.867
        48.0004         44.0004
 -14908120.78049 -11605963.62748  20669387.5054   20669393.8344   20669388.232
        54.0004         50.0004
   6217927.72847   4886805.61746  24474424.8874   24474435.3284   24474424.088
        42.0004         37.0004
 15  5  1  2 16 30.0000000  0  9G28G20G17G02G09G06G30G10G03
 -24264657.11949 -18862268.97348  20260348.2894   20260352.6754   20260348.727
        55.0004         51.0004
  -3931605.63647  -3002449.37546  23864350.6734   23864360.1224   23864352.094
        46.0004         41.0004
  -5816224.86148  -4484948.92947  23138296.9394   23138302.5644   23138297.673
        49.0004         44.0004
  -5103048.18048  -3940530.67347  23068788.1714   23068791.6694   23068789.562
        48.0004         44.0004
  -1493940.31447  -1143814.77746  24154944.1684   24154952.9834   24154944.831
        46.0004         41.0004
 -11623536.64548  -9051654.40048  21507061.4234   21507068.7094   21507060.927
        53.0004         48.0004
   7848054.60048   6127051.49047  22870132.0204   22870142.0824   22870132.741
        48.0004         44.0004
 -14969704.75449 -11653951.08048  20657668.7364   20657674.4164   20657668.935
        54.0004         50.0004
   6309459.66447   4958129.07446  24491841.7664   24491852.1634   24491841.860
        42.0004         37.0004
 15  5  1  2 17  0.0000000  0  9G28G20G17G02G09G06G30G10G03
 -24279585.14049 -18873901.19748  20257507.6854   20257511.8004   20257508.150
        55.0004         51.0004
  -4034087.52647  -3082305.29847  23844850.0054   23844858.0354   23844850.169
        46.0004         42.0004
  -5843854.22748  -4506478.27447  23133038.4314   23133044.1054   23133038.017
        49.0004         44.0004
  -5118936.49048  -3952911.09947  23065764.6594   23065768.9584   23065764.630
        48.0004         44.0004
  -1509098.94947  -1155626.71246  24152059.4474   24152070.3734   24152058.838
        46.0004         41.0004
 -11590546.08048  -9025947.47248  21513339.4354   21513346.7424   21513339.122
        53.0004         49.0004
   7925455.28948   6187363.69447  22884862.2604   22884871.3554   22884861.380
        48.0004         44.0004
 -15030841.45449 -11701590.00648  20646034.8214   20646040.8144   20646035.140
        54.0004         50.0004
   6401224.33447   5029633.90246  24509304.3464   24509315.2084   24509302.761
        42.0004         38.0004
 15  5  1  2 17 30.0000000  0  9G28G20G17G02G09G06G30G10G03
 -24293960.97349 -18885103.14448  20254772.1824   20254776.1314   20254772.114
        55.0004         51.0004
  -4136493.32147  -3162101.90947  23825362.9044   23825370.7094   23825362.702
        46.0004         42.0004
  -5871631.81048  -4528123.10947  23127754.4604   23127759.1994   23127754.125
        49.0004         44.0004
  -5134532.84748  -3965064.07347  23062797.4104   23062800.2164   23062797.868
        49.0004         44.0004
  -1524239.39547  -1167424.54946  24149178.3964   24149187.9624   24149178.659
        45.0004         40.0004
 -11557336.78348  -9000070.10948  21519659.0174   21519665.8564   21519658.766
        53.0004         48.0004
   8002835.87648   6247660.22347  22899586.6514   22899597.0924   22899586.559
        48.0004         44.0004
 -15091527.22649 -11748877.55648  20634486.8504   20634492.8144   20634487.480
        54.0004         50.0004
   6493220.54547   5101319.16346  24526810.9174   24526822.4524   24526809.638
        42.0004         38.0004
 15  5  1  2 18  0.0000000  0  9G28G20G17G02G09G06G30G10G03
 -24307786.81749 -18895876.52648  20252141.2104   20252145.1284   20252141.547
        55.0004         51.0004
  -4238823.86747  -3241839.89746  23805889.4504   23805898.0834   23805890.214
        46.0004         41.0004
  -5899559.61648  -4549885.01147  23122439.7894   23122444.4884   23122438.975
        49.0004         44.0004
  -5149842.95848  -3976994.02147  23059882.6764   23059887.7424   23059883.660
        48.0004         44.0004
  -1539363.24347  -1179209.38047  24146303.1454   24146310.9504   24146302.824
        46.0004         42.0004
 -11523914.96448  -8974027.14848  21526018.9294   21526026.3744   21526017.997
        53.0004         48.0004
   8080190.10348   6307936.19247  22914306.2144   22914315.7324   22914305.556
        48.0004         44.0004
 -15151762.88249 -11795814.37348  20623024.3204   20623030.0934   20623025.039
        54.0004         50.0004
   6585442.23047   5173180.11646  24544359.8404   24544372.8324   24544356.640
        42.0004         38.0004
 15  5  1  2 18 30.0000000  0  9G28G20G17G02G09G06G30G10G03
 -24321056.84249 -18906216.79848  20249616.1504   20249620.0204   20249616.113
        55.0004         51.0004
  -4341072.11947  -3321513.74946  23786432.7664   23786440.2954   23786432.671
        46.0004         41.0004
  -5927632.20348  -4571759.72447  23117097.1134   23117101.8774   23117095.118
        49.0004         44.0004
  -5164863.44948  -3988698.25847  23057024.8644   23057030.3224   23057024.156
        49.0004         44.0004
  -1554464.01947  -1190976.31346  24143428.2414   24143437.8914   24143428.029
        46.0004         41.0004
 -11490278.66148  -8947817.06148  21532419.7954   21532427.2464   21532419.032
        53.0004         48.0004
   8157519.90248   6368193.14647  22929021.4634   22929031.2044   22929022.323
        48.0004         44.0004
 -15211541.65049 -11842395.17248  20611648.5114   20611655.0044   20611649.283
        54.0004         50.0004
   6677891.44447   5245218.38446  24561952.6894   24561963.9954   24561949.873
        43.0004         38.0004
 15  5  1  2 19  0.0000000  0  9G28G20G17G02G09G06G30G10G03
 -24333772.17749 -18916124.84548  20247196.2574   20247200.1854   20247196.630
        55.0004         51.0004
  -4443238.59047  -3401123.87746  23766991.1424   23766999.8634   23766990.207
        46.0004         41.0004
  -5955850.90748  -4593748.29947  23111726.3044   23111733.0924   23111725.951
        49.0004         44.0004
  -5179597.85248  -4000179.58247  23054221.0464   23054224.9414   23054221.622
        49.0004         44.0004
  -1569542.18547  -1202725.57646  24140558.1054   24140567.5874   24140560.290
        46.0004         41.0004
 -11456432.86848  -8921443.71848  21538860.7454   21538867.6174   21538859.740
        53.0004         48.0004
   8234820.27248   6428427.16647  22943731.4754   22943741.2534   22943731.780
        48.0004         44.0004
 -15270863.26249 -11888619.75548  20600360.1034   20600366.1894   20600360.769
        54.0004         50.0004
   6770563.35347   5317430.18046  24579586.7084   24579598.8244   24579586.156
        43.0004         38.0004
 15  5  1  2 19 30.0000000  0  9G28G20G17G02G09G06G30G10G03
 -24345930.91449 -18925599.18148  20244882.7054   20244886.3944   20244883.271
        55.0004         51.0004
  -4545320.02047  -3480667.72446  23747564.7114   23747572.8874   23747565.842
        46.0004         41.0004
  -5984214.18948  -4615849.53947  23106329.6244   23106334.6574   23106329.430
        49.0004         44.0004
  -5194047.94148  -4011439.33247  23051469.9214   23051474.5994   23051471.179
        49.0004         44.0004
  -1584595.12547  -1214455.18146  24137691.8784   24137704.5954   24137691.404
        45.0004         40.0004
 -11422379.61648  -8894908.71548  21545340.1114   21545347.3084   21545339.487
        53.0004         48.0004
   8312089.18648   6488636.68747  22958435.0434   22958444.6214   22958435.855
        48.0004         44.0004
 -15329724.63549 -11934485.70548  20589159.0454   20589165.0734   20589159.172
        54.0004         49.0004
   6863455.92447   5389813.89546  24597264.6104   24597276.0414   24597264.696
        42.0004         38.0004
 15  5  1  2 20  0.0000000  0  9G28G20G17G02G09G06G30G10G03
 -24357531.22149 -18934638.37348  20242675.0864   20242678.8374   20242675.037
        55.0004         51.0004
  -4647313.04547  -3560142.69646  23728156.4934   23728164.5654   23728156.058
        46.0004         41.0004
  -6012719.66348  -4638061.58447  23100905.3214   23100909.6894   23100904.521
        49.0004         44.0004
  -5208213.58548  -4022477.48147  23048775.2434   23048779.6084   23048775.500
        48.0004         44.0004
  -1599619.83247  -1226162.82146  24134835.3974   24134844.1394   24134835.511
        45.0004         41.0004
 -11388120.38048  -8868213.21948  21551859.5134   21551867.2604   21551858.736
        53.0004         48.0004
   8389325.18748   6548820.53247  22973132.6174   22973143.2024   22973132.788
        48.0004         43.0004
 -15388122.30149 -11979990.33648  20578046.4644   20578052.2714   20578046.836
        54.0004         49.0004
   6956567.86347   5462368.57546  24614984.0494   24614994.8604   24614981.907
        42.0004         37.0004
 15  5  1  2 20 30.0000000  0  9G28G20G17G02G09G06G30G10G03
 -24368558.87249 -18943231.34148  20240576.7974   20240580.6124   20240576.856
        55.0004         51.0004
  -4749202.57247  -3639537.01046  23708766.4984   23708776.1574   23708767.393
        46.0004         41.0004
  -6041353.77548  -4660373.85947  23095456.2084   23095461.8694   23095455.827
        49.0004         44.0004
  -5222083.60848  -4033285.27747  23046136.0074   23046139.5884   23046136.274
        48.0004         44.0004
  -1614601.27047  -1237836.69646  24131984.7934   24131992.7614   24131984.513
        45.0004         40.0004
 -11353644.76248  -8841349.11748  21558420.3164   21558427.6794   21558419.957
        53.0004         48.0004
   8466538.63748   6608986.80647  22987826.8184   22987834.8484   22987827.142
        48.0004         43.0004
 -15446040.85349 -12025121.62848  20567024.8234   20567030.6794   20567025.676
        54.0004         50.0004
   7049909.62246   5535102.35546  24632741.8634   24632755.3704   24632744.812
        41.0004         36.0004
 15  5  1  2 21  0.0000000  0  9G28G20G17G02G09G06G30G10G03
 -24379041.19449 -18951399.38048  20238581.9294   20238585.7894   20238582.393
        55.0004         51.0004
  -4851014.81847  -3718871.11546  23689392.0864   23689401.3494   23689392.345
        45.0004         40.0004
  -6070143.70348  -4682807.55247  23089978.5054   23089983.0624   23089977.589
        49.0004         44.0004
  -5235687.66248  -4043885.80547  23043547.4594   23043552.4074   23043547.440
        49.0004         44.0004
  -1629565.99247  -1249497.62046  24129137.0684   24129145.8234   24129136.787
        45.0004         41.0004
 -11318983.91848  -8814340.68148  21565015.9154   21565023.4074   21565015.492
        53.0004         48.0004
   8543698.41248   6669111.29047  23002509.2464   23002518.6474   23002509.409
        48.0004         43.0004
 -15503506.54349 -12069900.04148  20556089.2384   20556095.4774   20556089.758
        54.0004         49.0004
 -24364949.83446 -18944008.97045  24650543.8134   24650557.9974   24650540.956
        40.0004         35.0004
 15  5  1  2 21 30.0000000  0  9G28G20G17G02G09G06G30G10G03
 -24388959.12149 -18959127.62948  20236694.7604   20236698.5194   20236695.077
        55.0004         51.0004
  -4952729.36847  -3798129.08546  23670035.9214   23670045.3814   23670036.846
        45.0004         40.0004
  -6099070.38848  -4705347.79947  23084473.4804   23084479.0434   23084473.098
        49.0004         44.0004
  -5249009.34548  -4054266.29247  23041011.8474   23041017.8594   23041012.132
        49.0004         44.0004
  -1644494.01047  -1261129.91946  24126294.6474   24126305.3544   24126292.906
        45.0004         40.0004
 -11284122.38148  -8787175.85548  21571649.7094   21571657.4884   21571649.861
        53.0004         48.0004
   8620820.02148   6729206.00047  23017184.6944   23017194.8984   23017185.395
        48.0004         43.0004
 -15560498.64649 -12114309.42248  20545243.7814   20545249.9674   20545244.562
        54.0004         50.0004
 -24271194.93446 -18870953.29945  24668382.8104   24668394.7804   24668386.178
        39.0004         34.0004
 15  5  1  2 22  0.0000000  0  8G28G20G17G02G09G06G30G10
 -24398315.79149 -18966418.53748  20234914.1724   20234917.8084   20234914.194
        55.0004         51.0004
  -5054348.40147  -3877312.63146  23650698.7824   23650706.9604   23650699.364
        45.0004         40.0004
  -6128137.45548  -4727997.44747  23078941.9394   23078947.8914   23078942.230
        49.0004         44.0004
  -5262054.58848  -4064431.39547  23038529.9794   23038533.7644   23038530.724
        49.0004         44.0004
  -1659387.71147  -1272735.45846  24123461.0724   24123472.7604   24123459.862
        45.0004         40.0004
 -11249067.22248  -8759860.14648  21578320.3704   21578328.2484   21578319.122
        53.0004         48.0004
   8697896.47048   6789265.52547  23031852.1004   23031862.2354   23031852.163
        48.0004         43.0004
 -15617019.30349 -12158351.44748  20534488.5294   20534494.6664   20534489.032
        54.0004         50.0004
 15  5  1  2 22 30.0000000  0  9G28G20G17G02G09G06G30G10G03
 -24407106.79749 -18973268.67048  20233241.5684   20233245.0094   20233241.813
        55.0004         51.0004
  -5155865.80547  -3956416.97346  23631381.0384   23631389.4684   23631380.959
        45.0004         40.0004
  -6157340.00548  -4750752.65947  23073384.3914   23073390.4724   23073383.841
        49.0004         44.0004
  -5274821.56448  -4074379.65447  23036099.9084   23036104.6944   23036100.237
        49.0004         44.0004
  -1674241.73047  -1284310.01946  24120635.5594   24120646.6094   24120633.689
        45.0004         41.0004
 -11213817.54048  -8732392.86648  21585028.0194   21585035.9314   21585027.105
        53.0004         48.0004
   8774928.68448   6849290.59047  23046510.6644   23046520.6614   23046511.159
        48.0004         43.0004
 -15673062.80049 -12202021.66448  20523823.8894   20523829.6714   20523824.662
        54.0004         50.0004
 -24083061.94956 -18724356.34555  24704183.7585   24704203.4905   24704184.640
        38.0004         33.0004
 15  5  1  2 23  0.0000000  0  9G28G20G17G02G09G06G30G10G03
 -24415332.45849 -18979678.27148  20231675.6804   20231679.9534   20231675.837
        55.0004         51.0004
  -5257280.53847  -4035441.31546  23612081.8754   23612090.3654   23612083.932
        45.0004         41.0004
  -6186678.27448  -4773613.63647  23067802.2644   23067807.9514   23067802.019
        49.0004         45.0004
  -5287313.06048  -4084113.23347  23033722.9724   23033726.8134   23033723.586
        49.0004         44.0004
  -1689055.04947  -1295852.98546  24117816.2514   24117825.4134   24117815.880
        45.0004         40.0004
 -11178377.05348  -8704776.91148  21591772.4904   21591779.5304   21591772.143
        53.0004         48.0004
   8851913.01948   6909278.34847  23061161.6494   23061169.8734   23061160.282
        48.0004         44.0004
 -15728627.78649 -12245319.01048  20513250.1274   20513255.9024   20513250.848
        54.0004         50.0004
 -23988686.64756 -18650817.32055  24722144.6385   24722158.8125   24722143.327
        38.0004         34.0004
 15  5  1  2 23 30.0000000  0  9G28G20G17G02G09G06G30G10G03
 -24422990.09449 -18985645.25848  20230218.7324   20230222.5604   20230219.101
        55.0004         50.0004
  -5358588.62147  -4114382.52246  23592804.6704   23592812.3164   23592804.417
        45.0004         41.0004
  -6216149.63448  -4796578.29547  23062192.6794   23062200.5254   23062192.289
        49.0004         44.0004
  -5299528.85148  -4093631.98847  23031398.5154   23031403.2134   23031399.226
        49.0004         44.0004
  -1703824.26647  -1307361.49946  24115005.7944   24115014.1614   24115005.897
        45.0004         40.0004
 -11142746.84948  -8677013.12748  21598552.6084   21598560.1314   21598551.906
        53.0004         48.0004
   8928848.50448   6969228.03147  23075801.5384   23075810.4684   23075801.126
        48.0004         43.0004
 -15783710.72449 -12288240.73848  20502768.0764   20502774.1374   20502768.561
        54.0004         50.0004
 -23894107.61256 -18577119.46055  24740142.2895   24740156.0785   24740143.681
        38.0004         34.0004
 15  5  1  2 24  0.0000000  0  8G28G20G17G02G09G06G30G10
 -24430082.79149 -18991172.03348  20228869.1504   20228872.9274   20228869.280
        55.0004         50.0004
  -5459791.88247  -4193242.05746  23573545.5944   23573553.1574   23573547.467
        45.0004         41.0004
  -6245757.09848  -4819649.03147  23056559.5664   23056565.4764   23056559.448
        49.0004         44.0004
  -5311474.91948  -4102940.59847  23029124.9834   23029129.2464   23029125.934
        49.0004         44.0004
  -1718551.42147  -1318837.31146  24112201.8354   24112211.5924   24112201.264
        45.0004         40.0004
 -11106933.61748  -8649106.72248  21605367.7084   21605375.6604   21605366.631
        53.0004         48.0004
   9005728.46748   7029134.47047  23090431.0774   23090440.1824   23090430.830
        48.0004         43.0004
 -15838313.21249 -12330788.07748  20492377.4624   20492383.3314   20492377.732
        54.0004         50.0004
 15  5  1  2 24 30.0000000  0  8G28G20G17G02G09G06G30G10
 -24436604.93849 -18996254.22448  20227627.7614   20227631.9284   20227628.398
        55.0004         50.0004
  -5560883.18247  -4272014.36746  23554309.0114   23554316.6734   23554309.561
        45.0004         41.0004
  -6275494.62148  -4842821.12447  23050901.0904   23050906.7284   23050900.041
        49.0004         45.0004
  -5323147.72848  -4112036.26647  23026904.3214   23026908.2154   23026904.991
        49.0004         44.0004
  -1733229.61747  -1330274.95246  24109410.7484   24109418.9284   24109409.892
        45.0004         41.0004
 -11070935.06348  -8621055.90448  21612217.8784   21612226.2654   21612218.062
        53.0004         48.0004
   9082555.34448   7088999.51947  23105051.3484   23105060.7394   23105050.760
        48.0004         43.0004
 -15892427.94749 -12372955.35748  20482079.5264   20482085.4244   20482080.394
        54.0004         50.0004
 15  5  1  2 25  0.0000000  0  8G28G20G17G02G09G06G30G10
 -24442557.65249 -19000892.69648  20226495.0444   20226499.2694   20226495.104
        55.0004         50.0004
  -5661862.24747  -4350699.22946  23535093.0044   23535100.6004   23535093.154
        46.0004         41.0004
  -6305363.46548  -4866095.54347  23045217.3424   23045221.7964   23045217.024
        49.0004         45.0004
  -5334551.21248  -4120922.05247  23024733.8074   23024737.8714   23024733.754
        48.0004         44.0004
  -1747859.16647  -1341674.63446  24106626.5394   24106637.1474   24106624.825
        45.0004         40.0004
 -11034756.10448  -8592864.50648  21619102.6344   21619110.3424   21619101.574
        53.0004         48.0004
   9159324.31548   7148819.43747  23119659.6724   23119669.4854   23119659.827
        48.0004         44.0004
 -15946055.08349 -12414742.68848  20471874.6984   20471880.5874   20471875.289
        54.0004         50.0004
 15  5  1  2 25 30.0000000  0  8G28G20G17G02G09G06G30G10
 -24447937.54749 -19005084.81848  20225471.2564   20225475.0164   20225471.536
        55.0004         50.0004
  -5762724.19747  -4429292.82846  23515899.5824   23515907.9154   23515899.962
        46.0004         41.0004
  -6335359.70248  -4889469.19147  23039508.6554   23039514.4804   23039507.692
        49.0004         45.0004
  -5345684.89448  -4129597.61247  23022615.2514   23022619.7704   23022615.754
        48.0004         44.0004
  -1762435.42247  -1353032.84946  24103853.3214   24103863.5044   24103853.607
        45.0004         41.0004
 -10998396.65848  -8564532.47648  21626021.6644   21626029.1904   21626020.581
        53.0004         48.0004
   9236035.53048   7208594.38547  23134258.1664   23134266.2114   23134257.595
        48.0004         44.0004
 -15999189.83049 -12456146.33948  20461763.5554   20461769.3344   20461764.345
        54.0004         50.0004
 15  5  1  2 26  0.0000000  0  8G28G20G17G02G09G06G30G10
 -24452747.13249 -19008832.55048  20224555.8054   20224559.9214   20224556.084
        55.0004         50.0004
  -5863469.82947  -4507795.75047  23496727.1354   23496736.2624   23496730.211
        46.0004         42.0004
  -6365485.37448  -4912943.73147  23033776.1314   23033781.7174   23033775.407
        49.0004         45.0004
  -5356553.14248  -4138066.35647  23020547.8494   23020551.0944   23020547.856
        49.0004         44.0004
  -1776959.69947  -1364350.47646  24101086.0534   24101099.5004   24101085.628
        45.0004         40.0004
 -10961862.61048  -8536064.38748  21632974.1954   21632981.1694   21632973.628
        53.0004         48.0004
   9312683.29248   7268319.88147  23148841.2224   23148851.2374   23148842.072
        48.0004         43.0004
 -16051833.04049 -12497166.97448  20451746.4644   20451751.4804   20451746.907
        54.0004         50.0004
 15  5  1  2 26 30.0000000  0  8G28G20G17G02G09G06G30G10
 -24456981.97849 -19012132.42948  20223750.2874   20223754.0804   20223750.563
        55.0004         50.0004
  -5964093.68247  -4586203.79347  23477580.1524   23477588.2264   23477579.883
        46.0004         42.0004
  -6395735.71648  -4936515.41947  23028019.1074   23028024.9384   23028018.452
        49.0004         45.0004
  -5367153.91248  -4146326.66147  23018529.0164   23018533.6044   23018530.418
        48.0004         43.0004
  -1791426.35447  -1375623.25246  24098335.0254   24098345.0914   24098335.049
        45.0004         40.0004
 -10925153.10448  -8507459.58548  21639959.4234   21639967.4944   21639958.790
        53.0004         48.0004
   9389268.61748   7327996.71647  23163416.7944   23163425.6634   23163416.015
        48.0004         43.0004
 -16103979.19449 -12537800.29948  20441822.5944   20441828.4254   20441823.430
        54.0004         50.0004
 15  5  1  2 27  0.0000000  0  8G28G20G17G02G09G06G30G10
 -24460642.92449 -19014985.11548  20223053.6364   20223057.6654   20223054.009
        55.0004         51.0004
  -6064594.83747  -4664516.24746  23458454.3484   23458463.4534   23458455.626
        46.0004         41.0004
  -6426111.57348  -4960184.88647  23022240.3504   23022245.3384   23022239.660
        50.0004         45.0004
  -5377490.81148  -4154381.36647  23016562.5094   23016567.4824   23016563.893
        48.0004         44.0004
  -1805835.14747  -1386850.96846  24095595.1094   24095602.2474   24095594.792
        45.0004         40.0004
 -10888272.34048  -8478721.33448  21646977.6044   21646985.3374   21646976.691
        53.0004         48.0004
   9465787.37148   7387621.68747  23177978.1484   23177987.2914   23177977.921
        48.0004         44.0004
 -16155627.55349 -12578045.72348  20431994.3014   20432000.1684   20431994.975
        54.0004         50.0004
