     2.11           OBSERVATION DATA    G (GPS)             RINEX VERSION / TYPE
teqc  2013Mar15     gpsops              20150502 00:09:04UTCPGM / RUN BY / DATE
Linux 2.4.21-27.ELsmp|Opteron|gcc -static|Linux x86_64|=+   COMMENT
BIT 2 OF LLI FLAGS DATA COLLECTED UNDER A/S CONDITION       COMMENT
BREW                                                        MARKER NAME
40473M001                                                   MARKER NUMBER
GGN                 JPL                                     OBSERVER / AGENCY
ZR20012101          ASHTECH UZ-12       CQ00                REC # / TYPE / VERS
CR620013703         ASH701945C_M    SCIT                    ANT # / TYPE
 -2112007.1404 -3705351.8421  4726827.1606                  APPROX POSITION XYZ
        0.0083        0.0000        0.0000                  ANTENNA: DELTA H/E/N
     1     1                                                WAVELENGTH FACT L1/2
     7    L1    L2    P1    P2    C1    S1    S2            # / TYPES OF OBSERV
    30.0000                                                 INTERVAL
This data is provided as a public service by NASA/JPL.      COMMENT
No warranty is expressed or implied regarding suitability   COMMENT
for use.  For further information, contact:                 COMMENT
Dave Stowers, NASA/JPL m/s 238-600                          COMMENT
4800 Oak Grove Drive, Pasadena CA 91109 USA                 COMMENT
                                                            COMMENT
Forced Modulo Decimation to 30 seconds                      COMMENT
 SNR is mapped to RINEX snr flag value [0-9]                COMMENT
  L1 & L2: min(max(int(snr_dBHz/6), 0), 9)                  COMMENT
pseudorange smoothing corrections not applied               COMMENT
  2015     5     1     0     0    0.0000000     GPS         TIME OF FIRST OBS
                                                            END OF HEADER
 15  5  1  0  0  0.0000000  0  9G15G04G13G24G11G01G30G17G28
 -11569913.15048  -8974354.54247  22848797.1034   22848799.9944   22848796.794
        49.0004         44.0004
  -4684163.57247  -3635175.35946  23906416.2374   23906421.0304   23906416.719
        42.0004         38.0004
 -14697295.35648 -11400401.59347  22160588.4814   22160592.2874   22160588.473
        49.0004         45.0004
  -4418799.23547  -3402564.48846  24301930.6404   24301938.0184   24301929.699
        42.0004         38.0004
 -10557744.68747  -8180806.04346  23249396.7094   23249400.9844   23249396.849
        45.0004         40.0004
 -10464784.83448  -8102434.45847  22909551.7654   22909557.1504   22909550.857
        48.0004         43.0004
  -7076582.47048  -5463429.51247  22799473.1334   22799478.8284   22799472.626
        49.0004         44.0004
 -16115445.19749 -12534274.30248  20902042.3724   20902044.7984   20902041.614
        55.0004         51.0004
 -20786715.16749 -16142387.78048  21158942.7084   21158945.2964   21158942.882
        54.0004         49.0004
 15  5  1  0  0 30.0000000  0  9G15G04G13G24G11G01G30G17G28
 -11547394.32048  -8956807.44547  22853082.7444   22853085.8054   22853081.666
        49.0004         45.0004
  -4632432.10947  -3594865.15646  23916259.9504   23916266.4644   23916262.545
        43.0004         38.0004
 -14623359.81848 -11342789.55047  22174658.2244   22174661.5624   22174657.577
        49.0004         45.0004
  -4521996.22047  -3482977.67246  24282293.8744   24282301.3604   24282294.241
        43.0004         39.0004
 -10496000.02647  -8132693.37446  23261146.5064   23261148.9644   23261147.624
        45.0004         40.0004
 -10463645.33247  -8101546.51447  22909768.4454   22909774.7874   22909768.514
        47.0004         43.0004
  -6980274.72648  -5388384.58047  22817799.4154   22817804.1754   22817798.667
        48.0004         44.0004
 -16153273.51249 -12563750.88048  20894843.7854   20894846.3404   20894842.987
        55.0004         51.0004
 -20751500.10649 -16114947.47848  21165644.2714   21165646.0464   21165644.089
        54.0004         49.0004
 15  5  1  0  1  0.0000000  0  9G15G04G13G24G11G01G30G17G28
 -11524324.85248  -8938831.27547  22857472.7064   22857475.3914   22857470.612
        49.0004         45.0004
  -4580149.44747  -3554125.47146  23926209.5194   23926214.4464   23926207.740
        42.0004         37.0004
 -14548961.88148 -11284817.18747  22188815.8004   22188819.7154   22188815.303
        49.0004         45.0004
  -4625069.85847  -3563294.70246  24262679.9054   24262685.8244   24262679.698
        43.0004         39.0004
 -10433730.45647  -8084171.66946  23272995.7164   23272998.2154   23272994.695
        45.0004         40.0004
 -10461894.30748  -8100182.07747  22910102.5034   22910108.5424   22910102.263
        48.0004         43.0004
  -6883710.10448  -5313139.48547  22836174.0884   22836181.1084   22836174.608
        48.0004         44.0004
 -16190617.52149 -12592850.08048  20887737.5314   20887739.7054   20887736.914
        55.0004         51.0004
 -20716063.70049 -16087334.69548  21172387.2764   21172389.4574   21172387.436
        54.0004         49.0004
 15  5  1  0  1 30.0000000  0  9G15G04G13G24G11G01G30G17G28
 -11500706.05648  -8920427.05047  22861967.1914   22861971.0784   22861965.623
        49.0004         44.0004
  -4527317.31147  -3512957.61646  23936261.9634   23936267.8794   23936262.388
        42.0004         37.0004
 -14474104.74348 -11226487.00347  22203059.9004   22203064.1584   22203060.411
        49.0004         45.0004
  -4728018.44347  -3643514.34446  24243088.8254   24243096.5094   24243087.006
        44.0004         39.0004
 -10370937.98547  -8035242.50446  23284943.5564   23284948.1094   23284945.404
        45.0004         40.0004
 -10459531.52548  -8098340.94747  22910551.9234   22910558.4694   22910549.447
        48.0004         43.0004
  -6786890.27148  -5237695.53247  22854598.8314   22854605.1244   22854599.494
        48.0004         43.0004
 -16227476.44449 -12621571.29248  20880723.3404   20880726.0294   20880722.656
        55.0004         51.0004
 -20680406.38749 -16059549.77848  21179172.7844   21179174.6884   21179172.586
        54.0004         49.0004
 15  5  1  0  2  0.0000000  0  9G15G04G13G24G11G01G30G17G28
 -11476539.00248  -8901595.60547  22866565.8204   22866569.4094   22866565.301
        49.0004         44.0004
  -4473937.57747  -3471363.03846  23946422.2634   23946426.2844   23946420.465
        42.0004         38.0004
 -14398790.92748 -11167800.97347  22217393.8444   22217395.9814   22217392.550
        49.0004         44.0004
  -4830839.81147  -3723634.80846  24223523.3204   24223530.2094   24223522.046
        44.0004         40.0004
 -10307624.83547  -7985907.60446  23296993.1974   23296996.9284   23296991.563
        45.0004         40.0004
 -10456556.86748  -8096023.02547  22911118.0964   22911123.7174   22911117.422
        48.0004         43.0004
  -6689816.73348  -5162053.86347  22873071.1774   22873077.6114   22873071.905
        48.0004         43.0004
 -16263849.89349 -12649914.21248  20873801.7444   20873804.0724   20873801.403
        55.0004         51.0004
 -20644528.40249 -16031592.91348  21185999.9984   21186002.2874   21185999.642
        54.0004         49.0004
 15  5  1  0  2 30.0000000  0  9G15G04G13G24G11G01G30G17G28
 -11451825.19148  -8882338.13047  22871267.8504   22871271.6334   22871266.984
        49.0004         44.0004
  -4420011.85447  -3429343.03046  23956682.8744   23956687.1924   23956681.720
        42.0004         38.0004
 -14323023.45448 -11108761.42847  22231811.1064   22231813.7544   22231810.293
        49.0004         44.0004
  -4933531.86747  -3803654.54446  24203980.5274   24203988.0934   24203979.413
        44.0004         40.0004
 -10243792.98647  -7936168.55446  23309141.1304   23309143.2894   23309139.855
        45.0004         40.0004
 -10452970.10648  -8093228.14547  22911799.7174   22911805.6854   22911799.011
        48.0004         43.0004
  -6592491.09048  -5086215.75847  22891591.9494   22891597.5764   22891591.994
        48.0004         43.0004
 -16299737.59149 -12677878.62248  20866972.5734   20866974.9284   20866972.129
        55.0004         51.0004
 -20608430.21449 -16003464.46248  21192868.9994   21192871.3884   21192869.202
        54.0004         49.0004
 15  5  1  0  3  0.0000000  0  9G15G04G13G24G11G01G30G17G28
 -11426565.79748  -8862655.52447  22876075.2004   22876078.6014   22876074.791
        49.0004         44.0004
  -4365542.07647  -3386899.08746  23967046.1214   23967052.8884   23967044.475
        42.0004         37.0004
 -14246805.11848 -11049370.56047  22246314.3404   22246318.1544   22246313.970
        49.0004         44.0004
  -5036092.57347  -3883571.91746  24184464.4864   24184471.7664   24184463.927
        44.0004         40.0004
 -10179444.53947  -7886026.92546  23321384.5424   23321389.4474   23321385.881
        45.0004         40.0004
 -10448770.95448  -8089956.07647  22912599.7084   22912606.7744   22912600.177
        48.0004         43.0004
  -6494914.82448  -5010182.37547  22910161.0284   22910167.1344   22910160.461
        48.0004         43.0004
 -16335139.04249 -12705464.13848  20860235.8724   20860238.1324   20860235.270
        55.0004         51.0004
 -20572112.06649 -15975164.61448  21199781.0074   21199782.7104   21199780.693
        54.0004         49.0004
 15  5  1  0  3 30.0000000  0  9G15G04G13G24G11G01G30G17G28
 -11400762.41648  -8842549.03047  22880985.8804   22880989.4644   22880985.503
        49.0004         45.0004
  -4310530.15947  -3344032.69146  23977515.4704   23977521.7594   23977515.338
        42.0004         37.0004
 -14170138.64148 -10989630.48547  22260903.9144   22260907.7564   22260903.584
        49.0004         45.0004
  -5138519.81747  -3963385.30546  24164972.9804   24164979.5754   24164972.752
        44.0004         40.0004
 -10114581.91247  -7835484.64046  23333728.0174   23333732.4594   23333724.436
        45.0004         40.0004
 -10443959.45847  -8086206.84847  22913514.5034   22913521.3084   22913513.375
        47.0004         43.0004
  -6397089.58148  -4933954.98547  22928776.5024   22928782.0644   22928775.672
        48.0004         43.0004
 -16370053.81549 -12732670.42348  20853591.9754   20853593.9704   20853591.229
        55.0004         51.0004
 -20535574.55849 -15946693.83248  21206733.3054   21206735.6784   21206733.239
        54.0004         49.0004
 15  5  1  0  4  0.0000000  0  9G15G04G13G24G11G01G30G17G28
 -11374415.93048  -8822019.35047  22885999.1894   22886002.8584   22885999.653
        49.0004         44.0004
  -4254977.70347  -3300745.10546  23988086.3314   23988093.4654   23988089.454
        42.0004         38.0004
 -14093027.05848 -10929543.58647  22275577.7554   22275582.2334   22275577.410
        49.0004         45.0004
  -5240810.85647  -4043092.55546  24145507.9534   24145514.7814   24145506.753
        44.0004         39.0004
 -10049206.84147  -7784543.07746  23346167.6614   23346172.6684   23346169.523
        45.0004         40.0004
 -10438535.37647  -8081980.28547  22914547.1214   22914553.4774   22914545.446
        47.0004         42.0004
  -6299016.92347  -4857534.80347  22947439.2774   22947446.0694   22947437.894
        47.0004         43.0004
 -16404481.64349 -12759497.27648  20847040.3154   20847042.6964   20847039.768
        55.0004         51.0004
 -20498817.90049 -15918052.28648  21213728.0884   21213730.4934   21213727.637
        54.0004         49.0004
 15  5  1  0  4 30.0000000  0  9G15G04G13G24G11G01G30G17G28
 -11347527.79448  -8801067.60147  22891116.4434   22891119.9004   22891114.867
        49.0004         44.0004
  -4198886.68847  -3257037.87446  23998762.0554   23998765.9914   23998760.057
        42.0004         38.0004
 -14015473.20848 -10869112.07647  22290335.9974   22290339.8554   22290335.303
        49.0004         44.0004
  -5342964.13747  -4122692.46646  24126068.7714   24126074.5474   24126067.227
        44.0004         39.0004
  -9983321.79647  -7733204.11346  23358707.0854   23358710.1624   23358705.178
        45.0004         40.0004
 -10432498.61047  -8077276.30347  22915695.9134   22915701.6804   22915696.180
        47.0004         43.0004
  -6200698.37247  -4780923.01047  22966148.2544   22966154.7844   22966147.582
        47.0004         43.0004
 -16438421.97949 -12785944.25948  20840581.8494   20840584.0644   20840581.072
        55.0004         51.0004
 -20461842.55149 -15889240.32748  21220764.0274   21220766.0594   21220763.960
        54.0004         49.0004
 15  5  1  0  5  0.0000000  0  9G15G04G13G24G11G01G30G17G28
 -11320099.79648  -8779695.17647  22896335.4434   22896338.8654   22896332.758
        49.0004         44.0004
  -4142259.32047  -3212912.67046  24009537.0884   24009541.4984   24009536.448
        42.0004         38.0004
 -13937480.33748 -10808338.45947  22305177.8614   22305180.9694   22305176.710
        49.0004         44.0004
  -5444977.46147  -4202183.28846  24106655.3574   24106661.9814   24106655.404
        43.0004         39.0004
  -9916929.12647  -7681469.61046  23371339.9234   23371342.7364   23371339.844
        45.0004         40.0004
 -10425849.41347  -8072095.08947  22916961.0924   22916966.8364   22916960.837
        47.0004         43.0004
  -6102135.72948  -4704121.01347  22984904.4274   22984911.3904   22984903.270
        48.0004         43.0004
 -16471874.90749 -12812011.45248  20834216.0754   20834217.9844   20834215.379
        55.0004         51.0004
 -20424649.11848 -15860258.44048  21227842.0484   21227843.8354   21227842.425
        53.0004         49.0004
 15  5  1  0  5 30.0000000  0  9G15G04G13G24G11G01G30G17G28
 -11292132.70548  -8757902.67747  22901657.7264   22901661.0354   22901656.826
        49.0004         44.0004
  -4085097.13247  -3168370.76846  24020414.6984   24020419.7754   24020413.509
        42.0004         38.0004
 -13859051.01048 -10747224.74847  22320102.6934   22320105.3504   22320101.572
        49.0004         44.0004
  -5546848.63247  -4281563.36946  24087271.1514   24087277.5354   24087268.321
        43.0004         39.0004
  -9850030.74147  -7629341.03046  23384069.8064   23384073.9864   23384071.270
        45.0004         40.0004
 -10418587.44847  -8066436.41347  22918342.4444   22918349.0834   22918341.814
        47.0004         43.0004
  -6003330.39848  -4627129.91747  23003706.8524   23003713.6954   23003706.685
        48.0004         43.0004
 -16504839.74749 -12837698.31148  20827943.2014   20827944.8704   20827942.352
        56.0004         51.0004
 -20387237.73648 -15831106.71248  21234960.9494   21234962.9894   21234960.820
        53.0004         49.0004
 15  5  1  0  6  0.0000000  0  9G15G04G13G24G11G01G30G17G28
 -11263628.20548  -8735691.41447  22907080.9234   22907084.6584   22907080.077
        49.0004         44.0004
  -4027402.29847  -3123413.81346  24031394.3914   24031398.8744   24031393.232
        43.0004         38.0004
 -13780187.94048 -10685773.04647  22335108.6084   22335113.2364   22335108.658
        49.0004         44.0004
  -5648575.53147  -4360830.99146  24067912.9194   24067919.2994   24067913.610
        43.0004         39.0004
  -9782628.96247  -7576820.20646  23396896.3694   23396900.2714   23396896.762
        45.0004         40.0004
 -10410712.85547  -8060300.36547  22919841.6034   22919847.6324   22919840.734
        47.0004         43.0004
  -5904284.03348  -4549951.01047  23022554.1724   23022561.2814   23022553.794
        48.0004         43.0004
 -16537316.45149 -12863004.81448  20821762.9604   20821764.7354   20821762.326
        56.0004         51.0004
 -20349608.87948 -15801785.52848  21242121.6424   21242123.8344   21242121.195
        53.0004         49.0004
 15  5  1  0  6 30.0000000  0  9G15G04G13G24G11G01G30G17G28
 -11234587.70048  -8713062.49047  22912607.5924   22912611.8884   22912606.815
        49.0004         44.0004
  -3969176.51347  -3078043.08546  24042473.6324   24042479.7204   24042472.587
        43.0004         38.0004
 -13700894.42248 -10623985.95847  22350197.8494   22350202.9544   22350197.202
        49.0004         44.0004
  -5750155.75447  -4439984.33146  24048581.9514   24048589.1994   24048582.431
        43.0004         38.0004
  -9714726.20947  -7523909.01946  23409817.1434   23409822.5474   23409819.312
        45.0004         40.0004
 -10402225.59747  -8053686.90347  22921456.3174   22921462.4794   22921454.504
        47.0004         43.0004
  -5804998.23848  -4472585.54347  23041447.8144   23041454.0844   23041447.433
        48.0004         44.0004
 -16569304.43949 -12887930.49148  20815675.8244   20815678.0284   20815674.832
        56.0004         51.0004
 -20311762.78448 -15772295.07248  21249323.7064   21249325.2594   21249323.087
        53.0004         49.0004
 15  5  1  0  7  0.0000000  0  9G15G04G13G24G11G01G30G17G28
 -11205012.44948  -8690016.88447  22918235.2004   22918239.8474   22918235.035
        49.0004         44.0004
  -3910421.86747  -3032260.27446  24053653.6074   24053660.4204   24053654.727
        43.0004         38.0004
 -13621173.37448 -10561865.69547  22365368.7324   22365372.9314   22365368.300
        49.0004         44.0004
  -5851587.73447  -4519022.12446  24029280.4064   24029285.9094   24029279.410
        43.0004         38.0004
  -9646324.35547  -7470608.93846  23422836.3904   23422837.5544   23422834.433
        44.0004         39.0004
 -10393125.72947  -8046596.10947  22923188.1984   22923194.0184   22923187.207
        47.0004         43.0004
  -5705474.68048  -4395034.81547  23060387.2254   23060394.1074   23060386.786
        48.0004         43.0004
 -16600803.57249 -12912475.24448  20809681.3754   20809683.5654   20809680.790
        56.0004         51.0004
 -20273699.87548 -15742635.66648  21256566.8414   21256568.4844   21256565.837
        53.0004         49.0004
 15  5  1  0  7 30.0000000  0  9G15G04G13G24G11G01G30G17G28
 -11174904.29448  -8666556.03147  22923964.0974   22923969.3774   22923964.360
        49.0004         44.0004
  -3851140.18247  -2986066.82946  24064936.1254   24064941.1124   24064934.505
        43.0004         38.0004
 -13541027.48948 -10499414.41647  22380620.4594   22380623.7154   22380619.299
        49.0004         44.0004
  -5952868.78047  -4597942.34546  24010007.3034   24010014.2174   24010006.424
        43.0004         39.0004
  -9577425.92247  -7416921.87346  23435945.5254   23435949.5184   23435944.472
        44.0004         39.0004
 -10383413.39647  -8039028.05147  22925036.2904   22925042.5464   22925036.903
        47.0004         43.0004
  -5605714.89148  -4317300.00647  23079370.6204   23079376.4724   23079370.155
        48.0004         43.0004
 -16631813.68849 -12936638.94848  20803780.3164   20803782.6934   20803779.585
        56.0004         51.0004
 -20235420.75448 -15712807.78748  21263850.4134   21263852.9904   21263850.723
        53.0004         49.0004
 15  5  1  0  8  0.0000000  0  9G15G04G13G24G11G01G30G17G28
 -11144264.48248  -8642680.89847  22929795.5974   22929800.2444   22929794.814
        49.0004         44.0004
  -3791333.75347  -2939464.46646  24076316.6924   24076321.3264   24076317.121
        43.0004         39.0004
 -13460459.79848 -10436634.45947  22395951.4534   22395955.7614   22395951.584
        49.0004         44.0004
  -6053996.86647  -4676743.34046  23990763.0454   23990768.8764   23990763.099
        43.0004         39.0004
  -9508032.98347  -7362849.50846  23449151.0024   23449153.6934   23449151.753
        44.0004         40.0004
 -10373088.60947  -8030982.74947  22926999.6134   22927006.9964   22926999.491
        47.0004         43.0004
  -5505720.45248  -4239382.36547  23098399.4184   23098406.0164   23098398.373
        48.0004         43.0004
 -16662334.39749 -12960421.29548  20797972.6854   20797974.8074   20797971.894
        56.0004         51.0004
 -20196925.48848 -15682811.48248  21271175.9894   21271178.4094   21271176.139
        53.0004         49.0004
 15  5  1  0  8 30.0000000  0  9G15G04G13G24G11G01G30G17G28
 -11113094.57248  -8618392.69247  22935726.9204   22935731.0454   22935727.618
        49.0004         44.0004
  -3731004.35447  -2892454.58846  24087797.0424   24087801.0784   24087795.069
        43.0004         39.0004
 -13379473.44348 -10373528.26247  22411362.5814   22411366.1874   22411362.134
        49.0004         44.0004
  -6154969.82447  -4755423.44546  23971548.0204   23971555.2854   23971547.765
        43.0004         39.0004
  -9438148.00547  -7308393.71246  23462450.7764   23462452.4734   23462450.071
        44.0004         40.0004
 -10362151.60447  -8022460.40847  22929082.1894   22929088.9674   22929081.953
        47.0004         43.0004
  -5405493.09948  -4161283.22447  23117472.0544   23117478.5924   23117469.704
        48.0004         43.0004
 -16692365.55049 -12983822.16948  20792257.8414   20792260.2694   20792256.865
        56.0004         51.0004
 -20158214.59548 -15652647.15748  21278542.5184   21278544.8864   21278542.132
        53.0004         49.0004
 15  5  1  0  9  0.0000000  0  9G15G04G13G24G11G01G30G17G28
 -11081396.27348  -8593692.76447  22941759.1494   22941762.3074   22941758.160
        49.0004         44.0004
  -3670154.22947  -2845038.95246  24099376.5534   24099381.3634   24099376.329
        44.0004         39.0004
 -13298071.66648 -10310098.35747  22426852.5464   22426856.4824   22426852.591
        48.0004         43.0004
  -6255785.06247  -4833980.66046  23952363.3264   23952370.4444   23952361.799
        44.0004         39.0004
  -9367773.52847  -7253556.50146  23475841.2724   23475845.6654   23475840.944
        44.0004         40.0004
 -10350602.56247  -8013461.15247  22931280.0204   22931286.5604   22931280.483
        47.0004         43.0004
  -5305034.50247  -4083003.90047  23136588.0664   23136595.3454   23136586.856
        47.0004         43.0004
 -16721906.74149 -13006841.25448  20786636.3404   20786638.4634   20786635.518
        56.0004         51.0004
 -20119288.49348 -15622315.13948  21285950.1474   21285952.1594   21285950.067
        53.0004         49.0004
 15  5  1  0  9 30.0000000  0  9G15G04G13G24G11G01G30G17G28
 -11049170.96448  -8568582.16547  22947892.2214   22947894.6774   22947890.033
        49.0004         44.0004
  -3608785.14247  -2797218.94546  24111054.1124   24111059.7914   24111052.642
        44.0004         39.0004
 -13216256.98148 -10246346.71947  22442421.7154   22442425.8094   22442421.345
        48.0004         43.0004
  -6356440.81547  -4912413.58446  23933209.6314   23933215.7344   23933209.575
        44.0004         40.0004
  -9296911.60047  -7198339.45946  23489325.1704   23489329.7314   23489325.862
        44.0004         39.0004
 -10338441.52547  -8003985.01147  22933594.6524   22933600.7064   22933593.981
        47.0004         43.0004
  -5204346.09347  -4004545.49647  23155749.6674   23155755.2874   23155747.963
        47.0004         43.0004
 -16750958.15949 -13029478.70048  20781107.9914   20781110.1094   20781107.293
        56.0004         51.0004
 -20080147.40448 -15591815.59548  21293398.1394   21293400.4254   21293398.031
        53.0004         49.0004
 15  5  1  0 10  0.0000000  0  9G15G04G13G24G11G01G30G17G28
 -11016420.32648  -8543062.22547  22954123.3374   22954127.5384   22954123.667
        49.0004         44.0004
  -3546899.51747  -2748996.44046  24122831.7034   24122836.8644   24122829.652
        43.0004         39.0004
 -13134032.64648 -10182275.86647  22458069.0644   22458073.8414   22458068.635
        48.0004         43.0004
  -6456934.66747  -4990720.34246  23914086.7784   23914092.6054   23914086.229
        44.0004         40.0004
  -9225564.53347  -7142744.38446  23502903.9174   23502906.1394   23502901.054
        44.0004         39.0004
 -10325668.90947  -7994032.31247  22936023.6814   22936031.4624   22936022.154
        47.0004         43.0004
  -5103429.69147  -3925909.42347  23174952.8324   23174959.1014   23174951.663
        47.0004         42.0004
 -16779519.61949 -13051734.36048  20775672.8614   20775675.4064   20775672.167
        56.0004         51.0004
 -20040791.83948 -15561148.92748  21300887.4424   21300889.4144   21300887.253
        53.0004         49.0004
 15  5  1  0 10 30.0000000  0  9G15G04G13G24G11G01G30G17G28
 -10983145.74148  -8517134.01847  22960456.4994   22960458.3834   22960454.853
        49.0004         44.0004
  -3484499.19147  -2700372.84846  24134705.4054   24134710.5574   24134704.431
        43.0004         38.0004
 -13051401.49748 -10117888.01947  22473792.9074   22473797.1474   22473792.095
        48.0004         44.0004
  -6557264.86547  -5068899.59546  23894993.3844   23895000.5254   23894992.250
        45.0004         40.0004
  -9153734.53747  -7086773.00746  23516572.4844   23516574.7934   23516574.468
        44.0004         39.0004
 -10312284.72447  -7983603.08547  22938571.9124   22938578.5754   22938571.001
        47.0004         42.0004
  -5002286.82947  -3847096.89147  23194199.0454   23194206.3604   23194198.759
        47.0004         42.0004
 -16807590.42849 -13073607.69048  20770331.3484   20770333.4734   20770330.661
        56.0004         51.0004
 -20001222.07348 -15530315.34848  21308417.0014   21308419.4444   21308417.176
        53.0004         49.0004
 15  5  1  0 11  0.0000000  0  9G15G04G13G24G11G01G30G17G28
 -10949349.06748  -8490798.98747  22966887.7324   22966890.1874   22966886.286
        49.0004         44.0004
  -3421586.16947  -2651349.75746  24146677.0574   24146682.4164   24146677.383
        43.0004         39.0004
 -12968366.47448 -10053185.47347  22489594.2614   22489598.6324   22489593.988
        48.0004         44.0004
  -6657428.49547  -5146949.06646  23875933.3444   23875939.7084   23875931.253
        45.0004         40.0004
  -9081424.15847  -7030427.32446  23530332.4034   23530335.1694   23530329.971
        44.0004         39.0004
 -10298289.44247  -7972697.67047  22941234.3484   22941241.5384   22941233.877
        47.0004         43.0004
  -4900919.32147  -3768109.32747  23213488.3424   23213495.8364   23213488.014
        47.0004         42.0004
 -16835170.87949 -13095098.92648  20765082.8724   20765084.9784   20765082.041
        56.0004         51.0004
 -19961438.56148 -15499315.22148  21315987.8344   21315990.0454   21315988.209
        53.0004         49.0004
 15  5  1  0 11 30.0000000  0  9G15G04G13G24G11G01G30G17G28
 -10915031.77848  -8464058.27447  22973417.3384   22973421.9994   22973416.127
        49.0004         44.0004
  -3358162.76147  -2601928.96946  24158746.3704   24158750.8284   24158745.695
        43.0004         38.0004
 -12884931.23948  -9988171.06347  22505472.6304   22505474.6374   22505470.965
        48.0004         44.0004
  -6757423.92247  -5224867.45646  23856904.3004   23856910.7274   23856904.761
        45.0004         40.0004
  -9008635.89947  -6973709.24346  23544183.3024   23544187.2764   23544182.755
        44.0004         39.0004
 -10283683.26647  -7961316.23047  22944013.9964   22944020.0534   22944014.069
        47.0004         42.0004
  -4799328.73047  -3688947.92447  23232820.6114   23232827.9404   23232820.290
        47.0004         42.0004
 -16862260.85149 -13116207.97248  20759927.8184   20759930.2014   20759926.989
        56.0004         51.0004
 -19921441.53548 -15468148.71248  21323598.9114   21323601.2724   21323599.251
        53.0004         49.0004
 15  5  1  0 12  0.0000000  0  9G15G04G13G24G11G01G30G17G28
 -10880195.52348  -8436913.17947  22980045.9984   22980050.3874   22980045.148
        49.0004         44.0004
  -3294231.18047  -2552112.21946  24170912.6484   24170917.4024   24170912.275
        43.0004         39.0004
 -12801098.33548  -9922846.78447  22521424.8534   22521427.3324   22521423.802
        48.0004         44.0004
  -6857248.83747  -5302652.97946  23837908.4144   23837914.3604   23837907.073
        45.0004         40.0004
  -8935371.81747  -6916620.37946  23558125.6504   23558128.6554   23558124.587
        44.0004         39.0004
 -10268466.46947  -7949458.99647  22946910.4624   22946916.4064   22946909.761
        47.0004         42.0004
  -4697516.61847  -3609613.88647  23252194.6774   23252202.2424   23252195.156
        47.0004         42.0004
 -16888860.08549 -13136934.63048  20754866.2834   20754868.2104   20754865.481
        56.0004         51.0004
 -19881231.00448 -15436815.83848  21331250.5814   21331252.9894   21331250.902
        53.0004         48.0004
 15  5  1  0 12 30.0000000  0 10G15G04G13G24G11G01G06G30G17G28
 -10844842.15048  -8409365.13447  22986774.8504   22986777.5484   22986772.445
        49.0004         44.0004
  -3229793.21447  -2501900.89146  24183174.7234   24183179.5094   24183174.912
        43.0004         39.0004
 -12716870.83848  -9857215.01647  22537452.8884   22537454.4774   22537451.511
        48.0004         43.0004
  -6956900.61247  -5380303.61346  23818945.6304   23818951.6764   23818943.158
        45.0004         40.0004
  -8861634.56847  -6859162.81346  23572155.5794   23572160.4504   23572155.655
        43.0004         39.0004
 -10252639.45547  -7937126.25647  22949921.6584   22949928.3044   22949921.067
        47.0004         43.0004
   -176875.02348    -94893.75346  25197402.3854   25197415.5464   25197401.799
        53.0004         36.0004
  -4595484.74747  -3530108.61547  23271610.8964   23271617.9714   23271610.979
        47.0004         42.0004
 -16914968.24149 -13157278.62948  20749897.9384   20749899.6244   20749897.138
        56.0004         51.0004
 -19840808.10448 -15405317.48548  21338943.4684   21338945.6144   21338942.927
        53.0004         48.0004
 15  5  1  0 13  0.0000000  0 10G15G04G13G24G11G01G06G30G17G28
 -10808973.02948  -8381415.18647  22993599.5994   22993602.2074   22993598.384
        49.0004         44.0004
  -3164851.32147  -2451296.86646  24195532.7704   24195537.4834   24195532.438
        43.0004         38.0004
 -12632251.66848  -9791278.04847  22553555.4224   22553558.8534   22553554.438
        48.0004         43.0004
  -7056377.16747  -5457817.70646  23800014.5484   23800022.1704   23800013.362
        45.0004         40.0004
  -8787426.45147  -6801338.35346  23586277.6654   23586280.3404   23586277.849
        43.0004         39.0004
 -10236202.57047  -7924318.28647  22953049.6074   22953054.2454   22953048.601
        47.0004         43.0004
   -286496.45248   -180312.68346  25176543.9354   25176554.7764   25176540.882
        48.0004         36.0004
  -4493234.78747  -3450433.41447  23291069.2814   23291075.8294   23291068.090
        47.0004         42.0004
 -16940585.85249 -13177240.38248  20745023.2034   20745024.8354   20745022.304
        56.0004         51.0004
 -19800172.65948 -15373653.50648  21346675.6444   21346677.6684   21346675.796
        53.0004         49.0004
 15  5  1  0 13 30.0000000  0 10G15G04G13G24G11G01G06G30G17G28
 -10772590.16448  -8353064.93947  23000524.2504   23000526.5354   23000521.818
        49.0004         44.0004
  -3099407.82447  -2400301.97646  24207986.6014   24207991.1954   24207985.329
        43.0004         38.0004
 -12547244.20048  -9725038.52447  22569731.7674   22569734.8854   22569730.792
        48.0004         43.0004
  -7155676.21147  -5535193.48046  23781119.0974   23781125.0884   23781118.058
        45.0004         40.0004
  -8712749.71647  -6743148.73346  23600487.5004   23600492.0924   23600487.334
        43.0004         38.0004
 -10219156.31347  -7911035.49447  22956293.8594   22956299.7404   22956292.758
        47.0004         43.0004
   -396181.63547   -265781.22446  25155668.2224   25155682.8174   25155669.468
        43.0004         36.0004
  -4390768.55247  -3370589.70147  23310568.8014   23310575.1314   23310567.016
        47.0004         42.0004
 -16965712.71949 -13196819.73848  20740241.3244   20740243.5944   20740240.546
        56.0004         51.0004
 -19759325.16048 -15341824.28648  21354448.8124   21354451.2144   21354448.737
        53.0004         49.0004
 15  5  1  0 14  0.0000000  0 10G15G04G13G24G11G01G06G30G17G28
 -10735695.18448  -8324315.62847  23007544.5284   23007547.9074   23007543.313
        49.0004         44.0004
  -3033464.84447  -2348917.92446  24220534.3654   24220540.3824   24220533.103
        42.0004         38.0004
 -12461851.28648  -9658498.65147  22585981.4874   22585985.2434   22585980.487
        48.0004         44.0004
  -7254795.60747  -5612429.25646  23762256.3924   23762263.5214   23762253.658
        44.0004         40.0004
  -8637607.25647  -6684596.23446  23614787.2934   23614790.8434   23614786.628
        43.0004         39.0004
 -10201500.95447  -7897278.06947  22959653.1534   22959659.8614   22959651.758
        47.0004         43.0004
   -505927.85546   -351297.33345  25134784.5034   25134795.7984   25134784.461
        41.0004         35.0004
  -4288087.52947  -3290578.62347  23330106.8324   23330114.3334   23330107.946
        47.0004         42.0004
 -16990348.52649 -13216016.44948  20735553.6804   20735555.5144   20735552.871
        56.0004         51.0004
 -19718265.71648 -15309829.92148  21362262.1734   21362264.5334   21362261.970
        53.0004         49.0004
 15  5  1  0 14 30.0000000  0 10G15G04G13G24G11G01G06G30G17G28
 -10698289.63448  -8295168.46047  23014662.4174   23014665.6404   23014662.682
        49.0004         44.0004
  -2967024.28447  -2297146.13946  24233177.8434   24233182.7884   24233177.141
        42.0004         37.0004
 -12376075.99948  -9591660.82147  22602303.3654   22602307.3424   22602303.784
        48.0004         43.0004
  -7353733.29147  -5689523.46146  23743428.4364   23743436.0924   23743426.981
        44.0004         40.0004
  -8562001.17747  -6625682.44346  23629174.2384   23629177.8024   23629174.268
        43.0004         39.0004
 -10183236.97147  -7883046.39047  22963128.8024   22963134.0204   22963129.249
        47.0004         43.0004
   -615732.46046   -436858.91545  25113889.2204   25113902.1934   25113889.285
        40.0004         35.0004
  -4185193.37147  -3210401.44847  23349687.0924   23349694.6024   23349687.237
        46.0004         42.0004
 -17014493.17549 -13234830.43948  20730958.7674   20730961.0104   20730958.013
        56.0004         51.0004
 -19676994.96248 -15277670.90048  21370115.4724   21370117.8604   21370115.167
        53.0004         48.0004
 15  5  1  0 15  0.0000000  0 10G15G04G13G24G11G01G06G30G17G28
 -10660375.63348  -8265625.12547  23021877.0804   23021880.3694   23021876.621
        49.0004         44.0004
  -2900088.49847  -2244988.40846  24245915.7444   24245919.9034   24245915.350
        42.0004         37.0004
 -12289921.63048  -9524527.59947  22618697.7584   22618701.7644   22618697.394
        48.0004         43.0004
  -7452486.75847  -5766474.13646  23724637.8834   23724644.2174   23724635.907
        44.0004         40.0004
  -8485933.95447  -6566409.32446  23643649.3094   23643654.5524   23643648.579
        43.0004         38.0004
 -10164364.96347  -7868340.91847  22966718.6444   22966725.4934   22966717.500
        47.0004         42.0004
   -725592.98846   -522464.07245  25092982.0744   25092994.9034   25092982.277
        40.0004         35.0004
  -4082087.91547  -3130059.64347  23369308.1084   23369313.9304   23369307.629
        46.0004         42.0004
 -17038147.10549 -13253262.05348  20726457.7684   20726459.6604   20726456.860
        56.0004         52.0004
 -19635513.10748 -15245347.38748  21378009.3634   21378011.2774   21378009.101
        53.0004         48.0004
 15  5  1  0 15 30.0000000  0 10G15G04G13G24G11G01G06G30G17G28
 -10621954.71548  -8235686.78747  23029189.4044   23029191.9614   23029186.335
        48.0004         44.0004
  -2832659.76347  -2192446.59046  24258748.2474   24258752.0274   24258748.229
        42.0004         37.0004
 -12203391.46148  -9457101.55047  22635165.8934   22635168.1164   22635163.981
        48.0004         43.0004
  -7551053.91647  -5843279.63746  23705880.5654   23705887.3004   23705880.219
        44.0004         40.0004
  -8409408.20247  -6506778.90446  23658211.2154   23658215.3174   23658212.394
        43.0004         39.0004
 -10144885.29447  -7853161.95847  22970426.9194   22970433.1384   22970425.589
        47.0004         43.0004
   -835506.73246   -608110.71246  25072067.3874   25072076.7564   25072065.889
        40.0004         36.0004
  -3978772.77247  -3049554.44947  23388969.3234   23388974.9494   23388968.634
        46.0004         42.0004
 -17061310.07149 -13271311.09948  20722049.9944   20722051.8014   20722049.356
        56.0004         52.0004
 -19593820.59848 -15212859.72548  21385943.2944   21385945.3424   21385943.909
        53.0004         48.0004
 15  5  1  0 16  0.0000000  0 10G15G04G13G24G11G01G06G30G17G28
 -10583028.76148  -8205354.89247  23036595.2844   23036599.3344   23036593.827
        48.0004         44.0004
  -2764740.35647  -2139522.47246  24271671.8104   24271676.1964   24271670.969
        42.0004         37.0004
 -12116488.52648  -9389385.03847  22651702.3654   22651706.0354   22651700.630
        48.0004         43.0004
  -7649431.88047  -5919937.73446  23687160.2074   23687166.4284   23687159.227
        44.0004         40.0004
  -8332426.65847  -6446793.35446  23672861.5434   23672865.9074   23672860.829
        43.0004         39.0004
 -10124798.60147  -7837509.97647  22974249.0914   22974255.6324   22974248.053
        47.0004         42.0004
   -945471.05646   -693796.75446  25051143.7764   25051153.4334   25051142.020
        40.0004         36.0004
  -3875249.70047  -2968887.23547  23408668.0984   23408675.3444   23408666.699
        46.0004         42.0004
 -17083981.75149 -13288977.32748  20717735.6074   20717737.4624   20717735.129
        56.0004         52.0004
 -19551917.46248 -15180207.94148  21393917.0644   21393919.0654   21393917.295
        53.0004         48.0004
 15  5  1  0 16 30.0000000  0 10G15G04G13G24G11G01G06G30G17G28
 -10543599.51548  -8174630.82647  23044099.0894   23044102.4364   23044098.586
        48.0004         44.0004
  -2696332.65046  -2086217.82646  24284689.7084   24284694.5684   24284687.731
        41.0004         36.0004
 -12029215.39548  -9321380.06847  22668309.3844   22668312.0614   22668308.364
        48.0004         43.0004
  -7747619.11047  -5996447.21046  23668475.8904   23668482.4404   23668474.432
        44.0004         40.0004
  -8254991.00147  -6386453.93546  23687598.0484   23687601.2034   23687598.098
        43.0004         39.0004
 -10104105.24447  -7821385.27247  22978186.3904   22978192.0964   22978186.818
        47.0004         42.0004
  -1055483.25146   -779520.11346  25030203.7184   25030215.9304   25030206.191
        40.0004         36.0004
  -3771520.30447  -2888059.23647  23428407.0594   23428414.3574   23428406.662
        46.0004         42.0004
 -17106162.40549 -13306260.93548  20713514.7634   20713516.7164   20713513.963
        56.0004         52.0004
 -19509804.20848 -15147392.42448  21401931.1954   21401933.5374   21401931.486
        53.0004         48.0004
 15  5  1  0 17  0.0000000  0 10G15G04G13G24G11G01G06G30G17G28
 -10503669.23648  -8143516.33647  23051697.1094   23051700.5884   23051697.079
        48.0004         44.0004
  -2627438.85646  -2032534.39946  24297798.7124   24297802.7014   24297798.491
        41.0004         36.0004
 -11941575.70748  -9253089.46147  22684986.9364   22684990.3054   22684986.165
        48.0004         43.0004
  -7845612.63947  -6072805.76846  23649828.9154   23649834.8304   23649827.719
        45.0004         40.0004
  -8177104.05147  -6325762.87146  23702418.5764   23702423.0914   23702417.805
        43.0004         39.0004
 -10082806.00447  -7804788.45647  22982239.9114   22982246.6354   22982237.845
        47.0004         42.0004
  -1165540.75246   -865278.78246  25009261.7154   25009271.6804   25009262.246
        40.0004         36.0004
  -3667586.35847  -2807071.85346  23448185.3204   23448192.9064   23448184.223
        46.0004         41.0004
 -17127852.43949 -13323162.23848  20709387.0884   20709389.2154   20709386.372
        56.0004         52.0004
 -19467481.16948 -15114413.44548  21409984.5824   21409987.3744   21409983.985
        53.0004         48.0004
 15  5  1  0 17 30.0000000  0 10G15G04G13G24G11G01G06G30G17G28
 -10463239.36948  -8112012.56347  23059390.4614   23059395.2624   23059390.120
        48.0004         44.0004
  -2558061.27346  -1978473.98646  24310999.0174   24311004.6854   24311000.223
        40.0004         36.0004
 -11853572.34048  -9184515.46547  22701732.9334   22701737.5924   22701732.660
        48.0004         43.0004
  -7943410.49947  -6149011.85946  23631218.5424   23631224.1014   23631217.045
        45.0004         40.0004
  -8098768.32147  -6264722.09046  23717325.9684   23717329.4914   23717327.582
        43.0004         39.0004
 -10060901.46747  -7787720.01147  22986408.2024   22986413.7084   22986408.160
        47.0004         43.0004
  -1275640.94046   -951070.71846  24988308.2344   24988320.1464   24988309.346
        41.0004         36.0004
  -3563449.65947  -2725926.50247  23468001.6854   23468008.5674   23468000.858
        46.0004         42.0004
 -17149051.81149 -13339681.21048  20705353.0834   20705354.9284   20705352.551
        56.0004         52.0004
 -19424949.07248 -15081271.56448  21418078.6454   21418080.8904   21418078.059
        53.0004         48.0004
 15  5  1  0 18  0.0000000  0 10G15G04G13G24G11G01G06G30G17G28
 -10422311.76648  -8080120.95947  23067179.5504   23067183.9234   23067178.971
        49.0004         44.0004
  -2488202.20246  -1924038.38445  24324294.5734   24324302.0754   24324294.471
        40.0004         35.0004
 -11765208.51247  -9115660.61547  22718548.1604   22718551.1074   22718547.370
        47.0004         43.0004
  -8041010.57547  -6225063.83546  23612644.8924   23612650.6934   23612643.334
        45.0004         41.0004
  -8019986.63747  -6203333.82446  23732317.6704   23732322.8384   23732316.976
        43.0004         39.0004
 -10038392.17147  -7770180.29847  22990692.3294   22990697.4704   22990690.245
        47.0004         42.0004
  -1385780.93846  -1036893.64946  24967348.0974   24967361.5534   24967348.377
        41.0004         36.0004
  -3459111.74447  -2644624.33746  23487856.3794   23487863.6454   23487856.007
        46.0004         41.0004
 -17169760.34249 -13355817.71048  20701412.4044   20701414.3244   20701411.597
        56.0004         52.0004
 -19382207.32648 -15047966.32148  21426211.8654   21426214.0694   21426212.299
        53.0004         48.0004
 15  5  1  0 18 30.0000000  0 10G15G04G13G24G11G01G06G30G17G28
 -10380888.57148  -8047843.17347  23075061.8764   23075066.1054   23075060.595
        49.0004         44.0004
  -2417863.78246  -1869229.32645  24337681.3124   24337684.6984   24337678.284
        40.0004         35.0004
 -11676487.40447  -9046527.34947  22735431.0974   22735435.2404   22735430.415
        47.0004         43.0004
  -8138410.57747  -6300959.91546  23594111.1794   23594116.7014   23594109.998
        45.0004         41.0004
  -7940761.33347  -6141599.85746  23747393.6024   23747398.2494   23747393.370
        43.0004         39.0004
 -10015278.74747  -7752169.82347  22995090.5254   22995096.1524   22995089.203
        47.0004         42.0004
  -1495958.28046  -1122745.71146  24946382.4254   24946397.2904   24946381.772
        41.0004         37.0004
  -3354574.39947  -2563166.77046  23507749.4714   23507756.2834   23507748.743
        46.0004         41.0004
 -17189978.12649 -13371571.81048  20697565.1794   20697566.8904   20697564.369
        56.0004         52.0004
 -19339256.82348 -15014498.40548  21434385.1354   21434387.4334   21434384.770
        53.0004         48.0004
 15  5  1  0 19  0.0000000  0 10G15G04G13G24G11G01G06G30G17G28
 -10338971.49248  -8015180.52547  23083038.8294   23083042.8224   23083037.970
        49.0004         44.0004
  -2347048.70346  -1814048.77645  24351156.8004   24351160.6294   24351154.666
        40.0004         35.0004
 -11587412.31347  -8977118.26547  22752383.0584   22752385.2314   22752381.471
        47.0004         43.0004
  -8235608.00047  -6376698.12846  23575614.7174   23575620.5044   23575613.642
        45.0004         41.0004
  -7861094.59647  -6079521.94146  23762552.6044   23762557.6844   23762553.360
        43.0004         38.0004
  -9991561.94747  -7733689.21047  22999603.7084   22999610.2424   22999602.768
        47.0004         43.0004
  -1606170.15146  -1208624.68946  24925408.6304   24925421.2244   24925406.525
        41.0004         37.0004
  -3249839.37547  -2481555.17746  23527680.3684   23527687.3924   23527680.402
        46.0004         41.0004
 -17209705.20349 -13386943.53848  20693811.1214   20693812.9934   20693810.310
        56.0004         52.0004
 -19296097.90448 -14980868.09548  21442598.2694   21442600.2064   21442597.845
        53.0004         48.0004
 15  5  1  0 19 30.0000000  0 10G15G04G13G24G11G01G06G30G17G28
 -10296562.60648  -7982134.67147  23091109.0014   23091111.7534   23091108.371
        48.0004         44.0004
  -2275759.27146  -1758498.58446  24364722.6814   24364728.4054   24364719.272
        40.0004         36.0004
 -11497986.33547  -8907435.74647  22769399.0794   22769402.5594   22769397.904
        47.0004         43.0004
  -8332600.73347  -6452276.84546  23557157.6004   23557163.7864   23557157.686
        45.0004         40.0004
  -7780989.57247  -6017102.51246  23777796.7164   23777800.2934   23777794.480
        43.0004         38.0004
  -9967242.50547  -7714738.99647  23004230.3854   23004237.2024   23004231.629
        47.0004         42.0004
  -1716413.97056  -1294528.57256  24904432.2285   24904443.7115   24904428.688
        41.0004         37.0004
  -3144908.38947  -2399790.87346  23547648.2534   23547654.9244   23547646.954
        46.0004         41.0004
 -17228941.93949 -13401933.18848  20690150.7024   20690152.4494   20690149.917
        56.0004         52.0004
 -19252730.56648 -14947075.37348  21450850.7054   21450852.8384   21450850.323
        53.0004         48.0004
 15  5  1  0 20  0.0000000  0 10G15G04G13G24G11G01G06G30G17G28
 -10253663.61648  -7948706.91147  23099273.2884   23099276.4854   23099270.598
        48.0004         44.0004
  -2203997.57746  -1702580.43746  24378379.3104   24378384.4014   24378377.581
        40.0004         36.0004
 -11408212.56247  -8837482.22347  22786481.8024   22786486.2114   22786481.218
        47.0004         42.0004
  -8429385.91247  -6527693.83546  23538740.4774   23538746.5094   23538739.567
        45.0004         41.0004
  -7700448.37747  -5954343.21646  23793124.4604   23793127.7484   23793123.324
        43.0004         39.0004
  -9942321.07447  -7695319.70247  23008973.6994   23008980.2984   23008972.306
        47.0004         42.0004
  -1826687.00447  -1380455.21546  24883448.3574   24883461.5224   24883446.532
        42.0004         37.0004
  -3039783.22047  -2317875.27946  23567653.5394   23567659.9364   23567653.305
        46.0004         41.0004
 -17247688.69649 -13416541.03448  20686583.2664   20686584.9014   20686582.295
        56.0004         52.0004
 -19209155.12848 -14913120.49348  21459142.3844   21459144.8734   21459143.081
        53.0004         48.0004
 15  5  1  0 20 30.0000000  0 10G15G04G13G24G11G01G06G30G17G28
 -10210276.92748  -7914899.11647  23107528.2534   23107532.1484   23107527.870
        48.0004         44.0004
  -2131766.18546  -1646296.30846  24392122.9254   24392127.9434   24392120.005
        41.0004         36.0004
 -11318093.95947  -8767259.99747  22803632.4424   22803635.5734   22803630.888
        47.0004         42.0004
  -8525961.69247  -6602947.65546  23520361.9334   23520367.9054   23520359.884
        45.0004         41.0004
  -7619473.99647  -5891246.36046  23808533.0074   23808536.4954   23808532.186
        44.0004         39.0004
  -9916798.43347  -7675431.92947  23013830.8454   23013836.1514   23013829.893
        47.0004         42.0004
  -1936986.58047  -1466402.59546  24862457.5904   24862468.9854   24862455.214
        42.0004         37.0004
  -2934465.53247  -2235809.67546  23587694.0514   23587701.8644   23587694.606
        46.0004         41.0004
 -17265945.18649 -13430766.85248  20683109.0054   20683110.9754   20683108.143
        56.0004         52.0004
 -19165372.48048 -14879004.14948  21467473.9124   21467476.2384   21467473.913
        53.0004         48.0004
 15  5  1  0 21  0.0000000  0 10G15G04G13G24G11G01G06G30G17G28
 -10166404.24848  -7880712.63547  23115876.8964   23115879.9344   23115876.864
        48.0004         43.0004
  -2059067.59046  -1589648.08246  24405956.6764   24405962.5624   24405955.135
        41.0004         36.0004
 -11227633.87947  -8696771.70447  22820845.6184   22820852.0074   22820844.636
        46.0004         42.0004
  -8622325.74547  -6678036.48446  23502024.6634   23502030.5944   23502023.364
        46.0004         41.0004
  -7538068.54647  -5827813.60246  23824024.6864   23824026.8554   23824023.215
        44.0004         39.0004
  -9890675.29147  -7655076.23547  23018801.5124   23018807.5324   23018799.456
        47.0004         42.0004
  -2047309.86747  -1552368.46146  24841464.4844   24841476.8724   24841463.984
        42.0004         38.0004
  -2828957.03547  -2153595.40247  23607772.3524   23607779.0184   23607771.598
        46.0004         42.0004
 -17283711.64049 -13444610.82348  20679727.8564   20679730.2194   20679727.009
        56.0004         52.0004
 -19121382.38948 -14844726.16848  21475845.5984   21475847.2404   21475845.889
        53.0004         48.0004
 15  5  1  0 21 30.0000000  0 10G15G04G13G24G11G01G06G30G17G28
 -10122047.67348  -7846149.08547  23124318.2674   23124320.8574   23124317.841
        48.0004         44.0004
  -1985904.00246  -1532637.51546  24419880.0904   24419884.6054   24419876.649
        41.0004         37.0004
 -11136835.67447  -8626019.93046  22838124.1644   22838127.4234   22838123.226
        46.0004         41.0004
  -8718475.60347  -6752958.38446  23483727.5834   23483733.9804   23483727.056
        46.0004         41.0004
  -7456234.85247  -5764047.14546  23839596.5034   23839599.6124   23839597.588
        44.0004         39.0004
  -9863952.59847  -7634253.35547  23023885.8684   23023892.8474   23023885.520
        47.0004         42.0004
  -2157654.29647  -1638350.82646  24820465.5944   24820476.7834   24820464.620
        42.0004         38.0004
  -2723259.58447  -2071233.86847  23627886.1264   23627893.7564   23627885.494
        46.0004         42.0004
 -17300988.51049 -13458073.29948  20676440.5054   20676442.4104   20676439.887
        56.0004         52.0004
 -19077185.32548 -14810286.90448  21484255.9124   21484257.8064   21484255.933
        53.0004         48.0004
 15  5  1  0 22  0.0000000  0 10G15G04G13G24G11G01G06G30G17G28
 -10077209.10748  -7811209.96047  23132850.0134   23132853.8554   23132850.744
        48.0004         44.0004
  -1912278.06946  -1475266.72446  24433888.5774   24433895.9154   24433887.224
        41.0004         37.0004
 -11045702.41147  -8555007.06446  22855465.9094   22855469.5824   22855465.129
        46.0004         41.0004
  -8814409.23847  -6827711.79746  23465471.7824   23465478.4794   23465470.598
        46.0004         41.0004
  -7373975.39947  -5699948.91846  23855250.0404   23855252.5564   23855250.025
        44.0004         39.0004
  -9836631.10947  -7612963.88547  23029085.5394   23029091.8144   23029084.864
        47.0004         42.0004
  -2268017.09047  -1724347.50046  24799464.2614   24799474.0764   24799462.862
        43.0004         38.0004
  -2617374.91447  -1988726.45346  23648034.8504   23648043.1154   23648035.102
        46.0004         41.0004
 -17317775.87549 -13471154.34548  20673246.1194   20673247.7624   20673245.413
        56.0004         52.0004
 -19032781.76648 -14775686.73448  21492705.2184   21492707.7764   21492705.116
        53.0004         48.0004
 15  5  1  0 22 30.0000000  0 10G15G04G13G24G11G01G06G30G17G28
 -10031890.25048  -7775896.60147  23141473.8334   23141477.7844   23141473.743
        48.0004         44.0004
  -1838192.06447  -1417537.45946  24447988.6094   24447992.6754   24447989.715
        42.0004         37.0004
 -10954237.19547  -8483735.51747  22872871.0194   22872874.0854   22872870.361
        46.0004         42.0004
  -8910123.92447  -6902294.58646  23447258.7344   23447264.1004   23447256.690
        46.0004         41.0004
  -7291292.74147  -5635520.92546  23870983.2124   23870986.9034   23870982.976
        43.0004         38.0004
  -9808711.62947  -7591208.45047  23034398.3184   23034404.6254   23034397.437
        47.0004         43.0004
  -2378395.43447  -1810356.28246  24778459.7904   24778470.9524   24778458.369
        43.0004         38.0004
  -2511304.72547  -1906074.51546  23668218.9464   23668227.8314   23668219.168
        46.0004         41.0004
 -17334073.88049 -13483854.07048  20670144.4844   20670146.3934   20670143.671
        56.0004         52.0004
 -18988171.78448 -14740925.72148  21501194.3354   21501196.8354   21501194.116
        53.0004         48.0004
 15  5  1  0 23  0.0000000  0 10G15G04G13G24G11G01G06G30G17G28
  -9986093.65348  -7740210.95647  23150189.2304   23150194.1344   23150188.732
        48.0004         44.0004
  -1763648.30047  -1359451.47246  24462172.8674   24462180.2744   24462172.094
        42.0004         38.0004
 -10862443.27847  -8412207.84747  22890339.2644   22890343.2694   22890337.513
        46.0004         42.0004
  -9005617.45347  -6976705.04346  23429086.4954   23429091.9194   23429084.715
        46.0004         41.0004
  -7208189.62847  -5570765.29546  23886796.8824   23886801.1544   23886796.822
        43.0004         38.0004
  -9780195.08747  -7568987.77347  23039825.5574   23039831.1074   23039824.440
        47.0004         42.0004
  -2488786.68847  -1896375.13646  24757454.5144   24757464.9334   24757453.130
        42.0004         38.0004
  -2405050.78847  -1823279.39846  23688438.6134   23688447.3304   23688437.228
        46.0004         41.0004
 -17349882.97849 -13496172.82948  20667136.1424   20667138.0004   20667135.525
        56.0004         52.0004
 -18943355.58648 -14706004.01648  21509722.7404   21509725.2854   21509722.621
        53.0004         48.0004
 15  5  1  0 23 30.0000000  0 10G15G04G13G24G11G01G06G30G17G28
  -9939821.45148  -7704154.71947  23158994.7404   23158997.5914   23158993.517
        48.0004         44.0004
  -1688649.68047  -1301011.07046  24476445.4914   24476451.4784   24476444.607
        43.0004         38.0004
 -10770323.82647  -8340426.53147  22907869.0704   22907873.2944   22907868.694
        46.0004         42.0004
  -9100887.68647  -7050941.50046  23410957.4784   23410962.1874   23410955.613
        46.0004         41.0004
  -7124668.80847  -5505684.20546  23902692.1824   23902694.7164   23902690.919
        43.0004         38.0004
  -9751082.40747  -7546302.57647  23045364.3004   23045370.6434   23045363.645
        47.0004         42.0004
  -2599188.12547  -1982401.93046  24736443.3344   24736454.4024   24736443.743
        42.0004         38.0004
  -2298614.86247  -1740342.46546  23708693.4534   23708701.2804   23708692.293
        46.0004         41.0004
 -17365203.21449 -13508110.65948  20664220.7824   20664222.7224   20664220.112
        56.0004         52.0004
 -18898333.57548 -14670921.94448  21518290.3634   21518292.3854   21518290.182
        53.0004         48.0004
 15  5  1  0 24  0.0000000  0 10G15G04G13G24G11G01G06G30G17G28
  -9893075.41048  -7667729.25847  23167889.7694   23167894.6164   23167888.745
        48.0004         44.0004
  -1613198.16847  -1242217.75646  24490804.4334   24490808.6574   24490803.042
        43.0004         38.0004
 -10677882.13747  -8268394.12147  22925459.6704   22925464.1284   22925459.002
        46.0004         42.0004
  -9195931.54147  -7125001.55746  23392870.0524   23392876.1954   23392869.512
        46.0004         41.0004
  -7040732.39847  -5440279.30446  23918662.7054   23918669.6124   23918664.351
        42.0004         38.0004
  -9721374.45847  -7523153.53247  23051017.7264   23051023.7944   23051016.721
        47.0004         42.0004
  -2709596.89447  -2068434.42246  24715433.4294   24715443.7494   24715433.080
        42.0004         38.0004
  -2191998.66747  -1657265.06546  23728981.5534   23728989.1904   23728981.258
        46.0004         41.0004
 -17380034.98749 -13519667.86848  20661398.3514   20661400.1384   20661397.894
        56.0004         52.0004
 -18853105.97448 -14635679.66248  21526896.9534   21526898.9714   21526895.729
        53.0004         48.0004
 15  5  1  0 24 30.0000000  0 10G15G04G13G24G11G01G06G30G17G28
  -9845857.79548  -7630936.34247  23176874.8534   23176879.0294   23176874.959
        48.0004         44.0004
  -1537296.44647  -1183073.60546  24505248.4134   24505252.8644   24505247.290
        42.0004         38.0004
 -10585121.54347  -8196113.21047  22943111.6204   22943115.4404   22943110.874
        46.0004         42.0004
  -9290747.42347  -7198883.95946  23374827.5694   23374833.5364   23374826.581
        46.0004         41.0004
  -6956383.24247  -5374552.72746  23934716.7604   23934719.4464   23934715.444
        42.0004         38.0004
  -9691072.19347  -7499541.38947  23056784.8104   23056790.8814   23056783.945
        47.0004         42.0004
  -2820010.31347  -2154470.53546  24694423.6824   24694434.3034   24694421.377
        42.0004         37.0004
  -2085203.99747  -1574048.58246  23749304.6574   23749312.1954   23749303.754
        45.0004         40.0004
 -17394378.51349 -13530844.62548  20658668.9594   20658670.6694   20658668.157
        56.0004         52.0004
 -18807673.13648 -14600277.45948  21535541.8404   21535544.3794   21535541.830
        53.0004         48.0004
 15  5  1  0 25  0.0000000  0 10G15G04G13G24G11G01G06G30G17G28
  -9798170.83048  -7593777.72047  23185950.0774   23185954.1434   23185948.914
        48.0004         44.0004
  -1460946.98947  -1123580.61046  24519777.5404   24519780.6924   24519775.987
        42.0004         37.0004
 -10492045.18747  -8123586.24847  22960822.8944   22960828.0374   22960822.567
        47.0004         42.0004
  -9385332.67647  -7272586.66946  23356828.4234   23356833.9924   23356826.628
        46.0004         41.0004
  -6871624.14347  -5308506.71046  23950845.6804   23950848.2914   23950844.641
        42.0004         38.0004
  -9660176.65547  -7475466.94447  23062663.5344   23062669.6764   23062662.156
        47.0004         42.0004
  -2930425.66946  -2240508.15746  24673410.6154   24673421.3464   24673410.522
        41.0004         36.0004
  -1978232.60347  -1490694.39946  23769659.7364   23769667.1114   23769659.466
        45.0004         40.0004
 -17408234.09049 -13541641.16248  20656032.2054   20656034.2204   20656031.494
        57.0004         52.0004
 -18762035.34848 -14564715.55748  21544226.7784   21544229.6554   21544226.451
        52.0004         48.0004
 15  5  1  0 25 30.0000000  0 10G15G04G13G24G11G01G06G30G17G28
  -9750016.30548  -7556254.73047  23195113.5984   23195117.1684   23195112.356
        48.0004         44.0004
  -1384152.34147  -1063740.69446  24534389.4524   24534394.2194   24534391.007
        42.0004         37.0004
 -10398656.06647  -8050815.57847  22978595.5364   22978599.5304   22978594.928
        47.0004         42.0004
  -9479684.96747  -7346107.83946  23338874.1564   23338879.0164   23338871.947
        46.0004         41.0004
  -6786457.58947  -5242143.22046  23967052.6474   23967053.7554   23967052.148
        42.0004         37.0004
  -9628688.69347  -7450930.87647  23068655.9674   23068662.4024   23068654.889
        47.0004         42.0004
  -3040840.12846  -2326545.05145  24652399.0674   24652409.0784   24652397.793
        40.0004         35.0004
  -1871086.22147  -1407203.86146  23790049.2544   23790057.7214   23790048.963
        45.0004         41.0004
 -17421601.85949 -13552057.59048  20653488.1874   20653490.4384   20653487.733
        57.0004         52.0004
 -18716192.79348 -14528994.10848  21552950.5764   21552952.8284   21552950.378
        53.0004         48.0004
 15  5  1  0 26  0.0000000  0 10G15G04G13G24G11G01G06G30G17G28
  -9701396.60048  -7518369.29147  23204364.9804   23204368.8244   23204363.663
        48.0004         44.0004
  -1306915.00547  -1003555.81046  24549086.7464   24549093.4664   24549086.077
        42.0004         37.0004
 -10304957.49147  -7977803.77447  22996425.2184   22996428.8514   22996425.028
        47.0004         42.0004
  -9573801.88347  -7419445.62146  23320964.0894   23320969.9284   23320963.727
        46.0004         41.0004
  -6700886.37447  -5175464.43346  23983333.0044   23983338.0194   23983332.334
        42.0004         37.0004
  -9596609.48347  -7425934.10347  23074760.1984   23074766.4554   23074759.088
        47.0004         42.0004
  -3151250.98346  -2412579.18746  24631386.9244   24631398.5524   24631386.293
        40.0004         36.0004
  -1763766.69747  -1323578.37546  23810471.9184   23810480.1444   23810471.339
        45.0004         41.0004
 -17434482.05249 -13562094.09048  20651037.3354   20651039.1944   20651036.808
        57.0004         52.0004
 -18670145.86548 -14493113.39548  21561712.6764   21561715.0134   21561713.148
        53.0004         48.0004
 15  5  1  0 26 30.0000000  0 10G15G04G13G24G11G01G06G30G17G28
  -9652313.78148  -7480122.96847  23213705.4274   23213709.3924   23213705.087
        48.0004         44.0004
  -1229237.48447   -943027.93046  24563869.2954   24563875.2684   24563865.585
        42.0004         37.0004
 -10210952.83947  -7904553.46547  23014314.4524   23014318.7054   23014313.985
        46.0004         42.0004
  -9667680.77747  -7492597.93246  23303098.6554   23303105.1554   23303098.794
        46.0004         41.0004
  -6614913.16546  -5108472.40146  23999693.1444   23999699.8414   23999692.988
        41.0004         37.0004
  -9563939.98947  -7400477.36547  23080976.9254   23080983.5904   23080977.168
        47.0004         43.0004
  -3261655.33546  -2498608.24946  24610379.7334   24610388.6744   24610378.737
        41.0004         36.0004
  -1656275.76647  -1239819.32646  23830926.4094   23830934.9954   23830925.514
        45.0004         41.0004
 -17446875.17149 -13571751.04948  20648678.9474   20648680.9824   20648678.143
        57.0004         52.0004
 -18623894.83248 -14457073.64248  21570513.7224   21570516.4324   21570514.483
        53.0004         48.0004
 15  5  1  0 27  0.0000000  0 10G15G04G13G24G11G01G06G30G17G28
  -9602770.34248  -7441517.70947  23223133.8404   23223136.2624   23223132.169
        48.0004         43.0004
  -1151122.53647   -882159.24046  24578735.4004   24578739.1774   24578734.944
        42.0004         37.0004
 -10116645.33347  -7831067.14446  23032261.2694   23032264.6984   23032259.738
        46.0004         41.0004
  -9761319.98847  -7565563.48846  23285279.7204   23285285.4124   23285278.639
        46.0004         41.0004
  -6528540.48046  -5041169.09246  24016132.3664   24016134.4164   24016130.784
        41.0004         36.0004
  -9530681.34147  -7374561.55147  23087306.6334   23087311.8184   23087304.369
        47.0004         43.0004
  -3372050.66746  -2584630.27746  24589369.2994   24589379.4594   24589368.068
        41.0004         36.0004
  -1548615.27247  -1155928.16746  23851414.6224   23851421.7804   23851414.057
        45.0004         41.0004
 -17458781.98949 -13581029.07448  20646413.5214   20646415.1694   20646412.605
        57.0004         52.0004
 -18577440.03948 -14420875.10948  21579353.9914   21579356.8174   21579353.301
        53.0004         48.0004
 15  5  1  0 27 30.0000000  0 10G15G04G13G24G11G01G06G30G17G28
  -9552767.90048  -7402554.81647  23232648.5724   23232651.6144   23232647.642
        48.0004         43.0004
  -1072572.28946   -820951.32446  24593680.3894   24593686.8464   24593680.564
        41.0004         37.0004
 -10022038.17147  -7757347.32346  23050263.8834   23050267.5664   23050262.602
        46.0004         41.0004
  -9854716.75147  -7638340.10347  23267506.9044   23267513.2294   23267506.377
        46.0004         42.0004
  -6441770.89147  -4973556.48546  24032642.1734   24032645.6394   24032643.165
        42.0004         37.0004
  -9496834.54047  -7348187.43647  23093746.7614   23093753.1574   23093744.995
        47.0004         43.0004
  -3482433.93546  -2670642.90646  24568363.9734   24568374.8024   24568364.255
        41.0004         37.0004
  -1440786.92047  -1071906.21446  23871932.8484   23871940.6534   23871932.784
        45.0004         40.0004
 -17470202.60349 -13589928.24348  20644240.1054   20644241.9794   20644239.720
        57.0004         52.0004
 -18530781.32248 -14384517.68448  21588233.0214   21588235.2954   21588233.112
        52.0004         48.0004
 15  5  1  0 28  0.0000000  0 10G15G04G13G24G11G01G06G30G17G28
  -9502308.92748  -7363236.16247  23242250.7224   23242254.2074   23242250.070
        48.0004         43.0004
   -993589.35746   -759406.27046  24608711.4384   24608717.6974   24608710.305
        41.0004         36.0004
  -9927134.36047  -7683396.35546  23068323.0294   23068327.9184   23068322.870
        46.0004         41.0004
  -9947868.68147  -7710925.95647  23249780.6994   23249787.4944   23249779.433
        46.0004         42.0004
  -6354607.18847  -4905636.75646  24049230.3664   24049234.8874   24049229.688
        42.0004         38.0004
  -9462400.72747  -7321355.91347  23100299.1434   23100304.8394   23100299.277
        47.0004         42.0004
  -3592802.46547  -2756644.06346  24547362.4444   24547372.4934   24547362.458
        42.0004         37.0004
  -1332792.55647   -987754.89046  23892483.5834   23892490.3564   23892482.991
        45.0004         40.0004
 -17481137.30549 -13598448.77348  20642159.1694   20642160.7494   20642158.369
        57.0004         52.0004
 -18483919.38448 -14348001.89648  21597150.7114   21597152.7114   21597150.322
        52.0004         48.0004
 15  5  1  0 28 30.0000000  0 10G15G04G13G24G11G01G06G30G17G28
  -9451395.81048  -7323563.64947  23251939.1274   23251942.4204   23251938.186
        48.0004         43.0004
   -914176.64346   -697526.31946  24623823.8144   24623829.8364   24623824.306
        41.0004         36.0004
  -9831937.44447  -7609216.98046  23086439.3794   23086443.3594   23086437.948
        46.0004         41.0004
 -10040773.71747  -7783319.43246  23232101.3854   23232106.9674   23232100.179
        46.0004         41.0004
  -6267052.25347  -4837412.19646  24065890.3284   24065894.2134   24065892.036
        42.0004         38.0004
  -9427381.17847  -7294067.96747  23106963.4664   23106969.4414   23106962.909
        47.0004         43.0004
  -3703153.60647  -2842631.64946  24526364.9254   24526374.3304   24526362.523
        42.0004         38.0004
  -1224634.07347   -903475.66446  23913065.4654   23913073.5904   23913064.045
        45.0004         40.0004
 -17491586.60649 -13606591.06648  20640170.4964   20640172.4334   20640169.495
        57.0004         52.0004
 -18436854.43848 -14311327.92748  21606107.1774   21606109.1274   21606106.225
        52.0004         48.0004
 15  5  1  0 29  0.0000000  0 10G15G04G13G24G11G01G06G30G17G28
  -9400030.68848  -7283538.91547  23261713.1484   23261717.4454   23261712.645
        48.0004         43.0004
   -834336.64646   -635313.40046  24639016.9724   24639022.3454   24639013.946
        41.0004         36.0004
  -9736450.43847  -7534811.58946  23104609.5554   23104613.3154   23104608.047
        46.0004         41.0004
 -10133428.60647  -7855517.99946  23214469.4594   23214476.0934   23214467.434
        46.0004         41.0004
  -6179108.40147  -4768884.57146  24082625.7854   24082628.8424   24082624.407
        42.0004         38.0004
  -9391776.83547  -7266324.33147  23113738.8254   23113745.0004   23113737.249
        47.0004         42.0004
  -3813484.30747  -2928603.35246  24505369.4554   24505379.0104   24505367.910
        43.0004         39.0004
  -1116313.07147   -819069.81746  23933679.4334   23933686.0634   23933677.885
        45.0004         40.0004
 -17501550.82749 -13614355.38248  20638274.4844   20638276.3104   20638274.188
        57.0004         52.0004
 -18389586.58648 -14274495.85248  21615101.5554   21615103.8154   21615101.863
        52.0004         48.0004
 15  5  1  0 29 30.0000000  0 10G15G04G13G24G11G01G06G30G17G28
  -9348216.05848  -7243163.91547  23271573.1284   23271576.5754   23271572.904
        48.0004         43.0004
   -754071.88246   -572769.51846  24654289.3514   24654295.6584   24654291.297
        41.0004         36.0004
  -9640677.20647  -7460183.17546  23122834.5634   23122837.3194   23122834.053
        46.0004         41.0004
 -10225831.56247  -7927520.25246  23196886.5074   23196892.2614   23196886.054
        46.0004         41.0004
  -6090778.49847  -4700056.14746  24099434.3874   24099437.1454   24099434.278
        42.0004         38.0004
  -9355589.00247  -7238126.04147  23120625.0334   23120631.4434   23120622.777
        47.0004         42.0004
  -3923791.91247  -3014557.07046  24484378.7314   24484387.2134   24484376.677
        44.0004         39.0004
  -1007831.45347   -734538.80346  23954322.7794   23954330.6444   23954322.055
        45.0004         40.0004
 -17511030.56249 -13621742.17248  20636470.5974   20636472.3954   20636469.876
        57.0004         52.0004
 -18342116.37148 -14237506.08248  21624134.6034   21624136.9194   21624134.955
        52.0004         48.0004
 15  5  1  0 30  0.0000000  0 10G15G04G13G24G11G01G06G30G17G28
  -9295953.84348  -7202440.14347  23281519.6984   23281522.3064   23281517.834
        48.0004         43.0004
   -673384.82146   -509896.58246  24669645.3614   24669649.7344   24669646.002
        41.0004         36.0004
  -9544620.21047  -7385333.62346  23141113.9044   23141117.2684   23141112.785
        46.0004         41.0004
 -10317980.23447  -7999324.36546  23179351.0174   23179356.4364   23179349.353
        46.0004         41.0004
  -6002065.23947  -4630929.01146  24116315.7854   24116320.0504   24116316.845
        43.0004         38.0004
  -9318818.89847  -7209474.03047  23127622.6834   23127628.1214   23127622.343
        47.0004         43.0004
  -4034073.61847  -3100490.60946  24463392.6834   24463400.9614   24463391.354
        44.0004         40.0004
   -899191.01747   -649884.05646  23974995.5384   23975004.1374   23974996.049
        45.0004         40.0004
 -17520026.12149 -13628751.68348  20634758.7574   20634760.4104   20634757.773
        57.0004         52.0004
 -18294443.78248 -14200358.62348  21633206.5024   21633209.0214   21633205.886
        52.0004         48.0004
 15  5  1  0 30 30.0000000  0 10G15G04G13G24G11G01G06G30G17G28
  -9243246.18948  -7161369.29447  23291548.5304   23291553.1904   23291549.438
        48.0004         43.0004
   -592278.05246   -446696.54546  24685078.2954   24685084.6054   24685078.954
        41.0004         36.0004
  -9448282.91647  -7310265.67346  23159446.8584   23159450.0934   23159445.044
        46.0004         41.0004
 -10409872.07147  -8070928.35046  23161863.9534   23161869.9804   23161863.698
        46.0004         41.0004
  -5912971.27547  -4561505.22646  24133271.3394   24133274.6394   24133270.972
        43.0004         39.0004
  -9281467.66147  -7180369.18747  23134730.3044   23134736.6414   23134728.296
        47.0004         42.0004
  -4144326.55247  -3186401.73346  24442410.5054   24442421.9554   24442409.380
        44.0004         40.0004
   -790393.52247   -565106.92346  23995699.5614   23995708.2864   23995699.087
        45.0004         40.0004
 -17528537.51949 -13635383.92748  20633139.0414   20633140.9304   20633138.247
        57.0004         52.0004
 -18246569.05048 -14163053.65248  21642317.2454   21642319.7214   21642316.899
        52.0004         48.0004
 15  5  1  0 31  0.0000000  0 10G15G04G13G24G11G01G06G30G17G28
  -9190095.70048  -7119953.35247  23301663.4564   23301668.2134   23301662.455
        48.0004         44.0004
   -510754.22546   -383171.54146  24700591.4524   24700599.0404   24700591.527
        41.0004         36.0004
  -9351668.50347  -7234981.78246  23177830.9094   23177834.5444   23177830.306
        45.0004         41.0004
 -10501504.87147  -8142330.50046  23144427.5684   23144433.7794   23144425.079
        46.0004         41.0004
  -5823499.40847  -4491786.94646  24150294.4714   24150301.0754   24150295.501
        44.0004         39.0004
  -9243536.64447  -7150812.56847  23141947.0344   23141953.9344   23141946.606
        47.0004         42.0004
  -4254547.96647  -3272288.30046  24421435.3804   24421446.4664   24421435.595
        44.0004         40.0004
   -681440.87847   -480208.91346  24016432.1724   24016440.8094   24016431.934
        45.0004         40.0004
 -17536565.83149 -13641639.73948  20631611.2444   20631613.0854   20631610.426
        57.0004         52.0004
 -18198492.72848 -14125591.60348  21651465.9104   21651468.2654   21651465.491
        52.0004         48.0004
 15  5  1  0 31 30.0000000  0 10G15G04G13G24G11G01G06G30G17G28
  -9136504.64848  -7078194.14147  23311860.9944   23311864.1004   23311859.830
        48.0004         43.0004
   -428816.20146   -319323.82046  24716187.1734   24716188.4394   24716185.588
        40.0004         36.0004
  -9254780.70947  -7159484.86946  23196268.3174   23196272.1294   23196267.627
        45.0004         41.0004
 -10592875.89347  -8213528.67647  23127039.9424   23127046.3614   23127039.902
        46.0004         42.0004
  -5733652.12447  -4421776.15846  24167394.1464   24167398.6594   24167394.855
        44.0004         39.0004
  -9205027.09647  -7120805.13347  23149275.2054   23149282.6964   23149274.809
        47.0004         42.0004
  -4364734.99647  -3358148.06246  24400467.8084   24400477.9974   24400465.794
        44.0004         39.0004
   -572334.78447   -395191.31746  24037195.4554   24037203.2714   24037195.269
        44.0004         39.0004
 -17544111.65249 -13647519.58648  20630175.6464   20630177.1334   20630174.791
        57.0004         52.0004
 -18150214.95948 -14087972.56748  21660652.5994   21660655.0204   21660652.627
        52.0004         48.0004
 15  5  1  0 32  0.0000000  0 10G15G04G13G24G11G01G06G30G17G28
  -9082475.35647  -7036093.40447  23322142.1044   23322146.3034   23322141.118
        47.0004         43.0004
   -346466.27746   -255155.12046  24731854.8674   24731860.9954   24731854.826
        40.0004         36.0004
  -9157622.35447  -7083777.11846  23214756.4634   23214760.4084   23214756.653
        45.0004         41.0004
 -10683982.66947  -8284520.92647  23109702.0334   23109708.7244   23109701.994
        46.0004         42.0004
  -5643432.30447  -4351475.05746  24184560.7044   24184566.7164   24184563.115
        44.0004         39.0004
  -9165940.22947  -7090347.85747  23156713.7694   23156721.0094   23156713.106
        47.0004         42.0004
  -4474884.78547  -3443978.80846  24379506.3174   24379516.7364   24379505.985
        44.0004         39.0004
   -463077.06947   -310055.57046  24057984.8094   24057994.0114   24057985.062
        44.0004         39.0004
 -17551175.17449 -13653023.61848  20628831.2354   20628833.0094   20628830.630
        57.0004         52.0004
 -18101735.69348 -14050196.52847  21669877.7754   21669880.0524   21669877.718
        52.0004         47.0004
 15  5  1  0 32 30.0000000  0 10G15G04G13G24G11G01G06G30G17G28
  -9028009.98547  -6993652.90647  23332507.3614   23332509.9354   23332506.314
        47.0004         43.0004
   -263707.28246   -190667.63945  24747603.8864   24747609.3274   24747602.935
        40.0004         35.0004
  -9060196.94447  -7007861.28846  23233296.1044   23233301.8404   23233295.460
        45.0004         41.0004
 -10774823.41647  -8355305.89447  23092416.9454   23092422.1804   23092416.119
        47.0004         42.0004
  -5552842.70547  -4280885.85346  24201801.2904   24201805.5984   24201801.346
        44.0004         39.0004
  -9126277.47347  -7059441.83447  23164260.8504   23164268.3874   23164262.325
        47.0004         42.0004
  -4584994.53547  -3529778.36646  24358554.0904   24358564.1154   24358552.684
        44.0004         39.0004
   -353669.62347   -224803.16646  24078806.1954   24078813.2614   24078804.990
        44.0004         39.0004
 -17557756.95349 -13658152.26248  20627578.6124   20627580.4864   20627577.867
        57.0004         52.0004
 -18053055.75348 -14012264.11847  21679141.1634   21679143.3464   21679141.114
        52.0004         47.0004
 15  5  1  0 33  0.0000000  0 10G15G04G13G24G11G01G06G30G17G28
  -8973111.19747  -6950874.63147  23342953.9274   23342958.2074   23342952.718
        47.0004         42.0004
   -180541.88546   -125863.50446  24763430.5434   24763435.6664   24763429.930
        40.0004         36.0004
  -8962507.55247  -6931739.76746  23251885.6324   23251890.1974   23251886.095
        45.0004         41.0004
 -10865395.07847  -8425881.18047  23075180.8554   23075187.5174   23075180.278
        47.0004         42.0004
  -5461886.22347  -4210010.75246  24219109.5104   24219112.9944   24219108.888
        43.0004         38.0004
  -9086040.16647  -7028088.09147  23171917.7784   23171924.7524   23171916.427
        47.0004         42.0004
  -4695061.43847  -3615544.52046  24337608.5264   24337618.8514   24337607.061
        44.0004         39.0004
   -244114.22747   -139435.47246  24099653.0744   24099661.6194   24099652.481
        44.0004         39.0004
 -17563857.38349 -13662905.83248  20626418.1344   20626419.6724   20626417.396
        57.0004         52.0004
 -18004175.13748 -13974175.33547  21688443.5104   21688444.8334   21688443.038
        52.0004         47.0004
 15  5  1  0 33 30.0000000  0 10G15G04G13G24G11G01G06G30G17G28
  -8917781.20547  -6907760.40447  23353482.8654   23353486.1294   23353482.642
        47.0004         43.0004
    -96972.56846    -60744.62946  24779332.1954   24779339.7044   24779331.562
        40.0004         36.0004
  -8864557.64447  -6855415.21646  23270525.9234   23270528.8664   23270523.977
        45.0004         41.0004
 -10955695.51247  -8496245.12647  23057997.7074   23058004.1034   23057996.366
        47.0004         42.0004
  -5370565.30747  -4138851.66546  24236487.6374   24236492.0924   24236487.186
        43.0004         38.0004
  -9045229.57947  -6996287.65647  23179684.7424   23179690.7024   23179682.587
        47.0004         42.0004
  -4805082.62747  -3701275.05946  24316671.8744   24316681.4754   24316669.288
        43.0004         39.0004
   -134412.68747    -53953.90446  24120528.4864   24120537.7844   24120527.689
        44.0004         39.0004
 -17569477.34449 -13667285.01148  20625348.3484   20625350.3254   20625347.541
        57.0004         52.0004
 -17955093.90248 -13935930.23447  21697782.9024   21697784.9534   21697782.292
        52.0004         47.0004
 15  5  1  0 34  0.0000000  0 10G15G04G13G24G11G01G06G30G17G28
  -8862022.29247  -6864311.92647  23364093.1614   23364097.2724   23364093.274
        47.0004         43.0004
    -13001.97246      4686.95645  24795312.3304   24795316.4404   24795310.224
        40.0004         35.0004
  -8766350.51147  -6778890.22846  23289213.4814   23289219.2714   23289213.050
        45.0004         40.0004
 -11045722.29147  -8566395.84047  23040866.3624   23040871.6004   23040865.289
        47.0004         43.0004
  -5278882.54247  -4067410.64246  24253933.6414   24253937.2584   24253932.089
        42.0004         38.0004
  -9003847.08947  -6964041.58547  23187559.7344   23187565.4474   23187558.544
        47.0004         42.0004
  -4915055.24647  -3786967.74746  24295744.6914   24295754.8874   24295742.771
        43.0004         39.0004
    -24566.78947     31640.14246  24141431.9964   24141441.6034   24141430.959
        44.0004         39.0004
 -17574617.20749 -13671290.08448  20624370.3794   20624372.2474   20624369.488
        57.0004         52.0004
 -17905812.31248 -13897529.00747  21707161.2984   21707163.2574   21707160.484
        52.0004         47.0004
 15  5  1  0 34 30.0000000  0 10G15G04G13G24G11G01G06G30G17G28
  -8805836.94348  -6820531.20147  23374785.5094   23374789.1884   23374784.542
        48.0004         43.0004
     71366.85946     70428.83245  24811364.2564   24811374.8064   24811364.187
        39.0004         34.0004
  -8667889.23547  -6702167.25346  23307950.7024   23307953.3264   23307950.039
        45.0004         41.0004
 -11135473.00547  -8636331.42147  23023787.0354   23023793.1324   23023786.253
        47.0004         42.0004
  -5186841.04447  -3995690.06546  24271449.2634   24271451.4564   24271449.250
        42.0004         38.0004
  -8961894.23847  -6931351.05347  23195542.9684   23195550.0034   23195541.826
        47.0004         43.0004
  -5024976.48547  -3872620.43346  24274827.0294   24274836.7884   24274825.943
        43.0004         38.0004
     85421.53747    117345.19346  24162362.0004   24162371.6014   24162362.440
        44.0004         40.0004
 -17579277.48549 -13674921.46148  20623483.2554   20623485.5044   20623483.021
        57.0004         52.0004
 -17856330.61048 -13858971.85647  21716577.0984   21716579.1864   21716577.505
        52.0004         47.0004
 15  5  1  0 35  0.0000000  0 10G15G04G13G24G11G01G06G30G17G28
  -8749227.53948  -6776420.01147  23385557.7654   23385562.1324   23385555.895
        48.0004         43.0004
    156131.63246    136479.25045  24827495.0864   24827502.9144   24827492.085
        39.0004         34.0004
  -8569177.16847  -6625248.82146  23326735.2714   23326738.7404   23326733.642
        45.0004         40.0004
 -11224945.03847  -8706049.85247  23006761.5774   23006766.7144   23006760.414
        47.0004         43.0004
  -5094443.44447  -3923691.98646  24289031.2984   24289036.7794   24289031.306
        42.0004         37.0004
  -8919372.35947  -6898217.14147  23203634.1984   23203641.5374   23203633.096
        47.0004         42.0004
  -5134843.44747  -3958230.82946  24253919.5084   24253928.6164   24253918.530
        43.0004         38.0004
    195550.51047    203159.83246  24183320.2384   24183329.0694   24183319.714
        44.0004         39.0004
 -17583458.91949 -13678179.71148  20622687.8254   20622689.6604   20622686.664
        57.0004         52.0004
 -17806649.27448 -13820259.13547  21726031.1774   21726033.1064   21726030.111
        52.0004         47.0004
 15  5  1  0 35 30.0000000  0 10G15G04G13G24G11G01G06G30G17G28
  -8692196.55148  -6731980.32547  23396409.8794   23396414.8144   23396408.385
        48.0004         43.0004
    241289.50446    202835.95945  24843701.6044   24843707.1874   24843698.178
        39.0004         35.0004
  -8470217.41547  -6548137.39346  23345565.5284   23345571.1254   23345565.029
        45.0004         40.0004
 -11314135.98447  -8775549.26447  22989789.1564   22989794.2614   22989788.103
        47.0004         43.0004
  -5001692.43446  -3851418.53446  24306682.9474   24306685.3594   24306680.462
        41.0004         37.0004
  -8876282.84847  -6864640.93647  23211834.0594   23211840.9204   23211834.137
        47.0004         42.0004
  -5244653.30447  -4043796.70746  24233024.1004   24233033.9054   24233022.860
        43.0004         39.0004
    305818.37947    289082.67946  24204303.8024   24204310.7674   24204302.756
        44.0004         39.0004
 -17587161.94549 -13681065.17648  20621983.1354   20621985.0664   20621982.336
        57.0004         52.0004
 -17756768.12248 -13781390.72347  21735523.2704   21735525.3764   21735522.640
        52.0004         47.0004
 15  5  1  0 36  0.0000000  0 10G15G04G13G24G11G01G06G30G17G28
  -8634746.29947  -6687213.91047  23407341.5784   23407346.9874   23407341.459
        47.0004         43.0004
    326837.77946    269496.87245  24859982.5674   24859986.1364   24859980.081
        40.0004         35.0004
  -8371013.58347  -6470835.75446  23364443.0194   23364448.5614   23364443.155
        45.0004         40.0004
 -11403043.62648  -8844827.90947  22972870.7074   22972876.0444   22972869.191
        48.0004         43.0004
  -4908590.62446  -3778871.74946  24324397.2814   24324402.6784   24324397.952
        41.0004         36.0004
  -8832627.30047  -6830623.64147  23220141.2684   23220147.3944   23220140.483
        46.0004         42.0004
  -5354403.17247  -4129315.86646  24212138.9424   24212147.7384   24212138.630
        43.0004         39.0004
    416223.19147    375112.25446  24225311.8494   24225320.0374   24225311.130
        44.0004         39.0004
 -17590387.31049 -13683578.43948  20621369.4814   20621371.2174   20621368.748
        57.0004         52.0004
 -17706687.94548 -13742367.22847  21745052.8634   21745054.9644   21745052.940
        52.0004         47.0004
 15  5  1  0 36 30.0000000  0 10G15G04G13G24G11G01G06G30G17G28
  -8576879.48348  -6642122.93747  23418355.5204   23418358.9604   23418355.367
        48.0004         43.0004
    412773.82446    336459.94946  24876332.1964   24876342.2074   24876333.842
        40.0004         36.0004
  -8271568.79047  -6393346.38446  23383366.9064   23383371.5414   23383366.917
        45.0004         40.0004
 -11491665.64148  -8913883.97747  22956005.8344   22956011.2024   22956006.162
        48.0004         43.0004
  -4815141.00846  -3706053.96345  24342180.0264   24342185.4834   24342181.493
        40.0004         35.0004
  -8788407.14947  -6796166.41447  23228556.1634   23228562.6074   23228555.962
        46.0004         42.0004
  -5464090.24747  -4214786.08846  24191266.7454   24191274.8464   24191265.638
        43.0004         39.0004
    526763.14647    461247.12546  24246347.2944   24246357.0224   24246346.696
        44.0004         39.0004
 -17593135.62449 -13685719.97248  20620846.5594   20620848.3974   20620845.448
        57.0004         52.0004
 -17656408.82048 -13703188.70747  21754620.2484   21754623.3434   21754620.067
        52.0004         47.0004
 15  5  1  0 37  0.0000000  0 10G15G04G13G24G11G01G06G30G17G28
  -8518598.25147  -6596709.02147  23429445.3904   23429448.5394   23429444.177
        47.0004         43.0004
    499094.70946    403722.87846  24892762.2364   24892764.7384   24892762.122
        40.0004         36.0004
  -8171886.44047  -6315671.89946  23402335.9114   23402340.1104   23402335.950
        45.0004         40.0004
 -11579999.43847  -8982715.45147  22939195.8444   22939202.5034   22939195.855
        47.0004         43.0004
  -4721346.14546  -3632967.13645  24360030.7294   24360033.8274   24360026.111
        40.0004         35.0004
  -8743623.92547  -6761270.40647  23237078.3194   23237084.0764   23237077.946
        46.0004         42.0004
  -5573711.65447  -4300205.16146  24170405.9174   24170413.9554   24170405.208
        44.0004         39.0004
    637436.39747    547485.89146  24267407.1144   24267416.0254   24267407.427
        43.0004         39.0004
 -17595407.62449 -13687490.35448  20620413.8734   20620415.7404   20620413.280
        57.0004         52.0004
 -17605930.74948 -13663855.16447  21764226.8304   21764229.4484   21764226.484
        52.0004         47.0004
 15  5  1  0 37 30.0000000  0 10G15G04G13G24G11G01G06G30G17G28
  -8459905.09447  -6550974.14447  23440614.3764   23440616.6294   23440612.303
        47.0004         43.0004
    585797.93346    471283.76545  24909262.0814   24909265.5504   24909258.006
        40.0004         35.0004
  -8071969.69547  -6237814.76746  23421351.3874   23421353.5384   23421349.654
        44.0004         40.0004
 -11668042.86547  -9051320.65747  22922442.8234   22922446.8864   22922442.091
        47.0004         43.0004
  -4627208.84246  -3559613.48546  24377944.5474   24377949.1544   24377943.906
        40.0004         36.0004
  -8698279.10647  -6725936.81947  23245707.3454   23245712.8354   23245704.361
        46.0004         42.0004
  -5683264.50847  -4385570.80146  24149559.5964   24149567.4304   24149557.247
        44.0004         39.0004
    748241.07647    633827.06146  24288495.1034   24288502.1434   24288494.263
        43.0004         38.0004
 -17597203.60749 -13688889.80948  20620072.1814   20620074.0514   20620071.572
        57.0004         52.0004
 -17555254.11048 -13624366.88547  21773869.8814   21773872.2914   21773869.225
        52.0004         47.0004
 15  5  1  0 38  0.0000000  0 10G15G04G13G24G11G01G06G30G17G28
  -8400802.49447  -6504920.17847  23451860.2684   23451865.2084   23451859.658
        47.0004         42.0004
    672880.91646    539140.51445  24925829.8214   24925835.9994   24925829.242
        40.0004         35.0004
  -7971821.58047  -6159777.35746  23440407.3214   23440411.9074   23440406.958
        44.0004         39.0004
 -11755792.65247  -9119697.06747  22905744.2634   22905749.7584   22905742.617
        47.0004         43.0004
  -4532731.86046  -3485995.12346  24395924.3254   24395927.1624   24395922.046
        41.0004         36.0004
  -8652374.18747  -6690166.76747  23254442.3784   23254448.6914   23254441.164
        46.0004         42.0004
  -5792745.83147  -4470880.70046  24128724.3544   24128733.7314   24128723.303
        44.0004         39.0004
    859175.55147    720269.32846  24309604.1184   24309611.8924   24309604.626
        43.0004         38.0004
 -17598524.40449 -13689918.98848  20619820.8084   20619822.5924   20619819.968
        57.0004         52.0004
 -17504378.83348 -13584723.83447  21783550.9224   21783553.8404   21783551.193
        52.0004         47.0004
 15  5  1  0 38 30.0000000  0 10G15G04G13G24G11G01G06G30G17G28
  -8341293.41147  -6458549.51447  23463184.9294   23463188.3584   23463185.039
        47.0004         42.0004
    760340.37746    607290.67945  24942472.1214   24942480.8714   24942472.317
        39.0004         35.0004
  -7871445.57247  -6081562.36146  23459509.3384   23459513.2814   23459508.257
        44.0004         39.0004
 -11843247.24448  -9187843.43547  22889102.6964   22889107.6814   22889101.592
        48.0004         43.0004
  -4437918.19746  -3412114.42046  24413963.5364   24413968.7174   24413963.941
        41.0004         37.0004
  -8605910.97547  -6653961.67446  23263283.9534   23263290.5324   23263284.773
        46.0004         41.0004
  -5902152.96047  -4556132.79246  24107904.5444   24107913.4944   24107903.237
        44.0004         39.0004
    970237.61547    806811.03346  24330739.4264   24330747.2634   24330737.610
        43.0004         39.0004
 -17599370.85549 -13690578.55148  20619659.7874   20619661.5224   20619658.859
        57.0004         52.0004
 -17453305.72448 -13544926.62347  21793270.4644   21793272.2014   21793270.319
        52.0004         47.0004
 15  5  1  0 39  0.0000000  0 10G15G04G13G24G11G01G06G30G17G28
  -8281379.90747  -6411863.72547  23474585.4074   23474588.9974   23474585.660
        47.0004         42.0004
    848174.38746    675732.71645  24959189.1774   24959194.4484   24959187.507
        39.0004         35.0004
  -7770845.20147  -6003172.53446  23478652.8544   23478657.8064   23478651.211
        44.0004         40.0004
 -11930403.71748  -9255757.52447  22872517.9594   22872521.9004   22872516.061
        48.0004         43.0004
  -4342770.37946  -3337973.32646  24432070.0214   24432073.8234   24432070.990
        41.0004         37.0004
  -8558890.84647  -6617322.62646  23272232.0584   23272238.1234   23272231.689
        46.0004         41.0004
  -6011482.89247  -4641324.75546  24087099.4964   24087108.9574   24087098.433
        44.0004         39.0004
   1081425.65847    893450.94346  24351896.7674   24351905.1224   24351896.129
        43.0004         39.0004
 -17599743.49649 -13690868.91048  20619588.8174   20619590.7514   20619587.958
        57.0004         52.0004
 -17402034.53348 -13504975.05647  21803027.6454   21803028.8694   21803026.998
        52.0004         47.0004
 15  5  1  0 39 30.0000000  0 10G15G04G13G24G11G01G06G30G17G28
  -8221064.72647  -6364864.92647  23486063.4964   23486067.8734   23486061.855
        47.0004         42.0004
    936379.69246    744464.05945  24975973.6054   24975980.8474   24975976.047
        39.0004         35.0004
  -7670023.44247  -5924610.19646  23497838.3464   23497841.9454   23497837.078
        44.0004         39.0004
 -12017259.90848  -9323437.61747  22855988.5724   22855994.1314   22855988.130
        48.0004         43.0004
  -4247291.14046  -3263573.98546  24450239.8464   24450243.6874   24450238.606
        41.0004         37.0004
  -8511315.46747  -6580250.92746  23281285.4944   23281291.6844   23281283.876
        46.0004         41.0004
  -6120732.71247  -4726454.27646  24066309.2244   24066318.3404   24066309.053
        44.0004         39.0004
   1192737.81147    980187.54546  24373079.5814   24373088.9394   24373078.715
        43.0004         39.0004
 -17599643.18449 -13690790.73548  20619608.0844   20619609.7414   20619607.090
        57.0004         52.0004
 -17350565.64648 -13464869.44647  21812821.2374   21812823.3514   21812821.078
        52.0004         47.0004
 15  5  1  0 40  0.0000000  0 10G15G04G13G24G11G01G06G30G17G28
  -8160350.05447  -6317554.82947  23497616.6454   23497621.3414   23497616.044
        47.0004         42.0004
   1024953.62846    813482.53745  24992825.6814   24992833.9504   24992825.330
        39.0004         34.0004
  -7568983.72647  -5845878.02946  23517064.8124   23517070.2234   23517064.991
        44.0004         39.0004
 -12103813.48748  -9390881.91047  22839518.1284   22839522.7244   22839517.050
        48.0004         43.0004
  -4151483.17147  -3188918.49046  24468471.1744   24468475.6904   24468470.533
        42.0004         37.0004
  -8463186.53247  -6542747.88646  23290443.4354   23290448.7724   23290442.676
        46.0004         41.0004
  -6229899.54647  -4811519.13046  24045536.1904   24045545.3914   24045535.206
        44.0004         40.0004
   1304172.17347   1067019.38346  24394283.8524   24394292.4474   24394284.295
        43.0004         38.0004
 -17599070.73249 -13690344.66048  20619716.9174   20619718.7654   20619716.321
        57.0004         52.0004
 -17298899.53148 -13424610.14847  21822652.9164   21822655.6284   21822653.102
        52.0004         47.0004
 15  5  1  0 40 30.0000000  0 10G15G04G13G24G11G01G06G30G17G28
  -8099238.55747  -6269935.55947  23509247.8054   23509250.9654   23509247.213
        47.0004         43.0004
   1113893.46156    882786.20555  25009754.1445   25009761.8465   25009752.588
        38.0004         34.0004
  -7467729.22947  -5766978.53546  23536333.1164   23536338.3534   23536332.538
        44.0004         40.0004
 -12190061.83248  -9458088.35247  22823105.3764   22823110.7014   22823104.397
        48.0004         43.0004
  -4055349.51147  -3114009.23146  24486765.8534   24486768.7664   24486765.390
        42.0004         37.0004
  -8414505.60247  -6504814.70246  23299707.1994   23299713.2194   23299705.462
        46.0004         41.0004
  -6338980.54247  -4896517.09546  24024777.5344   24024786.4944   24024777.304
        44.0004         40.0004
   1415726.87647   1153944.99146  24415512.4764   24415523.3014   24415512.052
        43.0004         38.0004
 -17598026.45149 -13689530.92148  20619915.7924   20619917.3824   20619914.952
        57.0004         52.0004
 -17247035.98848 -13384197.01547  21832522.0704   21832524.4064   21832521.667
        52.0004         47.0004
 15  5  1  0 41  0.0000000  0 10G15G04G13G24G11G01G06G30G17G28
  -8037732.88147  -6222009.09947  23520951.0634   23520954.9354   23520950.488
        47.0004         43.0004
   1203196.45256    952372.89955  25026745.0455   25026753.1615   25026744.842
        38.0004         34.0004
  -7366263.28847  -5687914.24246  23555641.4654   23555647.1394   23555641.294
        44.0004         39.0004
 -12276002.51148  -9525055.05747  22806751.4084   22806756.7054   22806750.741
        48.0004         43.0004
  -3958893.14147  -3038848.51446  24505119.7874   24505125.5894   24505121.135
        42.0004         37.0004
  -8365274.43547  -6466452.79946  23309075.3704   23309081.3374   23309074.499
        46.0004         41.0004
  -6447972.74747  -4981445.87746  24004038.0284   24004046.4524   24004037.511
        44.0004         40.0004
   1527400.09347   1240962.92246  24436763.4844   24436772.3424   24436762.638
        43.0004         39.0004
 -17596511.29449 -13688350.27048  20620203.9884   20620205.8074   20620203.125
        57.0004         52.0004
 -17194975.21048 -13343630.19547  21842428.5034   21842431.0604   21842428.382
        52.0004         47.0004
 15  5  1  0 41 30.0000000  0 10G15G04G13G24G11G01G06G30G17G28
  -7975835.43547  -6173777.35447  23532729.9874   23532732.5344   23532727.542
        47.0004         42.0004
   1292859.61546   1022240.25045  25043805.8274   25043813.0584   25043809.170
        38.0004         34.0004
  -7264589.19747  -5608687.76346  23574988.7134   23574994.9214   23574989.667
        44.0004         40.0004
 -12361632.83948  -9591779.93547  22790456.3504   22790461.3014   22790456.239
        48.0004         43.0004
  -3862116.20547  -2963438.00246  24523536.1794   24523541.4504   24523535.768
        42.0004         37.0004
  -8315494.65747  -6427663.36946  23318548.0814   23318554.5364   23318548.184
        46.0004         41.0004
  -6556873.29347  -5066303.22946  23983314.6854   23983323.7244   23983313.793
        44.0004         40.0004
   1639190.00047   1328071.76846  24458036.5884   24458045.8774   24458035.686
        43.0004         39.0004
 -17594525.89449 -13686803.19248  20620582.1064   20620583.5574   20620580.985
        57.0004         52.0004
 -17142717.78748 -13302910.14347  21852373.2594   21852375.7914   21852373.002
        52.0004         47.0004
 15  5  1  0 42  0.0000000  0 10G15G04G13G24G11G01G06G30G17G28
  -7913549.01547  -6125242.51847  23544582.0114   23544586.7624   23544582.648
        47.0004         42.0004
   1382880.57946   1092386.34145  25060939.0714   25060945.0364   25060939.271
        39.0004         34.0004
  -7162710.17547  -5529301.59146  23594377.3824   23594382.4894   23594377.033
        44.0004         39.0004
 -12446950.87148  -9658261.47447  22774220.4444   22774225.9914   22774220.354
        48.0004         44.0004
  -3765021.73347  -2887780.05446  24542011.8594   24542017.9124   24542012.827
        42.0004         37.0004
  -8265168.05547  -6388447.87146  23328126.1294   23328131.8944   23328124.346
        46.0004         41.0004
  -6665679.30447  -5151086.93646  23962609.8874   23962619.1224   23962608.650
        45.0004         40.0004
   1751094.60347   1415270.00046  24479331.4904   24479341.3334   24479329.749
        43.0004         38.0004
 -17592071.46649 -13684890.64148  20621048.7894   20621050.6874   20621048.074
        57.0004         52.0004
 -17090263.95448 -13262037.04347  21862355.2924   21862356.9434   21862354.849
        52.0004         47.0004
 15  5  1  0 42 30.0000000  0 10G15G04G13G24G11G01G06G30G17G28
  -7850876.04047  -6076406.51547  23556510.0244   23556514.0294   23556508.501
        47.0004         42.0004
   1473256.25146   1162808.83645  25078139.4984   25078143.5594   25078137.034
        39.0004         34.0004
  -7060629.62247  -5449758.37646  23613801.6024   23613807.0064   23613801.475
        44.0004         40.0004
 -12531953.75748  -9724497.44347  22758045.3594   22758050.3664   22758044.318
        48.0004         44.0004
  -3667612.61347  -2811876.90346  24560547.9334   24560553.8654   24560550.014
        42.0004         37.0004
  -8214296.32347  -6348807.58946  23337806.0444   23337812.0304   23337805.369
        46.0004         41.0004
  -6774387.89247  -5235794.73846  23941922.6694   23941931.5904   23941921.848
        45.0004         40.0004
   1863112.14347   1502556.23446  24500646.9534   24500655.5274   24500645.975
        43.0004         38.0004
 -17589148.51049 -13682613.00548  20621604.8564   20621606.6914   20621604.147
        57.0004         52.0004
 -17037613.73748 -13221010.91347  21872373.4864   21872376.5754   21872373.913
        52.0004         47.0004
 15  5  1  0 43  0.0000000  0 10G15G04G13G24G11G01G06G30G17G28
  -7787819.07647  -6027271.24247  23568508.1924   23568512.3044   23568506.535
        47.0004         42.0004
   1563984.08546   1233505.82645  25095402.7064   25095407.7954   25095402.184
        39.0004         34.0004
  -6958350.62947  -5370060.56446  23633266.8824   23633270.2854   23633265.365
        44.0004         40.0004
 -12616638.83448  -9790485.76047  22741930.3824   22741935.3704   22741929.250
        48.0004         44.0004
  -3569891.27747  -2735730.49946  24579144.4264   24579149.3364   24579144.726
        42.0004         37.0004
  -8162881.05347  -6308743.77046  23347590.2054   23347596.6244   23347589.423
        46.0004         41.0004
  -6882995.99747  -5320424.25546  23921255.0154   23921263.4754   23921254.312
        45.0004         40.0004
   1975240.85247   1589929.07646  24521984.7714   24521994.3334   24521985.407
        43.0004         38.0004
 -17585757.69449 -13679970.79848  20622250.4064   20622252.1154   20622249.640
        57.0004         52.0004
 -16984767.11348 -13179831.74447  21882430.4484   21882432.3174   21882429.968
        51.0004         47.0004
 15  5  1  0 43 30.0000000  0 10G15G04G13G24G11G01G06G30G17G28
  -7724380.95247  -5977838.96647  23580580.4624   23580584.3434   23580579.626
        47.0004         42.0004
   1655061.12646   1304474.86445  25112733.1394   25112743.7294   25112733.339
        39.0004         34.0004
  -6855876.62647  -5290210.78346  23652765.3794   23652770.3424   23652764.826
        44.0004         39.0004
 -12701004.72748  -9856225.36947  22725875.8534   22725881.5844   22725874.997
        48.0004         44.0004
  -3471861.12546  -2659343.45746  24597800.9934   24597805.3404   24597797.905
        41.0004         36.0004
  -8110924.34547  -6268258.03846  23357477.1394   23357483.1224   23357476.831
        46.0004         41.0004
  -6991500.98247  -5404973.41946  23900606.6994   23900615.9564   23900606.021
        44.0004         40.0004
   2087478.62347   1677386.91246  24543342.6524   24543351.9374   24543343.965
        43.0004         38.0004
 -17581900.14649 -13676964.91148  20622984.5104   20622986.0884   20622983.622
        57.0004         52.0004
 -16931724.63448 -13138499.96147  21892523.7734   21892525.9034   21892523.882
        51.0004         47.0004
 15  5  1  0 44  0.0000000  0 10G15G04G13G24G11G01G06G30G17G28
  -7660564.16047  -5928111.66747  23592724.9344   23592728.3064   23592723.093
        47.0004         42.0004
   1746484.91246   1375714.07445  25130130.6554   25130140.6484   25130129.828
        39.0004         34.0004
  -6753210.69747  -5210211.45346  23672303.5934   23672308.6324   23672302.250
        44.0004         39.0004
 -12785048.00348  -9921713.58947  22709882.8764   22709887.9384   22709881.998
        49.0004         44.0004
  -3373524.36146  -2582717.51146  24616510.2744   24616516.0234   24616510.250
        41.0004         36.0004
  -8058427.65747  -6227351.53647  23367466.8364   23367473.6344   23367467.228
        46.0004         42.0004
  -7099899.66947  -5489439.75246  23879979.3544   23879986.7704   23879978.593
        44.0004         40.0004
   2199823.78047   1764928.44446  24564722.5624   24564730.3254   24564720.418
        43.0004         38.0004
 -17577576.46649 -13673595.80248  20623807.1554   20623808.9594   20623806.561
        57.0004         52.0004
 -16878486.34748 -13097015.60247  21902654.4894   21902657.8464   21902654.700
        51.0004         47.0004
 15  5  1  0 44 30.0000000  0 10G15G04G13G24G11G01G06G30G17G28
  -7596371.12547  -5878091.17047  23604938.7224   23604942.6104   23604938.941
        47.0004         42.0004
   1838252.37146   1447221.11445  25147593.3314   25147601.4904   25147592.826
        39.0004         34.0004
  -6650356.26547  -5130065.24946  23691877.1774   23691880.2184   23691875.307
        43.0004         39.0004
 -12868766.53448  -9986948.77047  22693951.9224   22693957.3664   22693950.962
        49.0004         44.0004
  -3274883.82646  -2505854.87545  24635282.8094   24635287.8994   24635281.513
        40.0004         35.0004
  -8005392.90247  -6186025.78346  23377558.5534   23377564.8894   23377557.627
        46.0004         41.0004
  -7208189.20447  -5573821.05346  23859372.7694   23859380.5924   23859371.268
        45.0004         40.0004
   2312274.46747   1852552.19746  24586121.2864   24586129.3454   24586119.521
        43.0004         38.0004
 -17572787.38849 -13669864.04748  20624718.3764   20624720.2764   20624717.784
        57.0004         52.0004
 -16825052.71248 -13055379.02047  21912822.4234   21912824.8644   21912822.368
        51.0004         47.0004
 15  5  1  0 45  0.0000000  0 10G15G04G13G24G11G01G06G30G17G28
  -7531804.73447  -5827779.75247  23617225.0314   23617230.2614   23617224.725
        47.0004         42.0004
   1930360.72646   1518993.83045  25165123.3974   25165129.4414   25165117.887
        39.0004         34.0004
  -6547316.76947  -5049774.84946  23711484.0014   23711486.4534   23711482.623
        43.0004         38.0004
 -12952158.24948 -10051929.28247  22678083.1864   22678088.3864   22678082.059
        49.0004         44.0004
  -3175942.47846  -2428757.83245  24654109.5804   24654117.3674   24654112.446
        40.0004         35.0004
  -7951822.02747  -6144282.27146  23387753.0864   23387759.1654   23387751.891
        46.0004         41.0004
  -7316366.83747  -5658115.13146  23838787.0684   23838795.5384   23838786.152
        45.0004         40.0004
   2424828.64547   1940256.59046  24607538.4994   24607546.8354   24607538.680
        43.0004         38.0004
 -17567533.70449 -13665770.26548  20625717.9604   20625720.0174   20625717.318
        57.0004         52.0004
 -16771423.87148 -13013590.33747  21923027.7334   21923030.0574   21923027.762
        51.0004         47.0004
 15  5  1  0 45 30.0000000  0 10G15G04G13G24G11G01G06G30G17G28
  -7466867.33647  -5777179.24246  23629583.7624   23629586.9964   23629582.412
        46.0004         41.0004
   2022807.29446   1591030.02045  25182713.1764   25182722.3044   25182713.253
        38.0004         34.0004
  -6444095.09647  -4969342.47346  23731124.8064   23731129.5774   23731123.759
        43.0004         38.0004
 -13035219.63548 -10116652.39547  22662277.0014   22662282.2774   22662276.345
        49.0004         44.0004
  -3076703.15846  -2351428.56846  24672996.8564   24673002.1434   24672996.277
        40.0004         36.0004
  -7897716.77747  -6102122.36546  23398049.3584   23398055.5804   23398048.367
        46.0004         41.0004
  -7424429.45347  -5742319.60746  23818222.7974   23818231.4344   23818222.383
        45.0004         40.0004
   2537484.51947   2028040.19946  24628977.7564   24628985.2004   24628978.567
        43.0004         38.0004
 -17561816.83549 -13661315.55748  20626805.9584   20626807.8214   20626805.436
        57.0004         52.0004
 -16717599.85948 -12971649.56147  21933271.3594   21933272.8664   21933270.868
        51.0004         46.0004
 15  5  1  0 46  0.0000000  0  9G15G13G24G11G01G06G30G17G28
  -7401562.03247  -5726292.03346  23642010.7124   23642014.7314   23642010.585
        46.0004         41.0004
  -6340694.87247  -4888770.95346  23750800.3954   23750808.8994   23750801.009
        43.0004         38.0004
 -13117949.33948 -10181117.05747  22646534.4414   22646538.9814   22646533.667
        49.0004         44.0004
  -2977168.61746  -2273869.30045  24691936.3624   24691940.5394   24691935.561
        40.0004         35.0004
  -7843078.99147  -6059547.48546  23408447.0114   23408452.7234   23408446.158
        46.0004         41.0004
  -7532374.19347  -5826432.22946  23797682.1854   23797689.7754   23797681.041
        45.0004         40.0004
   2650240.24547   2115901.61746  24650434.5044   24650442.5004   24650434.915
        42.0004         38.0004
 -17555637.26649 -13656500.30448  20627981.8334   20627983.6494   20627981.447
        57.0004         52.0004
 -16663580.82648 -12929556.83047  21943550.0184   21943551.9654   21943549.701
        51.0004         46.0004
 15  5  1  0 46 30.0000000  0  9G15G13G24G11G01G06G30G17G28
  -7335891.21747  -5675120.02647  23654507.6844   23654511.9074   23654507.069
        46.0004         42.0004
  -6237119.23047  -4808062.78646  23770511.1514   23770515.9094   23770510.610
        43.0004         38.0004
 -13200344.77248 -10245321.25047  22630855.0184   22630860.3794   22630853.636
        49.0004         44.0004
  -2877341.69446  -2196082.21146  24710933.3194   24710937.7234   24710932.870
        40.0004         36.0004
  -7787910.64647  -6016559.18146  23418945.2984   23418951.1494   23418943.500
        46.0004         41.0004
  -7640198.20747  -5910450.75846  23777163.7614   23777171.2434   23777162.158
        45.0004         40.0004
   2763093.78347   2203839.24046  24671909.5574   24671917.5594   24671909.120
        42.0004         38.0004
 -17548996.00049 -13651325.28648  20629245.7524   20629247.3584   20629245.029
        57.0004         52.0004
 -16609367.24348 -12887312.50647  21953866.3804   21953869.7374   21953866.856
        51.0004         47.0004
 15  5  1  0 47  0.0000000  0  9G15G13G24G11G01G06G30G17G28
  -7269857.27647  -5623665.05847  23667073.7054   23667075.1904   23667073.078
        46.0004         42.0004
  -6133371.25747  -4727220.29446  23790255.2694   23790259.7644   23790253.680
        43.0004         38.0004
 -13282402.90148 -10309262.61047  22615238.5874   22615244.7184   22615238.184
        49.0004         44.0004
  -2777225.24346  -2118069.45745  24729985.1544   24729989.5454   24729984.284
        40.0004         35.0004
  -7732213.39447  -5973158.76146  23429543.8204   23429549.2994   23429542.128
        46.0004         41.0004
  -7747898.28747  -5994372.71446  23756669.5224   23756676.9484   23756667.408
        45.0004         40.0004
   2876043.57147   2291851.88846  24693402.5914   24693412.1324   24693402.480
        42.0004         37.0004
 -17541893.50749 -13645790.86548  20630597.3324   20630598.9564   20630596.692
        57.0004         52.0004
 -16554959.07848 -12844916.55447  21964219.8294   21964222.4884   21964220.139
        51.0004         47.0004
 15  5  1  0 47 30.0000000  0  9G15G13G24G11G01G06G30G17G28
  -7203463.43147  -5571929.60246  23679707.1374   23679711.8244   23679706.642
        46.0004         41.0004
  -6029454.23747  -4646246.09846  23810028.3164   23810033.6504   23810028.324
        43.0004         38.0004
 -13364121.84448 -10372939.67247  22599689.0824   22599694.3714   22599688.043
        49.0004         44.0004
  -2676821.58646  -2039832.92245  24749090.5144   24749096.7324   24749090.330
        40.0004         35.0004
  -7675989.39947  -5929347.88746  23440243.0114   23440248.6324   23440242.576
        46.0004         41.0004
  -7855471.83647  -6078196.09046  23736198.2514   23736205.8954   23736197.895
        45.0004         41.0004
   2989087.60746   2379937.99046  24714913.4424   24714924.9684   24714915.190
        41.0004         37.0004
 -17534331.20649 -13639898.15748  20632036.4834   20632037.9854   20632035.196
        57.0004         52.0004
 -16500356.73148 -12802369.28547  21974610.9494   21974613.3214   21974610.536
        51.0004         46.0004
 15  5  1  0 48  0.0000000  0  9G15G13G24G11G01G06G30G17G28
  -7136712.08247  -5519915.62346  23692410.7174   23692412.8924   23692410.193
        46.0004         41.0004
  -5925371.77647  -4565143.00246  23829836.6224   23829840.5664   23829835.469
        43.0004         38.0004
 -13445498.98948 -10436350.39847  22584203.2604   22584208.1874   22584201.745
        49.0004         44.0004
  -2576133.82046  -1961375.02145  24768253.1014   24768255.0764   24768247.975
        39.0004         35.0004
  -7619240.56947  -5885128.05746  23451041.9654   23451048.5164   23451040.072
        46.0004         41.0004
  -7962915.86847  -6161918.52746  23715751.7714   23715760.2284   23715750.497
        45.0004         41.0004
   3102223.76546   2468095.83746  24736446.8524   24736454.9964   24736445.023
        41.0004         36.0004
 -17526309.91249 -13633647.79748  20633562.9544   20633564.5154   20633561.915
        57.0004         52.0004
 -16445560.48048 -12759670.92847  21985038.1174   21985040.0414   21985037.282
        51.0004         46.0004
 15  5  1  0 48 30.0000000  0  9G15G13G24G11G01G06G30G17G28
  -7069606.00947  -5467625.22746  23705179.1494   23705184.6384   23705179.827
        46.0004         41.0004
  -5821126.67047  -4483913.15946  23849671.8654   23849676.6314   23849671.951
        43.0004         38.0004
 -13526531.87548 -10499492.87647  22568782.9654   22568787.8734   22568782.534
        49.0004         44.0004
  -2475164.51446  -1882697.71145  24787463.7324   24787472.7434   24787464.156
        39.0004         34.0004
  -7561968.62747  -5840500.60247  23461940.3244   23461947.8014   23461940.230
        46.0004         42.0004
  -8070227.24447  -6245537.60646  23695331.4304   23695338.4304   23695329.974
        45.0004         41.0004
   3215450.57646   2556324.31346  24757992.1564   24757998.4764   24757992.391
        41.0004         36.0004
 -17517830.29949 -13627040.30148  20635176.1714   20635178.0374   20635175.466
        57.0004         52.0004
 -16390570.17848 -12716821.37047  21995502.1904   21995504.6284   21995502.205
        51.0004         46.0004
 15  5  1  0 49  0.0000000  0  9G15G13G24G11G01G06G30G17G28
  -7002148.11947  -5415060.71946  23718016.9154   23718019.8154   23718015.632
        46.0004         41.0004
  -5716722.36747  -4402559.27346  23869541.2044   23869545.3624   23869539.717
        43.0004         38.0004
 -13607218.44948 -10562365.49747  22553429.3744   22553433.9094   22553427.945
        49.0004         45.0004
  -2373916.72346  -1803803.40745  24806731.0994   24806734.7794   24806731.924
        38.0004         33.0004
  -7504175.83947  -5795467.29346  23472937.7764   23472945.0824   23472937.213
        46.0004         41.0004
  -8177403.26747  -6329051.22846  23674935.5524   23674944.0284   23674935.344
        45.0004         41.0004
   3328765.73946   2644621.63946  24779555.4534   24779563.4964   24779555.156
        41.0004         37.0004
 -17508893.57849 -13620076.61648  20636876.9214   20636878.7664   20636876.219
        57.0004         52.0004
 -16335386.28548 -12673820.95547  22006003.5424   22006006.0134   22006003.153
        51.0004         46.0004
 15  5  1  0 49 30.0000000  0  9G15G13G24G11G01G06G30G17G28
  -6934340.56947  -5362223.73747  23730919.5574   23730924.7534   23730919.758
        46.0004         42.0004
  -5612161.95347  -4321083.74546  23889438.1814   23889442.6414   23889436.448
        42.0004         38.0004
 -13687555.79048 -10624965.98647  22538141.3714   22538146.8644   22538140.553
        49.0004         44.0004
  -2272393.00946  -1724694.08345  24826053.0484   24826054.9784   24826050.401
        38.0004         33.0004
  -7445863.88247  -5750029.43746  23484034.1024   23484041.0894   23484033.114
        46.0004         41.0004
  -8284440.75947  -6412456.91046  23654566.6884   23654574.2474   23654566.084
        45.0004         41.0004
   3442167.68647   2732986.60746  24801133.1464   24801143.4754   24801133.249
        42.0004         37.0004
 -17499500.39149 -13612757.23948  20638664.4544   20638666.2624   20638663.524
        57.0004         52.0004
 -16280008.84248 -12630669.72247  22016541.9664   22016543.9744   22016541.370
        51.0004         46.0004
 15  5  1  0 50  0.0000000  0  9G15G13G24G11G01G06G30G17G28
  -6866186.32647  -5309116.60747  23743888.5834   23743893.5444   23743887.609
        46.0004         42.0004
  -5507449.23247  -4239489.49446  23909364.5874   23909367.0594   23909363.494
        42.0004         38.0004
 -13767541.91348 -10687292.79447  22522919.6364   22522925.1964   22522918.980
        49.0004         44.0004
  -2170596.36146  -1645372.09645  24845423.4244   24845428.6914   24845423.795
        39.0004         34.0004
  -7387034.92447  -5704188.73346  23495228.3214   23495235.5384   23495226.807
        45.0004         41.0004
  -8391336.94247  -6495752.46146  23634225.0964   23634233.0494   23634224.247
        45.0004         40.0004
   3555654.38547   2821417.63246  24822728.9494   24822738.8254   24822728.249
        42.0004         37.0004
 -17489651.91349 -13605083.09648  20640538.5134   20640540.1934   20640537.870
        57.0004         52.0004
 -16224438.13448 -12587367.89747  22027116.4584   22027118.3874   22027116.169
        51.0004         46.0004
 15  5  1  0 50 30.0000000  0  9G15G13G24G11G01G06G30G17G28
  -6797688.45847  -5255741.71847  23756924.6124   23756928.4204   23756922.582
        47.0004         42.0004
  -5402587.15847  -4157778.90346  23929317.9014   23929323.5984   23929317.401
        43.0004         38.0004
 -13847173.87848 -10749343.64647  22507766.2004   22507771.7564   22507765.393
        49.0004         44.0004
  -2068529.64146  -1565839.70545  24864848.9234   24864850.1234   24864846.972
        39.0004         35.0004
  -7327691.07647  -5657946.80746  23506522.3644   23506528.4744   23506520.675
        45.0004         41.0004
  -8498089.00247  -6578935.72546  23613911.6504   23613918.6154   23613908.783
        45.0004         41.0004
   3669223.88347   2909913.17646  24844341.6194   24844350.7144   24844339.736
        42.0004         37.0004
 -17479349.36149 -13597055.13048  20642498.8334   20642500.5704   20642498.119
        57.0004         52.0004
 -16168674.48548 -12543915.73847  22037727.9534   22037729.8324   22037728.228
        51.0004         46.0004
 15  5  1  0 51  0.0000000  0  9G15G13G24G11G01G06G30G17G28
  -6728849.31047  -5202100.87247  23770023.2884   23770027.7714   23770023.071
        47.0004         42.0004
  -5297578.86047  -4075954.36746  23949301.3154   23949306.9734   23949301.058
        43.0004         39.0004
 -13926449.61348 -10811116.91047  22492680.9044   22492686.5144   22492679.646
        49.0004         44.0004
  -1966195.25346  -1486098.65845  24884320.0054   24884325.5684   24884320.060
        39.0004         35.0004
  -7267834.09947  -5611305.04146  23517912.5564   23517918.6224   23517912.414
        45.0004         41.0004
  -8604693.69547  -6662004.15946  23593625.0724   23593632.1644   23593623.272
        46.0004         41.0004
   3782874.52047   2998471.92046  24865968.1104   24865977.5944   24865968.506
        42.0004         37.0004
 -17468593.26549 -13588673.74948  20644545.9224   20644547.5254   20644545.327
        56.0004         52.0004
 -16112717.69748 -12500313.05847  22048376.3314   22048378.4064   22048375.749
        51.0004         46.0004
 15  5  1  0 51 30.0000000  0  9G15G13G24G11G01G06G30G17G28
  -6659671.45447  -5148196.13647  23783187.5664   23783193.6234   23783187.517
        46.0004         42.0004
  -5192427.57547  -3994018.44846  23969310.9814   23969315.4724   23969309.566
        43.0004         38.0004
 -14005366.67348 -10872610.68547  22477663.9564   22477668.1654   22477662.902
        49.0004         45.0004
  -1863596.13546  -1406151.40045  24903844.2764   24903849.1264   24903843.614
        39.0004         35.0004
  -7207466.24047  -5564265.19546  23529399.5994   23529406.4614   23529399.166
        45.0004         41.0004
  -8711148.24847  -6744955.60646  23573367.2514   23573374.3174   23573365.708
        46.0004         41.0004
   3896604.29546   3087092.36046  24887612.3324   24887622.4104   24887610.845
        41.0004         36.0004
 -17457385.06449 -13579940.08348  20646678.6654   20646680.3794   20646678.100
        56.0004         52.0004
 -16056568.37248 -12456560.35847  22059060.9484   22059063.1814   22059060.675
        51.0004         46.0004
 15  5  1  0 52  0.0000000  0 10G15G13G24G11G12G01G06G30G17G28
  -6590158.29847  -5094030.11046  23796416.0334   23796420.3454   23796415.079
        46.0004         41.0004
  -5087136.60447  -3911973.65546  23989347.6404   23989351.4004   23989347.496
        43.0004         38.0004
 -14083922.33648 -10933822.85747  22462714.7074   22462720.0194   22462714.234
        49.0004         45.0004
  -1760735.06946  -1326000.00545  24923418.9134   24923421.8504   24923415.475
        40.0004         35.0004
   -202687.26548   -115068.25246  24913308.1474   24913315.1134   24913307.499
        51.0004         38.0004
  -7146589.47647  -5516828.78846  23540983.9504   23540990.2604   23540982.433
        45.0004         41.0004
  -8817449.65247  -6827787.70546  23553138.8954   23553146.3274   23553137.207
        46.0004         41.0004
   4010411.32646   3175772.99446  24909268.6774   24909278.5074   24909268.535
        41.0004         37.0004
 -17445725.43549 -13570854.65748  20648897.4544   20648899.2334   20648896.657
        56.0004         52.0004
 -16000226.57348 -12412657.68047  22069782.8614   22069784.7224   22069782.336
        51.0004         46.0004
 15  5  1  0 52 30.0000000  0 10G15G13G24G11G12G01G06G30G17G28
  -6520312.26547  -5039604.66846  23809707.9074   23809711.0504   23809706.559
        45.0004         40.0004
  -4981709.35347  -3829822.65646  24009409.5594   24009414.4684   24009408.687
        43.0004         39.0004
 -14162114.50648 -10994751.77147  22447835.4404   22447840.7304   22447834.456
        49.0004         45.0004
  -1657614.81346  -1245646.62745  24943037.4764   24943043.9134   24943041.632
        40.0004         35.0004
   -300343.58247   -191164.04646  24894726.1864   24894731.2384   24894725.328
        47.0004         39.0004
  -7085205.95947  -5468997.51446  23552664.5204   23552671.6004   23552663.295
        45.0004         41.0004
  -8923595.09247  -6910498.30746  23532940.0304   23532947.1004   23532938.687
        46.0004         41.0004
   4124293.58046   3264512.20446  24930938.1084   24930949.2634   24930938.151
        41.0004         36.0004
 -17433615.59549 -13561418.41648  20651201.9584   20651203.5664   20651201.130
        56.0004         52.0004
 -15943692.65248 -12368605.29747  22080540.6274   22080542.6854   22080540.530
        51.0004         46.0004
 15  5  1  0 53  0.0000000  0 10G15G13G24G11G12G01G06G30G17G28
  -6450135.98547  -4984921.92246  23823062.1084   23823065.4804   23823061.347
        45.0004         41.0004
  -4876148.75147  -3747567.76846  24029496.3804   24029500.4224   24029496.800
        43.0004         39.0004
 -14239940.55848 -11055395.41047  22433026.0214   22433030.9954   22433025.312
        49.0004         45.0004
  -1554238.20546  -1165093.56945  24962713.4394   24962718.2794   24962714.179
        40.0004         35.0004
   -397971.83647   -267237.89046  24876148.1594   24876152.6084   24876147.251
        44.0004         38.0004
  -7023317.64447  -5420772.90946  23564442.2734   23564448.5324   23564441.154
        45.0004         41.0004
  -9029581.37247  -6993084.87346  23512772.0324   23512778.3324   23512770.573
        46.0004         41.0004
   4238249.41246   3353308.74846  24952622.7744   24952631.0084   24952623.487
        41.0004         36.0004
 -17421056.21049 -13551631.88048  20653591.8304   20653593.5044   20653591.054
        56.0004         52.0004
 -15886966.38048 -12324403.02647  22091335.5694   22091337.2434   22091335.299
        51.0004         46.0004
 15  5  1  0 53 30.0000000  0 10G15G13G24G11G12G01G06G30G17G28
  -6379632.47647  -4929984.16546  23836479.0624   23836481.7544   23836478.391
        45.0004         41.0004
  -4770458.18047  -3665211.60846  24049609.3494   24049613.7634   24049609.122
        43.0004         38.0004
 -14317398.48048 -11115752.19747  22418286.4614   22418291.0434   22418285.318
        49.0004         45.0004
  -1450607.91546  -1084342.80345  24982433.2354   24982438.3804   24982432.296
        40.0004         35.0004
   -495571.27547   -343289.29346  24857574.6794   24857577.5284   24857572.970
        42.0004         36.0004
  -6960926.74947  -5372156.69346  23576314.9554   23576321.4774   23576314.497
        45.0004         41.0004
  -9135405.79747  -7075545.29646  23492633.3804   23492640.4074   23492632.511
        46.0004         41.0004
   4352276.74146   3442161.02346  24974320.8094   24974330.1444   24974322.376
        41.0004         36.0004
 -17408048.43349 -13541495.94848  20656066.9854   20656068.9674   20656066.174
        56.0004         52.0004
 -15830048.42648 -12280051.40047  22102166.3544   22102168.7034   22102166.674
        51.0004         46.0004
 15  5  1  0 54  0.0000000  0 10G15G13G24G11G12G01G06G30G17G28
  -6308804.40347  -4874793.51146  23849954.8404   23849960.1474   23849954.824
        46.0004         41.0004
  -4664640.84947  -3582756.65246  24069746.3264   24069750.6554   24069744.386
        43.0004         38.0004
 -14394485.98048 -11175820.33847  22403616.6034   22403621.8894   22403615.517
        49.0004         45.0004
  -1346726.80646  -1003396.56745  25002201.3474   25002207.5784   25002200.947
        40.0004         35.0004
   -593141.27446   -419317.71146  24839003.5584   24839011.6454   24839004.516
        41.0004         36.0004
  -6898035.42147  -5323150.49746  23588282.5124   23588289.1674   23588282.422
        45.0004         41.0004
  -9241065.28947  -7157877.19046  23472526.7664   23472534.0054   23472525.743
        46.0004         41.0004
   4466373.74646   3531067.61546  24996036.3994   24996046.9494   24996035.406
        41.0004         36.0004
 -17394593.58149 -13531011.64548  20658627.3384   20658629.1304   20658626.535
        56.0004         52.0004
 -15772938.74848 -12235550.37147  22113034.3084   22113036.1324   22113034.007
        50.0004         46.0004
 15  5  1  0 54 30.0000000  0 10G15G13G24G11G12G01G06G30G17G28
  -6237654.39447  -4819351.98646  23863495.1134   23863499.7984   23863493.100
        46.0004         41.0004
  -4558699.97247  -3500205.43746  24089907.4924   24089910.1844   24089905.273
        42.0004         38.0004
 -14471199.91148 -11235597.39247  22389018.3884   22389023.6454   22389017.141
        49.0004         45.0004
  -1242597.50346   -922256.96345  25022017.7524   25022021.7424   25022015.434
        40.0004         34.0004
   -690680.98747   -495322.43146  24820446.6094   24820449.8404   24820446.315
        42.0004         37.0004
  -6834645.72847  -5273755.97846  23600344.6754   23600351.9734   23600344.440
        45.0004         40.0004
  -9346556.90547  -7240078.27246  23452452.1964   23452459.7634   23452451.528
        46.0004         41.0004
   4580538.50846   3620026.99946  25017756.6334   25017769.6314   25017761.131
        41.0004         36.0004
 -17380692.61649 -13520179.72748  20661272.7114   20661274.4924   20661271.806
        56.0004         52.0004
 -15715637.51848 -12190900.08147  22123937.3414   22123940.1334   22123937.293
        50.0004         46.0004
 15  5  1  0 55  0.0000000  0 10G15G13G24G11G12G01G06G30G17G28
  -6166185.22447  -4763661.77247  23877095.6604   23877100.0454   23877095.347
        47.0004         42.0004
  -4452638.71547  -3417560.43746  24110088.5074   24110093.6484   24110087.364
        42.0004         38.0004
 -14547538.16548 -11295081.70147  22374491.2094   22374496.4324   22374490.263
        49.0004         45.0004
  -1138222.73646   -840926.12645  25041876.0934   25041879.9064   25041877.748
        39.0004         34.0004
   -788189.76147   -571303.11246  24801890.2784   24801893.5314   24801889.837
        42.0004         37.0004
  -6770759.73547  -5223974.73946  23612502.7084   23612508.2484   23612500.530
        45.0004         41.0004
  -9451877.64347  -7322146.21647  23432410.5744   23432417.5324   23432410.154
        46.0004         42.0004
   4694769.24746   3709037.73945  25039498.6174   25039505.2414   25039500.460
        40.0004         35.0004
 -17366346.58549 -13509001.00348  20664002.8614   20664004.5884   20664002.406
        56.0004         52.0004
 -15658144.88348 -12146100.64847  22134878.6514   22134880.8404   22134878.163
        50.0004         46.0004
 15  5  1  0 55 30.0000000  0 10G15G13G24G11G12G01G06G30G17G28
  -6094400.02947  -4707725.34147  23890756.2094   23890759.6434   23890755.821
        47.0004         42.0004
  -4346460.36147  -3334824.13346  24130295.5454   24130300.1004   24130292.912
        42.0004         37.0004
 -14623498.77948 -11354271.74947  22360037.0284   22360042.8594   22360035.491
        50.0004         45.0004
  -1033605.54646   -759406.35945  25061784.4324   25061790.9604   25061785.762
        39.0004         35.0004
   -885667.13546   -647259.45245  24783340.7514   24783344.6424   24783340.757
        40.0004         35.0004
  -6706379.76647  -5173808.58946  23624754.3754   23624759.7294   23624753.368
        45.0004         40.0004
  -9557024.76847  -7404078.86246  23412400.5014   23412409.4044   23412400.175
        46.0004         41.0004
   4809063.89146   3798098.35445  25061247.0144   25061257.1664   25061245.332
        40.0004         35.0004
 -17351556.58949 -13497476.33248  20666817.0104   20666818.6654   20666816.444
        56.0004         52.0004
 -15600461.04748 -12101152.22747  22145854.5274   22145857.8874   22145854.723
        50.0004         46.0004
 15  5  1  0 56  0.0000000  0 10G15G13G24G11G12G01G06G30G17G28
  -6022301.47047  -4651544.70447  23904476.7114   23904480.3354   23904475.458
        46.0004         42.0004
  -4240168.08647  -3251999.09246  24150520.8464   24150524.9254   24150520.254
        42.0004         37.0004
 -14699078.78748 -11413165.21747  22345653.7274   22345659.9064   22345653.455
        50.0004         45.0004
   -928748.24746   -677699.47045  25081742.8404   25081746.7804   25081738.399
        40.0004         35.0004
   -983112.13946   -723190.39646  24764795.4904   24764803.2204   24764796.044
        41.0004         37.0004
  -6641507.91747  -5123259.12846  23637098.5424   23637104.7984   23637098.121
        45.0004         40.0004
  -9661995.02447  -7485873.69446  23392426.5314   23392434.1004   23392423.678
        46.0004         41.0004
   4923420.73946   3887207.41346  25083010.9724   25083019.2234   25083008.821
        40.0004         36.0004
 -17336323.50249 -13485606.39848  20669715.9424   20669717.5094   20669715.187
        56.0004         52.0004
 -15542586.18748 -12056054.96847  22156867.9904   22156871.2894   22156867.028
        50.0004         46.0004
 15  5  1  0 56 30.0000000  0 10G15G13G24G11G12G01G06G30G17G28
  -5949892.35947  -4595122.06846  23918255.7184   23918258.4644   23918254.076
        46.0004         41.0004
  -4133765.22246  -3169087.88346  24170768.5424   24170773.9614   24170767.382
        41.0004         37.0004
 -14774275.99748 -11471760.40247  22331344.5594   22331349.7764   22331344.185
        50.0004         45.0004
   -823653.85646   -595807.83845  25101739.5014   25101743.1604   25101737.157
        40.0004         35.0004
  -1080524.02947   -799095.63546  24746261.6634   24746267.5114   24746260.553
        42.0004         38.0004
  -6576146.41747  -5072328.10946  23649536.4994   23649543.4844   23649534.757
        45.0004         40.0004
  -9766785.68847  -7567528.59447  23372484.8094   23372492.4224   23372483.735
        46.0004         42.0004
   5037837.63746   3976363.27046  25104782.2744   25104794.0834   25104780.333
        40.0004         36.0004
 -17320648.77749 -13473392.32748  20672698.8494   20672700.4084   20672698.208
        56.0004         52.0004
 -15484520.69348 -12010809.16147  22167917.4964   22167921.0794   22167917.789
        50.0004         46.0004
 15  5  1  0 57  0.0000000  0 10G15G13G24G11G12G01G06G30G17G28
  -5877175.24247  -4538459.42846  23932092.5344   23932095.7934   23932090.646
        45.0004         40.0004
  -4027254.83446  -3086092.90446  24191034.3754   24191041.8094   24191034.087
        41.0004         37.0004
 -14849088.52248 -11530055.84047  22317107.8114   22317113.5984   22317107.745
        50.0004         45.0004
   -718325.26546   -513733.69645  25121782.7664   25121786.7654   25121782.072
        40.0004         35.0004
  -1177902.43247   -874974.91246  24727731.0574   24727735.0594   24727729.993
        42.0004         37.0004
  -6510297.48347  -5021017.29346  23662067.1214   23662074.1224   23662066.819
        45.0004         40.0004
  -9871393.73047  -7649041.19847  23352578.8504   23352585.7474   23352577.665
        46.0004         42.0004
   5152312.89346   4065564.57046  25126563.1724   25126574.6314   25126566.495
        41.0004         36.0004
 -17304533.01849 -13460834.59248  20675765.5364   20675767.1534   20675764.892
        56.0004         52.0004
 -15426264.71848 -11965414.92247  22179003.8854   22179006.1724   22179004.067
        50.0004         46.0004
 15  5  1  0 57 30.0000000  0 10G15G13G24G11G12G01G06G30G17G28
  -5804153.26747  -4481559.23346  23945988.2414   23945993.7334   23945986.838
        45.0004         40.0004
  -3920640.18146  -3003016.68046  24211324.8294   24211330.8934   24211323.713
        41.0004         37.0004
 -14923513.11348 -11588048.98447  22302945.8234   22302950.7344   22302945.112
        50.0004         45.0004
   -612764.85846   -431478.93645  25141868.3324   25141872.4544   25141868.507
        40.0004         35.0004
  -1275246.53246   -950827.20745  24709209.2544   24709204.5264   24709207.306
        41.0004         35.0004
  -6443963.23947  -4969328.32546  23674690.6484   23674696.5414   23674688.376
        45.0004         40.0004
  -9975816.16347  -7730409.19347  23332707.7384   23332715.1704   23332706.471
        47.0004         42.0004
   5266844.60046   4154809.85446  25148359.4074   25148370.3334   25148360.172
        41.0004         36.0004
 -17287977.91449 -13447934.51648  20678915.8294   20678917.5464   20678915.088
        56.0004         52.0004
 -15367818.33148 -11919872.30747  22190126.0314   22190128.7134   22190125.515
        50.0004         45.0004
 15  5  1  0 58  0.0000000  0 10G15G13G24G11G12G01G06G30G17G28
  -5730829.30047  -4424423.76046  23959942.5614   23959944.5494   23959941.026
        45.0004         40.0004
  -3813924.42546  -2919861.66446  24231632.0644   24231638.2154   24231632.076
        41.0004         37.0004
 -14997548.17548 -11645738.60947  22288857.1504   22288862.8094   22288855.815
        50.0004         45.0004
   -506975.41746   -349045.68845  25161996.8964   25162005.4004   25161998.475
        40.0004         35.0004
  -1372555.53646  -1026652.50146  24690688.4794   24690693.7784   24690688.088
        41.0004         37.0004
  -6377146.01147  -4917262.99246  23687404.3584   23687411.8194   23687403.199
        45.0004         40.0004
 -10080050.05047  -7811630.26647  23312873.2814   23312879.2974   23312871.459
        47.0004         42.0004
   5381430.89646   4244097.68346  25170166.0004   25170176.6334   25170166.989
        41.0004         36.0004
 -17270984.26449 -13434692.71048  20682149.6924   20682151.2714   20682148.975
        56.0004         52.0004
 -15309181.71048 -11874181.45547  22201283.8174   22201286.3184   22201283.845
        50.0004         45.0004
 15  5  1  0 58 30.0000000  0 10G15G13G24G11G12G01G06G30G17G28
  -5657206.19247  -4367055.15946  23973951.7684   23973956.9344   23973951.346
        44.0004         38.0004
  -3707110.79947  -2836630.40346  24251958.3084   24251964.4964   24251958.135
        42.0004         37.0004
 -15071190.90748 -11703122.51547  22274843.3824   22274848.4244   22274842.239
        50.0004         45.0004
   -400960.15046   -266436.50045  25182174.8444   25182179.2394   25182173.494
        40.0004         35.0004
  -1469828.46347  -1102449.37446  24672178.8544   24672183.9034   24672177.646
        42.0004         37.0004
  -6309848.07047  -4864823.07346  23700211.2364   23700217.5644   23700210.501
        44.0004         40.0004
 -10184092.53547  -7892702.20347  23293074.0184   23293080.7714   23293073.412
        47.0004         42.0004
   5496069.76846   4333426.46446  25191981.5544   25191990.3504   25191979.985
        41.0004         36.0004
 -17253553.19349 -13421110.05748  20685466.4554   20685468.2934   20685465.649
        56.0004         52.0004
 -15250355.20448 -11828342.65047  22212478.4364   22212480.1574   22212478.887
        50.0004         45.0004
 15  5  1  0 59  0.0000000  0 10G15G13G24G11G12G01G06G30G17G28
  -5583286.75047  -4309455.64746  23988016.4024   23988022.0884   23988017.595
        43.0004         38.0004
  -3600202.21047  -2753325.16646  24272305.7624   24272308.2174   24272304.092
        42.0004         37.0004
 -15144438.81348 -11760198.77347  22260904.3094   22260910.2664   22260904.096
        50.0004         45.0004
   -294721.30246   -183653.10945  25202391.8224   25202398.2424   25202390.584
        40.0004         35.0004
                                                                  24653674.019

  -6242071.51247  -4812010.20546  23713109.5004   23713116.4024   23713107.735
        45.0004         40.0004
 -10287940.46747  -7973622.53147  23273312.0874   23273318.3354   23273312.217
        47.0004         42.0004
   5610759.48646   4422794.89546  25213805.7084   25213818.0534   25213805.359
        40.0004         36.0004
 -17235685.81349 -13407187.42148  20688866.5484   20688868.2104   20688865.951
        56.0004         52.0004
 -15191338.71048 -11782355.80447  22223708.9184   22223710.2074   22223708.675
        50.0004         45.0004
 15  5  1  0 59 30.0000000  0  9G15G13G24G12G01G06G30G17G28
  -5509073.79947  -4251627.46646  24002141.4734   24002143.1564   24002140.229
        42.0004         37.0004
  -3493202.32947  -2669948.75946  24292664.6834   24292670.6034   24292663.091
        42.0004         37.0004
 -15217290.14948 -11816966.01247  22247041.6694   22247046.8444   22247041.423
        50.0004         45.0004
  -1664263.93646  -1253957.45246  24635177.2534   24635185.3514   24635176.350
        41.0004         37.0004
  -6173818.86947  -4758826.36346  23726097.3334   23726103.1694   23726096.974
        45.0004         40.0004
 -10391591.17047  -8054389.17247  23253587.3844   23253594.2284   23253585.335
        47.0004         42.0004
   5725497.91046   4512201.27746  25235640.1174   25235650.2104   25235639.299
        40.0004         36.0004
 -17217383.57949 -13392925.94048  20692349.2924   20692351.1244   20692348.933
        56.0004         52.0004
 -15132132.84748 -11736221.39047  22234975.8774   22234977.5244   22234975.569
        50.0004         45.0004
 15  5  1  1  0  0.0000000  0  9G15G13G24G12G01G06G30G17G28
  -5434569.96346  -4193572.56946  24016317.8274   24016319.2774   24016317.041
        41.0004         36.0004
  -3386114.00147  -2586503.43546  24313042.0664   24313047.8164   24313040.912
        42.0004         37.0004
 -15289742.01948 -11873421.98847  22233255.3794   22233260.1384   22233254.422
        50.0004         46.0004
  -1761424.35246  -1329666.78346  24616688.5044   24616694.7084   24616687.052
        41.0004         37.0004
  -6105092.26747  -4705273.20246  23739175.8274   23739181.3764   23739173.887
        45.0004         40.0004
 -10495041.46647  -8134999.67447  23233901.4814   23233908.9114   23233899.931
        47.0004         42.0004
   5840283.29146   4601644.23446  25257483.4794   25257492.8244   25257483.891
        40.0004         36.0004
 -17198647.31349 -13378326.25248  20695914.9444   20695916.6374   20695914.050
        56.0004         52.0004
 -15072737.42348 -11689939.26547  22246278.3694   22246280.1384   22246277.587
        50.0004         45.0004
 15  5  1  1  0 30.0000000  0  9G15G13G24G12G01G06G30G17G28
  -5359778.33146  -4135293.41046  24030547.3594   24030555.8424   24030547.948
        41.0004         36.0004
  -3278940.38447  -2502991.65746  24333436.4894   24333442.2484   24333437.050
        42.0004         38.0004
 -15361792.24148 -11929564.99147  22219544.3714   22219549.7424   22219542.979
        50.0004         46.0004
  -1858546.22446  -1405345.84145  24598209.2134   24598204.4694   24598207.642
        40.0004         35.0004
  -6035893.98447  -4651352.49946  23752342.8874   23752350.6684   23752342.664
        44.0004         40.0004
 -10598288.43647  -8215451.73547  23214253.7354   23214261.0374   23214252.282
        47.0004         42.0004
   5955113.75246   4691122.30846  25279333.7484   25279343.0834   25279335.552
        40.0004         36.0004
 -17179478.57449 -13363389.57448  20699562.4704   20699564.2464   20699561.749
        56.0004         52.0004
 -15013152.77448 -11643509.69747  22257615.9364   22257618.9404   22257615.770
        50.0004         45.0004
 15  5  1  1  1  0.0000000  0  9G15G13G24G12G01G06G30G17G28
  -5284701.46846  -4076792.06746  24044839.8434   24044839.6784   24044838.309
        41.0004         36.0004
  -3171684.98147  -2419416.17146  24353848.8114   24353851.2934   24353847.153
        42.0004         37.0004
 -15433438.26248 -11985393.03347  22205910.6514   22205915.9354   22205909.698
        50.0004         46.0004
  -1955628.50446  -1480994.40546  24579732.4424   24579737.3004   24579731.188
        41.0004         36.0004
  -5966226.33747  -4597066.06046  23765600.6874   23765607.3484   23765599.632
        44.0004         40.0004
 -10701329.13347  -8295743.06847  23194646.6714   23194652.3294   23194645.954
        47.0004         42.0004
   6069987.40046   4780634.08846  25301193.6264   25301205.2464   25301193.785
        40.0004         36.0004
 -17159878.18249 -13348116.54248  20703292.2354   20703294.1354   20703291.560
        56.0004         52.0004
 -14953379.03848 -11596932.78547  22268991.9104   22268993.6624   22268990.650
        50.0004         45.0004
 15  5  1  1  1 30.0000000  0  9G15G13G24G12G01G06G30G17G28
  -5209342.53446  -4018070.89145  24059177.0874   24059179.7694   24059176.247
        40.0004         35.0004
  -3064350.82647  -2335779.28746  24374271.4694   24374279.5074   24374271.903
        42.0004         38.0004
 -15504677.94848 -12040904.45547  22192354.3854   22192359.0334   22192352.786
        50.0004         46.0004
  -2052670.31047  -1556611.10146  24561267.1114   24561271.4104   24561266.928
        42.0004         38.0004
  -5896091.68947  -4542415.74346  23778946.4594   23778953.5984   23778945.444
        44.0004         40.0004
 -10804160.63247  -8375871.39147  23175077.9734   23175083.8744   23175076.769
        47.0004         42.0004
   6184902.39846   4870178.02746  25323062.3144   25323073.2354   25323063.998
        41.0004         36.0004
 -17139847.37949 -13332508.12548  20707104.2474   20707105.9004   20707103.174
        56.0004         52.0004
 -14893416.32948 -11550208.61747  22280401.9844   22280404.4304   22280401.484
        50.0004         45.0004
 15  5  1  1  2  0.0000000  0  9G15G13G24G12G01G06G30G17G28
  -5133704.54646  -3959132.21245  24073568.1924   24073571.5254   24073568.730
        40.0004         34.0004
  -2956941.05147  -2252083.51046  24394711.8274   24394717.0584   24394712.394
        42.0004         37.0004
 -15575508.87648 -12096097.36947  22178874.3344   22178880.0154   22178874.152
        50.0004         46.0004
  -2149671.10747  -1632195.91446  24542808.3344   24542813.1544   24542807.383
        42.0004         38.0004
  -5825492.44947  -4487403.39246  23792380.6324   23792387.6774   23792379.725
        44.0004         39.0004
 -10906780.06347  -8455834.46447  23155550.2674   23155557.1644   23155549.396
        47.0004         42.0004
   6299856.77746   4959752.66346  25344939.1584   25344947.5384   25344938.410
        41.0004         36.0004
 -17119387.68849 -13316565.51048  20710997.4794   20710999.3124   20710996.815
        56.0004         52.0004
 -14833265.04748 -11503337.51147  22291847.7894   22291849.6214   22291848.188
        50.0004         45.0004
 15  5  1  1  2 30.0000000  0  9G15G13G24G12G01G06G30G17G28
  -5057790.01046  -3899978.13745  24088018.3764   24088022.7534   24088015.866
        39.0004         34.0004
  -2849458.30847  -2168330.83846  24415165.1074   24415170.7074   24415164.275
        42.0004         38.0004
 -15645928.87448 -12150970.07247  22165474.8644   22165479.8664   22165474.004
        50.0004         46.0004
  -2246629.90547  -1707748.01546  24524358.8544   24524360.9614   24524357.804
        42.0004         37.0004
  -5754430.84447  -4432030.75446  23805904.2364   23805910.4264   23805902.475
        44.0004         39.0004
 -11009184.34647  -8535629.89847  23136062.8424   23136070.0894   23136062.213
        47.0004         43.0004
   6414848.73446   5049356.55845  25366820.1904   25366827.8124   25366819.574
        40.0004         35.0004
 -17098500.03149 -13300289.41548  20714972.1554   20714974.2544   20714971.047
        56.0004         51.0004
 -14772925.16548 -11456319.43947  22303330.2964   22303333.8674   22303329.771
        50.0004         45.0004
 15  5  1  1  3  0.0000000  0  9G15G13G24G12G01G06G30G17G28
  -4981602.06646  -3840610.97145  24102518.7444   24102520.8764   24102517.689
        39.0004         35.0004
  -2741906.27447  -2084524.22646  24435630.8364   24435637.1064   24435631.750
        42.0004         37.0004
 -15715935.14748 -12205520.39647  22152152.6284   22152158.0524   22152151.807
        50.0004         46.0004
  -2343545.88347  -1783266.73946  24505917.2614   24505917.8324   24505913.867
        43.0004         39.0004
  -5682909.26447  -4376299.69546  23819513.3714   23819519.8504   23819513.387
        44.0004         39.0004
 -11111370.54847  -8615255.42647  23116618.3084   23116624.3744   23116617.252
        47.0004         43.0004
   6529876.39846   5138988.30045  25388710.9014   25388721.6834   25388707.991
        40.0004         35.0004
 -17077185.49149 -13283680.69448  20719028.4024   20719030.2074   20719027.622
        56.0004         51.0004
 -14712396.94448 -11409154.61747  22314848.4034   22314851.2654   22314848.284
        50.0004         45.0004
 15  5  1  1  3 30.0000000  0  8G15G13G24G12G01G06G17G28
  -4905143.59846  -3781032.94945  24117063.4004   24117066.7154   24117062.962
        39.0004         34.0004
  -2634288.00347  -2000665.97446  24456112.4704   24456116.6164   24456111.849
        42.0004         37.0004
 -15785525.99248 -12259747.01047  22138910.9724   22138914.4614   22138909.808
        50.0004         46.0004
  -2440418.47947  -1858751.69546  24487480.3294   24487482.9294   24487480.550
        43.0004         38.0004
  -5610930.10047  -4320212.08346  23833211.6304   23833217.5324   23833209.745
        44.0004         39.0004
 -11213335.75247  -8694708.75247  23097213.7414   23097221.0624   23097212.051
        47.0004         43.0004
 -17055445.49249 -13266740.43548  20723165.1904   20723166.9284   20723164.486
        56.0004         51.0004
 -14651680.69948 -11361843.28347  22326402.3684   22326405.6574   22326402.092
        50.0004         45.0004
 15  5  1  1  4  0.0000000  0  8G15G13G24G12G01G06G17G28
  -4828417.19546  -3721246.22445  24131664.7544   24131665.8834   24131662.346
        39.0004         34.0004
  -2526606.86847  -1916758.76146  24476602.8324   24476607.5974   24476602.819
        42.0004         37.0004
 -15854699.00048 -12313648.03847  22125747.0184   22125752.2424   22125746.285
        50.0004         46.0004
  -2537246.93547  -1934202.17846  24469055.3564   24469056.2924   24469054.803
        43.0004         39.0004
  -5538495.75347  -4263769.78946  23846995.2904   23847001.4174   23846995.033
        44.0004         39.0004
 -11315077.06948  -8773987.61347  23077853.6104   23077860.2404   23077851.758
        48.0004         43.0004
 -17033281.23849 -13249469.59348  20727383.0244   20727384.7994   20727382.286
        56.0004         51.0004
 -14590776.57248 -11314385.54347  22337992.5964   22337994.0254   22337991.751
        50.0004         45.0004
 15  5  1  1  4 30.0000000  0  8G15G13G24G12G01G06G17G28
  -4751426.29146  -3661253.38345  24146316.6954   24146323.7814   24146318.742
        39.0004         34.0004
  -2418865.52847  -1832804.61146  24497105.0234   24497113.1674   24497104.259
        42.0004         37.0004
 -15923451.70048 -12367221.55847  22112663.6514   22112669.3794   22112662.531
        50.0004         46.0004
  -2634030.41247  -2009617.73146  24450633.9684   24450640.1074   24450635.144
        43.0004         39.0004
  -5465608.62247  -4206974.67746  23860865.0714   23860871.8804   23860865.032
        44.0004         39.0004
 -11416591.49948  -8853089.68447  23058536.0994   23058542.9454   23058535.096
        48.0004         43.0004
 -17010694.09449 -13231869.22948  20731680.9354   20731682.8764   20731680.521
        56.0004         51.0004
 -14529684.72748 -11266781.53547  22349617.8864   22349620.2014   22349616.935
        50.0004         45.0004
 15  5  1  1  5  0.0000000  0  8G15G13G24G12G01G06G17G28
  -4674173.55546  -3601056.48845  24161016.5544   24161022.6294   24161014.639
        38.0004         33.0004
  -2311067.23246  -1748806.07346  24517617.2254   24517625.0014   24517616.581
        41.0004         37.0004
 -15991781.64748 -12420465.64847  22099660.8014   22099665.9394   22099659.893
        50.0004         46.0004
  -2730768.31647  -2084997.71746  24432227.5704   24432232.6224   24432226.402
        43.0004         38.0004
  -5392271.05647  -4149828.56546  23874821.0864   23874827.9714   23874820.532
        44.0004         40.0004
 -11517876.07948  -8932012.67147  23039262.5184   23039268.6904   23039262.022
        48.0004         43.0004
 -16987684.74949 -13213939.87648  20736059.6984   20736061.5964   20736058.942
        56.0004         51.0004
 -14468405.22748 -11219031.29247  22361279.0554   22361280.4704   22361278.119
        50.0004         45.0004
 15  5  1  1  5 30.0000000  0  8G15G13G24G12G01G06G17G28
  -4596661.74046  -3540657.72545  24175767.5554   24175772.7564   24175764.602
        38.0004         33.0004
  -2203215.38346  -1664765.84546  24538139.5194   24538147.5184   24538139.723
        41.0004         36.0004
 -16059686.75848 -12473378.70747  22086738.8744   22086743.7234   22086738.369
        50.0004         46.0004
  -2827459.54147  -2160341.38846  24413829.1614   24413833.3494   24413827.119
        44.0004         40.0004
  -5318485.51147  -4092333.39746  23888862.1404   23888868.3694   23888861.277
        44.0004         40.0004
 -11618927.78548  -9010754.14147  23020032.7614   23020039.6334   23020030.936
        48.0004         43.0004
 -16964255.17849 -13195683.07848  20740518.2474   20740520.1094   20740517.438
        56.0004         51.0004
 -14406938.43748 -11171135.12147  22372975.0474   22372977.7464   22372975.487
        49.0004         45.0004
 15  5  1  1  6  0.0000000  0  8G15G13G24G12G01G06G17G28
  -4518893.82246  -3480059.41545  24190562.3424   24190566.7994   24190564.229
        38.0004         33.0004
  -2095312.82946  -1580686.14946  24558674.8134   24558681.0724   24558674.535
        41.0004         36.0004
 -16127164.91448 -12525959.07647  22073898.2534   22073902.7394   22073897.349
        50.0004         46.0004
  -2924103.36247  -2235648.09446  24395437.1644   24395441.2314   24395436.395
        44.0004         40.0004
  -5244254.50347  -4034491.09546  23902986.8864   23902995.1284   23902985.411
        44.0004         40.0004
 -11719743.85048  -9089312.00847  23000847.9624   23000854.1414   23000846.832
        48.0004         43.0004
 -16940406.58349 -13177099.76248  20745056.5624   20745058.1874   20745055.493
        56.0004         51.0004
 -14345284.39748 -11123093.03847  22384708.9604   22384710.4714   22384707.841
        49.0004         45.0004
 15  5  1  1  6 30.0000000  0  8G15G13G24G12G01G06G17G28
  -4440872.54646  -3419263.71545  24205416.1084   24205417.7294   24205413.397
        39.0004         34.0004
  -1987362.82246  -1496569.39946  24579217.1664   24579226.0504   24579216.073
        41.0004         36.0004
 -16194213.12248 -12578204.41447  22061139.8024   22061144.2194   22061138.271
        50.0004         46.0004
  -3020698.80447  -2310917.14746  24377054.9684   24377060.3924   24377053.928
        45.0004         40.0004
  -5169580.20147  -3976303.37646  23917197.8444   23917204.4844   23917198.284
        45.0004         40.0004
 -11820321.14048  -9167683.84147  22981708.7054   22981715.1254   22981707.464
        48.0004         43.0004
 -16916139.83649 -13158190.61348  20749674.2304   20749676.1024   20749673.691
        56.0004         51.0004
 -14283443.34348 -11074905.22947  22396476.2434   22396478.3784   22396475.958
        49.0004         45.0004
 15  5  1  1  7  0.0000000  0  8G15G13G24G12G01G06G17G28
  -4362600.85446  -3358272.83745  24220306.4074   24220308.2634   24220305.114
        38.0004         34.0004
  -1879368.40946  -1412418.07246  24599766.5344   24599776.6624   24599767.807
        40.0004         36.0004
 -16260829.95448 -12630113.61347  22048462.6364   22048467.6144   22048461.392
        51.0004         46.0004
  -3117245.29947  -2386147.97146  24358683.2634   24358687.2104   24358682.242
        44.0004         40.0004
  -5094465.25847  -3917772.29846  23931491.8034   23931499.4644   23931489.826
        45.0004         40.0004
 -11920656.81248  -9245867.38047  22962614.7694   22962622.1804   22962613.898
        48.0004         43.0004
 -16891456.31649 -13138956.70748  20754371.1634   20754373.0624   20754370.758
        56.0004         51.0004
 -14221415.64948 -11026571.99247  22408279.4484   22408282.3374   22408279.753
        49.0004         44.0004
 15  5  1  1  7 30.0000000  0  8G15G13G24G12G01G06G17G28
  -4284082.26646  -3297089.58345  24235249.9164   24235251.1744   24235250.499
        38.0004         34.0004
  -1771332.85846  -1328234.75945  24620328.3334   24620334.3394   24620326.533
        40.0004         35.0004
 -16327012.70148 -12681684.56347  22035868.3354   22035873.4054   22035867.304
        51.0004         46.0004
  -3213742.23847  -2461340.24746  24340320.5714   24340324.0174   24340320.606
        45.0004         40.0004
  -5018912.21947  -3858899.85546  23945868.8704   23945876.3134   23945868.468
        45.0004         40.0004
 -12020748.10448  -9323860.50547  22943568.3784   22943575.1924   22943566.928
        48.0004         43.0004
 -16866357.43749 -13119399.14648  20759147.6984   20759149.3864   20759146.660
        56.0004         51.0004
 -14159201.20848 -10978093.22947  22420118.4674   22420121.2634   22420118.035
        49.0004         45.0004
 15  5  1  1  8  0.0000000  0  8G15G13G24G12G01G06G17G28
  -4205318.91046  -3235715.54345  24250233.5914   24250237.0744   24250234.632
        38.0004         33.0004
  -1663258.85046  -1244021.36345  24640893.3904   24640897.4924   24640892.282
        40.0004         35.0004
 -16392759.23548 -12732915.60447  22023357.1504   22023362.3814   22023356.087
        51.0004         46.0004
  -3310188.39847  -2536492.98246  24321968.1314   24321970.7614   24321966.230
        44.0004         39.0004
  -4942923.23947  -3799687.71346  23960328.2824   23960335.7764   23960328.316
        45.0004         40.0004
 -12120591.68848  -9401660.59147  22924569.0984   22924575.3154   22924567.626
        48.0004         43.0004
 -16840844.38749 -13099518.85448  20764002.2934   20764004.0714   20764001.829
        56.0004         51.0004
 -14096800.12048 -10929469.05247  22431993.4794   22431995.4474   22431992.990
        49.0004         44.0004
 15  5  1  1  8 30.0000000  0  8G15G13G24G12G01G06G17G28
  -4126314.16246  -3174153.52045  24265273.0174   24265278.7104   24265269.270
        38.0004         33.0004
  -1555149.63746  -1159780.58146  24661465.8584   24661471.7964   24661463.021
        40.0004         36.0004
 -16458067.32148 -12783805.00047  22010930.4214   22010934.7464   22010929.100
        51.0004         46.0004
  -3406583.15947  -2611605.71646  24303625.1884   24303627.5814   24303624.172
        45.0004         40.0004
  -4866501.07847  -3740138.02946  23974872.0544   23974878.4444   23974870.886
        45.0004         40.0004
 -12220185.00648  -9479265.67947  22905616.8614   22905624.3264   22905615.977
        48.0004         43.0004
 -16814918.41149 -13079316.80048  20768935.8564   20768937.5394   20768935.047
        56.0004         51.0004
 -14034212.98748 -10880699.88647  22443902.9694   22443905.7334   22443903.165
        49.0004         45.0004
 15  5  1  1  9  0.0000000  0  7G13G24G12G01G06G17G28
  -1447008.50846  -1075514.92545  24682045.7394   24682046.4574   24682042.640
        40.0004         35.0004
 -16522934.59548 -12834350.90947  21998586.2554   21998590.8114   21998585.070
        51.0004         46.0004
  -3502925.92947  -2686677.90846  24285291.0364   24285294.1804   24285290.407
        44.0004         39.0004
  -4789648.11847  -3680252.67446  23989496.9334   23989504.7054   23989495.276
        45.0004         40.0004
 -12319524.87348  -9556673.23447  22886713.0044   22886719.8444   22886710.886
        48.0004         43.0004
 -16788581.06649 -13058794.20148  20773948.0984   20773949.3974   20773947.425
        56.0004         51.0004
 -13971439.59548 -10831785.58347  22455848.5694   22455851.2244   22455847.984
        49.0004         45.0004
 15  5  1  1  9 30.0000000  0  7G13G24G12G01G06G17G28
  -1338838.50346   -991226.78845  24702627.9134   24702633.7254   24702628.044
        40.0004         35.0004
 -16587359.07848 -12884551.77847  21986326.3914   21986331.8034   21986325.635
        51.0004         46.0004
  -3599215.42647  -2761708.65346  24266966.7024   24266973.3514   24266966.309
        44.0004         40.0004
  -4712366.88147  -3620033.57246  24004202.1694   24004210.4794   24004202.085
        45.0004         40.0004
 -12418608.53848  -9633881.16047  22867857.4554   22867863.9994   22867857.022
        48.0004         44.0004
 -16761833.33849 -13037951.82448  20779037.7134   20779039.5184   20779037.061
        56.0004         51.0004
 -13908480.31548 -10782726.43447  22467828.4954   22467831.2354   22467829.265
        49.0004         45.0004
 15  5  1  1 10  0.0000000  0  7G13G24G12G01G06G17G28
  -1230642.63946   -906918.48546  24723214.8414   24723222.9594   24723216.942
        40.0004         36.0004
 -16651338.34348 -12934405.72647  21974151.5054   21974156.4754   21974150.921
        51.0004         46.0004
  -3695451.09547  -2836697.36746  24248653.8554   24248657.7414   24248653.347
        44.0004         40.0004
  -4634659.81947  -3559482.65846  24018990.2784   24018997.4014   24018989.187
        45.0004         40.0004
 -12517433.01248  -9710887.14247  22849052.0664   22849058.6324   22849051.271
        48.0004         44.0004
 -16734676.59649 -13016790.73048  20784205.5244   20784207.2104   20784204.830
        55.0004         51.0004
 -13845335.27648 -10733522.54547  22479845.2544   22479847.1514   22479845.155
        49.0004         44.0004
 15  5  1  1 10 30.0000000  0  7G13G24G12G01G06G17G28
  -1122423.76046   -822592.23646  24743810.5804   24743817.7234   24743811.662
        40.0004         36.0004
 -16714870.31148 -12983911.12247  21962061.5364   21962066.7424   21962060.844
        51.0004         46.0004
  -3791632.00047  -2911643.51546  24230349.1404   24230354.7974   24230348.438
        43.0004         38.0004
  -4556529.51647  -3498601.96846  24033858.6234   24033864.6954   24033858.236
        45.0004         40.0004
 -12615995.43248  -9787688.92747  22830295.9254   22830302.6224   22830294.651
        48.0004         44.0004
 -16707112.59849 -12995312.29848  20789450.7404   20789452.4274   20789450.098
        55.0004         51.0004
 -13782004.81448 -10684174.17547  22491896.7444   22491899.6434   22491895.653
        49.0004         44.0004
 15  5  1  1 11  0.0000000  0  7G13G24G12G01G06G17G28
  -1014185.30646   -738250.78146  24764407.0854   24764415.5854   24764407.556
        41.0004         36.0004
 -16777952.35748 -13033065.94147  21950056.9184   21950062.4724   21950056.537
        51.0004         46.0004
  -3887757.11447  -2986546.14846  24212061.3964   24212063.9574   24212059.271
        43.0004         39.0004
  -4477978.51347  -3437393.45346  24048806.3724   24048811.7484   24048805.230
        44.0004         40.0004
 -12714292.91648  -9864284.26747  22811590.2384   22811596.7314   22811588.985
        48.0004         44.0004
 -16679142.61749 -12973517.51748  20794773.2164   20794775.1834   20794772.363
        55.0004         51.0004
 -13718489.15448 -10634681.48447  22503983.2464   22503985.6004   22503982.041
        49.0004         44.0004
 15  5  1  1 11 30.0000000  0  7G13G24G12G01G06G17G28
   -905929.83646   -653896.05046  24785007.4504   24785015.8834   24785007.230
        41.0004         36.0004
 -16840582.83448 -13081868.88847  21938139.5774   21938144.3144   21938138.147
        51.0004         46.0004
  -3983825.82147  -3061404.84946  24193778.0044   24193781.4944   24193776.597
        43.0004         38.0004
  -4399009.16347  -3375858.93246  24063832.5094   24063840.1554   24063833.491
        44.0004         39.0004
 -12812322.30048  -9940670.73047  22792935.6804   22792942.2194   22792935.074
        48.0004         44.0004
 -16650767.38449 -12951406.95148  20800172.8954   20800174.5424   20800171.850
        55.0004         51.0004
 -13654788.19348 -10585044.41047  22516105.0874   22516106.9144   22516104.862
        49.0004         44.0004
 15  5  1  1 12  0.0000000  0  7G13G24G12G01G06G17G28
   -797660.54746   -569530.56746  24805611.7574   24805618.9744   24805610.391
        41.0004         36.0004
 -16902759.11548 -13130317.91147  21926307.6874   21926312.5244   21926305.951
        51.0004         46.0004
  -4079837.44947  -3136219.02346  24175506.5524   24175511.7264   24175506.379
        43.0004         38.0004
  -4319624.19547  -3314000.56746  24078940.6064   24078946.0524   24078937.703
        44.0004         39.0004
 -12910080.84648 -10016846.12247  22774333.0084   22774339.5584   22774332.226
        49.0004         44.0004
 -16621988.54849 -12928981.89348  20805649.4254   20805651.1654   20805648.476
        55.0004         51.0004
 -13590902.24848 -10535263.18447  22528262.3114   22528265.0684   22528262.285
        49.0004         44.0004
 15  5  1  1 12 30.0000000  0  7G13G24G12G01G06G17G28
   -689380.76446   -485156.92946  24826219.0504   24826223.4704   24826217.998
        41.0004         37.0004
 -16964479.51148 -13178411.70747  21914562.4244   21914566.6274   21914561.422
        51.0004         46.0004
  -4175790.85647  -3210987.87446  24157249.0824   24157250.8154   24157248.171
        43.0004         38.0004
  -4239826.15847  -3251820.31946  24094124.6694   24094131.3784   24094122.050
        43.0004         39.0004
 -13007565.77348 -10092808.31747  22755782.2984   22755789.1774   22755780.979
        49.0004         44.0004
 -16592807.61149 -12906243.50948  20811202.5054   20811204.1934   20811201.527
        55.0004         51.0004
 -13526831.70248 -10485338.11547  22540454.5604   22540456.9904   22540454.506
        49.0004         44.0004
 15  5  1  1 13  0.0000000  0  7G13G24G12G01G06G17G28
   -581093.22246   -400777.19846  24846823.2284   24846830.1884   24846823.918
        41.0004         36.0004
 -17025741.44748 -13226148.24847  21902904.4514   21902909.3424   21902903.357
        51.0004         46.0004
  -4271685.30847  -3285710.75146  24139001.5964   24139005.6764   24138999.884
        43.0004         39.0004
  -4159617.50247  -3189320.12046  24109388.7254   24109394.3984   24109387.236
        43.0004         38.0004
 -13104774.04748 -10168554.94247  22737283.6824   22737291.3694   22737283.429
        49.0004         44.0004
 -16563226.03149 -12883192.93748  20816831.6774   20816833.4584   20816831.058
        55.0004         51.0004
 -13462576.59248 -10435269.23247  22552681.7564   22552683.7554   22552681.873
        49.0004         44.0004
 15  5  1  1 13 30.0000000  0  7G13G24G12G01G06G17G28
   -472801.04946   -316393.89446  24867431.9804   24867437.3734   24867430.926
        41.0004         36.0004
 -17086542.46148 -13273525.63447  21891334.3384   21891339.3594   21891333.419
        51.0004         46.0004
  -4367519.67047  -3360386.78746  24120762.0034   24120767.0104   24120762.121
        43.0004         38.0004
  -4079000.79047  -3126501.97546  24124728.7284   24124733.9754   24124727.945
        43.0004         38.0004
 -13201702.61148 -10244083.57147  22718838.5474   22718846.0864   22718838.009
        49.0004         44.0004
 -16533244.87949 -12859831.00748  20822536.7434   20822538.4734   20822536.035
        55.0004         51.0004
 -13398136.95548 -10385056.55347  22564943.4804   22564946.7264   22564944.325
        49.0004         44.0004
 15  5  1  1 14  0.0000000  0  7G13G24G12G01G06G17G28
   -364507.34946   -232009.38546  24888039.7514   24888045.2714   24888038.689
        41.0004         36.0004
 -17146881.24248 -13320542.83647  21879852.3324   21879856.7134   21879851.686
        51.0004         47.0004
  -4463293.36847  -3435015.53946  24102537.9534   24102543.3904   24102538.032
        43.0004         39.0004
  -3997978.63847  -3063367.87946  24140148.1374   24140153.1904   24140143.767
        42.0004         38.0004
 -13298348.73248 -10319392.12247  22700447.8554   22700454.4784   22700446.588
        49.0004         44.0004
 -16502865.59149 -12836158.83748  20828317.8974   20828319.7014   20828317.042
        55.0004         51.0004
 -13333513.52648 -10334700.67047  22577242.1254   22577244.2354   22577241.820
        49.0004         44.0004
 15  5  1  1 14 30.0000000  0  7G13G24G12G01G06G17G28
   -256215.27446   -147626.13846  24908644.9134   24908651.5594   24908645.731
        41.0004         36.0004
 -17206755.29348 -13367197.91347  21868458.8854   21868464.0114   21868457.975
        51.0004         47.0004
  -4559005.53247  -3509596.33046  24084324.9584   24084328.6024   24084323.199
        44.0004         39.0004
  -3916553.67647  -2999919.89946  24155640.7754   24155647.2924   24155638.707
        42.0004         38.0004
 -13394709.54548 -10394478.35947  22682111.4624   22682116.6994   22682110.891
        49.0004         44.0004
 -16472089.65849 -12812177.60148  20834174.0864   20834176.1854   20834173.362
        55.0004         51.0004
 -13268706.09548 -10284201.40647  22589574.3394   22589576.9794   22589574.172
        49.0004         44.0004
 15  5  1  1 15  0.0000000  0  7G13G24G12G01G06G17G28
   -147927.46246    -63246.22045  24929253.7944   24929260.9664   24929251.971
        40.0004         35.0004
 -17266162.09748 -13413488.90447  21857153.9824   21857158.9304   21857153.233
        51.0004         47.0004
  -4654654.93147  -3584128.24846  24066123.8804   24066126.5154   24066122.435
        44.0004         40.0004
  -3834728.38647  -2936159.98646  24171212.4034   24171220.2914   24171212.862
        43.0004         38.0004
 -13490782.03348 -10469339.90647  22663829.7284   22663834.7974   22663827.842
        49.0004         44.0004
 -16440918.35949 -12787888.28248  20840105.6994   20840107.7234   20840105.205
        55.0004         51.0004
 -13203714.69148 -10233558.79847  22601942.3494   22601944.4984   22601941.164
        49.0004         44.0004
 15  5  1  1 15 30.0000000  0  7G13G24G12G01G06G17G28
    -39646.83846     21128.05645  24949859.6334   24949862.9094   24949857.508
        39.0004         34.0004
 -17325099.66948 -13459414.25647  21845938.6514   21845943.8314   21845937.752
        51.0004         47.0004
  -4750240.90347  -3658610.70146  24047933.4174   24047938.4394   24047933.815
        45.0004         41.0004
  -3752505.41747  -2872090.21446  24186858.0854   24186865.2204   24186858.270
        42.0004         37.0004
 -13586563.43748 -10543974.64747  22645601.8604   22645607.5674   22645601.217
        49.0004         44.0004
 -16409353.13749 -12763292.01048  20846112.6524   20846114.4254   20846112.378
        55.0004         51.0004
 -13138539.79348 -10182773.18447  22614344.3264   22614346.9294   22614343.960
        49.0004         44.0004
 15  5  1  1 16  0.0000000  0  7G13G24G12G01G06G17G28
     68623.33346    105494.23245  24970461.4034   24970467.4264   24970459.297
        39.0004         35.0004
 -17383566.06148 -13504972.44647  21834813.0284   21834817.8094   21834812.136
        51.0004         47.0004
  -4845762.66647  -3733043.16346  24029757.1414   24029759.0234   24029755.880
        45.0004         41.0004
  -3669887.42647  -2807712.60646  24202580.2524   24202587.3534   24202579.016
        42.0004         37.0004
 -13682050.86548 -10618380.32047  22627431.4804   22627437.8164   22627431.188
        49.0004         45.0004
 -16377395.36449 -12738389.85548  20852193.9914   20852195.6914   20852193.363
        55.0004         51.0004
 -13073181.64748 -10131844.79847  22626781.1874   22626784.9374   22626781.511
        48.0004         44.0004
 15  5  1  1 16 30.0000000  0  7G13G24G12G01G06G17G28
    176880.15546    189850.05945  24991059.2734   24991069.5604   24991060.187
        39.0004         35.0004
 -17441559.03148 -13550161.74647  21823777.0184   21823781.9924   21823775.995
        51.0004         47.0004
  -4941219.40147  -3807424.94346  24011591.1004   24011595.4504   24011591.010
        46.0004         41.0004
  -3586876.91947  -2743029.15846  24218377.1464   24218384.6174   24218376.549
        42.0004         38.0004
 -13777241.43648 -10692554.70547  22609316.8994   22609324.0474   22609316.079
        49.0004         45.0004
 -16345046.52849 -12713182.97948  20858349.6084   20858351.6554   20858348.861
        55.0004         51.0004
 -13007640.59548 -10080773.89447  22639252.7544   22639255.4844   22639252.735
        48.0004         44.0004
 15  5  1  1 17  0.0000000  0  7G13G24G12G01G06G17G28
    285120.68146    274193.16445  25011658.8484   25011666.4844   25011659.333
        40.0004         35.0004
 -17499076.87748 -13594980.81247  21812831.9214   21812836.5634   21812830.841
        51.0004         47.0004
  -5036609.91647  -3881755.11446  23993439.2974   23993442.3964   23993438.585
        45.0004         40.0004
  -3503476.60647  -2678041.96946  24234247.4434   24234255.4234   24234247.413
        43.0004         39.0004
 -13872132.32948 -10766495.56347  22591259.8454   22591266.4644   22591258.951
        49.0004         45.0004
 -16312308.21049 -12687672.60848  20864579.7544   20864581.5394   20864579.014
        55.0004         51.0004
 -12941916.66848 -10029560.49147  22651760.3994   22651762.4424   22651760.360
        48.0004         43.0004
 15  5  1  1 17 30.0000000  0  7G13G24G12G01G06G17G28
    393341.87846    358521.14045  25032254.6704   25032259.1704   25032253.472
        39.0004         35.0004
 -17556117.42348 -13639427.96447  21801977.2404   21801982.3864   21801976.348
        52.0004         47.0004
  -5131933.23547  -3956032.98546  23975299.3564   23975304.1134   23975299.272
        46.0004         41.0004
  -3419688.98947  -2612752.98646  24250191.7124   24250198.4094   24250190.917
        43.0004         38.0004
 -13966720.49448 -10840200.52147  22573260.6494   22573266.3894   22573259.069
        49.0004         45.0004
 -16279181.41249 -12661859.52248  20870883.5874   20870885.1874   20870882.769
        55.0004         50.0004
 -12876009.72648  -9978204.45847  22664301.0264   22664305.5204   22664301.263
        48.0004         43.0004
 15  5  1  1 18  0.0000000  0  7G13G24G12G01G06G17G28
    501540.82846    442831.86845  25052842.7264   25052852.0404   25052843.440
        40.0004         35.0004
 -17612678.03248 -13683501.13947  21791214.1344   21791218.5464   21791212.885
        52.0004         47.0004
  -5227188.98347  -4030258.10146  23957172.4344   23957174.7464   23957172.007
        45.0004         41.0004
  -3335516.74047  -2547164.26146  24266210.3454   24266216.6744   24266208.571
        43.0004         38.0004
 -14061003.18748 -10913667.46847  22555319.3304   22555325.5444   22555318.398
        49.0004         45.0004
 -16245667.62949 -12635744.89848  20877260.7464   20877262.8224   20877260.153
        55.0004         50.0004
 -12809920.08848  -9926706.07347  22676878.2504   22676880.4344   22676878.231
        48.0004         44.0004
 15  5  1  1 18 30.0000000  0  7G13G24G12G01G06G17G28
    609714.55446    527122.92045  25073426.0554   25073434.2234   25073426.683
        39.0004         34.0004
 -17668757.29148 -13727199.22947  21780542.2534   21780547.4134   21780541.416
        52.0004         47.0004
  -5322376.02847  -4104429.76846  23939059.1714   23939062.7534   23939059.073
        45.0004         40.0004
  -3250962.65047  -2481278.00146  24282299.3294   24282306.7124   24282298.911
        43.0004         38.0004
 -14154977.63548 -10986894.25347  22537436.5734   22537442.2094   22537435.683
        49.0004         45.0004
 -16211768.21349 -12609329.77148  20883711.8274   20883713.5694   20883711.186
        55.0004         51.0004
 -12743647.94948  -9875065.48647  22689490.1994   22689491.9944   22689490.329
        48.0004         44.0004
 15  5  1  1 19  0.0000000  0  7G13G24G12G01G06G17G28
    717860.27146    611392.13445  25094008.1014   25094014.5234   25094006.508
        39.0004         34.0004
 -17724352.72548 -13770520.31847  21769962.7184   21769967.8594   21769961.833
        52.0004         47.0004
  -5417493.23147  -4178546.95846  23920959.8074   23920961.8984   23920958.434
        45.0004         40.0004
  -3166029.03947  -2415096.04446  24298462.0744   24298469.6914   24298461.420
        43.0004         39.0004
 -14248640.77248 -11059878.43747  22519612.2524   22519619.0084   22519612.516
        49.0004         45.0004
 -16177484.63449 -12582615.29848  20890235.9354   20890237.5504   20890235.288
        55.0004         50.0004
 -12677193.85548  -9823283.10947  22702135.7024   22702137.9534   22702135.307
        48.0004         43.0004
 15  5  1  1 19 30.0000000  0  8G13G24G12G01G06G02G17G28
    825974.53146    695636.79945  25114577.3944   25114591.6094   25114579.744
        39.0004         35.0004
 -17779462.62748 -13813463.06147  21759475.7014   21759480.7694   21759475.029
        52.0004         47.0004
  -5512539.90847  -4252609.20246  23902871.7914   23902875.4674   23902871.945
        44.0004         40.0004
  -3080718.84647  -2348620.63946  24314694.4724   24314704.1894   24314692.630
        43.0004         39.0004
 -14341990.02048 -11132618.03847  22501848.4284   22501854.7294   22501848.179
        49.0004         45.0004
                                                                  25275003.823

 -16142818.59649 -12555602.80848  20896832.3354   20896834.2244   20896831.680
        55.0004         50.0004
 -12610557.68448  -9771358.84547  22714816.2374   22714818.5824   22714815.911
        48.0004         43.0004
 15  5  1  1 20  0.0000000  0  7G13G24G12G01G06G17G28
    934054.98346    779855.17145  25135151.4634   25135156.7474   25135149.052
        40.0004         35.0004
 -17834084.52348 -13856025.55447  21749081.9584   21749087.0184   21749081.323
        52.0004         47.0004
  -5607514.55647  -4326615.29846  23884796.7274   23884801.9714   23884795.872
        44.0004         39.0004
  -2995034.51547  -2281853.68146  24331000.4644   24331008.3704   24330998.006
        43.0004         39.0004
 -14435022.24948 -11205110.61347  22484145.2554   22484151.0794   22484144.543
        49.0004         45.0004
 -16107771.13249 -12528293.10148  20903502.1044   20903503.7194   20903501.218
        55.0004         51.0004
 -12543739.63048  -9719292.85647  22727530.6524   22727533.7844   22727531.161
        48.0004         44.0004
 15  5  1  1 20 30.0000000  0  8G13G24G12G01G06G02G17G28
   1042098.64146    864044.80445  25155709.9394   25155714.4194   25155709.723
        39.0004         35.0004
 -17888216.70648 -13898206.44447  21738780.3864   21738785.4434   21738779.511
        52.0004         47.0004
  -5702416.70847  -4400564.95046  23866738.6934   23866742.2674   23866736.113
        44.0004         40.0004
  -2908978.89447  -2214797.40946  24347377.3644   24347385.5534   24347376.762
        44.0004         39.0004
 -14527734.87848 -11277354.16347  22466502.2934   22466508.7284   22466501.723
        50.0004         45.0004
   -298758.55047   -188571.41646  25235157.0054   25235164.4984   25235155.396
        47.0004         37.0004
 -16072343.98449 -12500687.53648  20910243.2444   20910245.4224   20910242.686
        55.0004         50.0004
 -12476740.17748  -9667085.52847  22740281.4354   22740284.7284   22740281.258
        48.0004         43.0004
 15  5  1  1 21  0.0000000  0  8G13G24G12G01G06G02G17G28
   1150102.35346    948203.35645  25176261.4384   25176267.2664   25176261.550
        39.0004         34.0004
 -17941857.48448 -13940004.42747  21728573.2164   21728578.1884   21728572.043
        52.0004         47.0004
  -5797245.52947  -4474457.41946  23848694.8524   23848697.2174   23848693.602
        44.0004         39.0004
  -2822554.57247  -2147453.84246  24363823.4144   24363830.8024   24363824.015
        44.0004         39.0004
 -14620125.02148 -11349346.43147  22448921.2204   22448927.3584   22448920.065
        50.0004         45.0004
   -403517.28147   -270201.22046  25215222.8234   25215228.0844   25215222.009
        43.0004         37.0004
 -16036538.84949 -12472787.44448  20917056.8934   20917058.7124   20917056.032
        55.0004         50.0004
 -12409559.54448  -9614737.01547  22753065.5084   22753065.7174   22753064.946
        48.0004         43.0004
 15  5  1  1 21 30.0000000  0  8G13G24G12G01G06G02G17G28
   1258063.55646   1032328.87545  25196805.5324   25196816.9754   25196804.527
        39.0004         34.0004
 -17995004.17448 -13981417.39947  21718459.3694   21718464.4614   21718458.375
        52.0004         47.0004
  -5891999.85447  -4548291.85646  23830662.9454   23830666.1994   23830661.073
        44.0004         39.0004
  -2735764.12347  -2079824.99446  24380339.7744   24380345.8164   24380337.749
        44.0004         39.0004
 -14712189.63048 -11421085.02447  22431402.1574   22431407.6864   22431401.607
        50.0004         45.0004
   -508315.53746   -351861.77446  25195279.9974   25195284.1454   25195279.904
        41.0004         36.0004
 -16000356.56449 -12444593.46348  20923942.3234   20923943.9584   20923941.357
        55.0004         50.0004
 -12342197.84848  -9562247.42347  22765883.4484   22765886.2364   22765882.769
        48.0004         43.0004
 15  5  1  1 22  0.0000000  0  8G13G24G12G01G06G02G17G28
   1365978.87146   1116418.46145  25217342.4714   25217348.1164   25217340.928
        39.0004         34.0004
 -18047655.19948 -14022444.15647  21708440.6424   21708444.7064   21708438.774
        52.0004         47.0004
  -5986679.09747  -4622067.81446  23812646.7564   23812648.8764   23812644.858
        44.0004         39.0004
  -2648610.44147  -2011913.09446  24396922.4104   24396931.0334   24396919.884
        43.0004         39.0004
 -14803926.15048 -11492567.93347  22413944.8954   22413950.9524   22413943.836
        50.0004         45.0004
   -613151.30746   -433551.54146  25175330.2754   25175334.9354   25175330.873
        41.0004         36.0004
 -15963799.05149 -12416107.09448  20930898.8604   20930900.6824   20930897.960
        55.0004         50.0004
 -12274655.51248  -9509617.06247  22778736.3314   22778738.7674   22778736.174
        48.0004         43.0004
 15  5  1  1 22 30.0000000  0  8G13G24G12G01G06G02G17G28
   1473845.68746   1200470.37445  25237868.0394   25237875.8854   25237867.873
        39.0004         34.0004
 -18099808.90648 -14063083.38447  21698516.1144   21698520.6734   21698515.109
        52.0004         47.0004
  -6081281.81247  -4695784.11746  23794643.4984   23794647.9094   23794643.700
        44.0004         40.0004
  -2561095.83347  -1943719.95946  24413574.7434   24413584.6504   24413573.167
        43.0004         38.0004
 -14895331.55848 -11563792.85047  22396551.2374   22396556.6464   22396549.360
        50.0004         45.0004
   -718022.14746   -515268.68146  25155373.1024   25155378.6524   25155374.091
        41.0004         37.0004
 -15926867.49249 -12387329.27148  20937926.6754   20937928.6794   20937925.911
        55.0004         50.0004
 -12206932.21048  -9456845.69347  22791623.5144   22791627.0904   22791622.943
        48.0004         43.0004
 15  5  1  1 23  0.0000000  0  8G13G24G12G01G06G02G17G28
   1581661.12746   1284482.20845  25258383.3954   25258391.9454   25258383.952
        39.0004         34.0004
 -18151462.78948 -14103333.13247  21688686.1664   21688691.1824   21688685.780
        52.0004         47.0004
  -6175807.33447  -4769440.30846  23776656.3384   23776660.4534   23776655.340
        44.0004         39.0004
  -2473223.30447  -1875247.93746  24430298.8554   24430306.5944   24430297.203
        43.0004         38.0004
 -14986403.18048 -11634757.68147  22379220.5674   22379226.7224   22379219.754
        50.0004         45.0004
   -822925.99646   -597011.52146  25135409.9394   25135418.1574   25135409.060
        41.0004         36.0004
 -15889563.69049 -12358261.38448  20945025.3394   20945027.1524   20945024.904
        55.0004         50.0004
 -12139028.44248  -9403933.70547  22804545.8854   22804547.4714   22804545.777
        48.0004         43.0004
 15  5  1  1 23 30.0000000  0  8G13G24G12G01G06G02G17G28
   1689422.31746   1368451.75345  25278889.6024   25278899.8914   25278890.134
        39.0004         34.0004
 -18202615.29948 -14143192.20747  21678952.6914   21678957.0914   21678951.629
        52.0004         47.0004
  -6270254.47647  -4843035.40846  23758682.7114   23758684.7004   23758682.238
        44.0004         39.0004
  -2384995.38947  -1806498.98846  24447088.3454   24447095.1534   24447088.624
        43.0004         38.0004
 -15077138.20548 -11705460.24247  22361954.7634   22361960.5304   22361952.966
        50.0004         45.0004
   -927860.63746   -678778.40446  25115442.9654   25115451.7734   25115443.639
        41.0004         37.0004
 -15851888.63949 -12328904.20348  20952194.4734   20952196.3334   20952194.158
        55.0004         50.0004
 -12070944.37648  -9350881.22147  22817501.6354   22817504.7854   22817501.557
        48.0004         43.0004
 15  5  1  1 24  0.0000000  0  8G13G24G12G01G06G02G17G28
   1797126.59546   1452376.97145  25299387.9634   25299394.3764   25299387.915
        39.0004         35.0004
 -18253264.46348 -14182659.06147  21669314.2374   21669318.9394   21669312.990
        52.0004         47.0004
  -6364622.42847  -4916568.85246  23740725.4134   23740730.7174   23740724.752
        45.0004         40.0004
  -2296414.93647  -1737475.31246  24463945.0084   24463952.4424   24463943.500
        42.0004         37.0004
 -15167533.84448 -11775898.31147  22344752.4974   22344758.0914   22344751.158
        50.0004         45.0004
  -1032824.12846   -760567.78246  25095471.0884   25095476.9154   25095469.732
        41.0004         37.0004
 -15813844.04249 -12299259.07048  20959434.1374   20959436.6184   20959433.595
        55.0004         50.0004
 -12002680.33348  -9297688.49447  22830491.7814   22830495.4894   22830490.739
        48.0004         43.0004
 15  5  1  1 24 30.0000000  0  8G13G24G12G01G06G02G17G28
   1904770.76946   1536255.37445  25319872.2874   25319877.3424   25319869.943
        38.0004         33.0004
 -18303407.73648 -14221731.71647  21659772.3474   21659776.7724   21659771.459
        52.0004         47.0004
  -6458910.12347  -4990039.68946  23722782.6884   23722785.7614   23722782.823
        45.0004         40.0004
  -2207484.52247  -1668178.94146  24480867.0154   24480873.4424   24480865.874
        42.0004         37.0004
 -15257587.29748 -11846069.77047  22327616.3574   22327621.9644   22327615.578
        50.0004         46.0004
  -1137814.09446   -842377.79746  25075489.0214   25075496.4734   25075490.861
        41.0004         36.0004
 -15775431.26349 -12269327.04648  20966744.1484   20966745.8854   20966743.428
        55.0004         50.0004
 -11934236.56948  -9244355.73247  22843515.5874   22843519.1364   22843515.670
        48.0004         43.0004
 15  5  1  1 25  0.0000000  0  8G13G24G12G01G06G02G17G28
   2012352.09546   1620084.76745  25340342.7184   25340349.7864   25340340.935
        39.0004         34.0004
 -18353043.78448 -14260409.13647  21650326.8844   21650331.3394   21650325.588
        52.0004         47.0004
  -6553116.70947  -5063447.34446  23704856.2214   23704859.3584   23704855.622
        45.0004         41.0004
  -2118206.79147  -1598611.95146  24497855.1964   24497862.3634   24497854.046
        42.0004         37.0004
 -15347295.72648 -11915972.36147  22310545.2234   22310551.0894   22310544.326
        50.0004         45.0004
  -1242828.49646   -924206.85245  25055505.8854   25055508.9894   25055505.625
        40.0004         35.0004
 -15736652.02049 -12239109.45748  20974123.1414   20974125.2224   20974122.669
        55.0004         50.0004
 -11865612.89547  -9190882.78547  22856574.5614   22856578.6424   22856574.635
        47.0004         43.0004
 15  5  1  1 25 30.0000000  0  8G13G24G12G01G06G02G17G28
   2119867.98146   1703863.17845  25360804.4904   25360810.8604   25360802.612
        39.0004         34.0004
 -18402170.88948 -14298689.97147  21640978.4824   21640982.8464   21640977.322
        52.0004         47.0004
  -6647240.97547  -5136790.87946  23686944.6764   23686948.3074   23686943.650
        45.0004         41.0004
  -2028584.44547  -1528776.45546  24514909.7004   24514920.0844   24514910.177
        42.0004         37.0004
 -15436656.38848 -11985603.97347  22293540.7734   22293545.7474   22293538.865
        50.0004         46.0004
  -1347865.01046  -1006053.09945  25035515.2204   25035519.7764   25035516.580
        39.0004         35.0004
 -15697507.42549 -12208607.18348  20981572.4504   20981574.5374   20981571.883
        55.0004         50.0004
 -11796810.01547  -9137270.18047  22869667.1484   22869671.4644   22869666.890
        47.0004         43.0004
 15  5  1  1 26  0.0000000  0  8G13G24G12G01G06G02G17G28
   2227315.20646   1787588.03245  25381251.9904   25381253.8244   25381246.448
        39.0004         34.0004
 -18450786.80448 -14336572.48147  21631726.8614   21631731.6224   21631725.953
        52.0004         47.0004
  -6741282.39447  -5210069.85246  23669049.4264   23669052.9154   23669048.888
        46.0004         41.0004
  -1938620.36146  -1458674.61246  24532031.7984   24532038.6124   24532027.765
        41.0004         37.0004
 -15525666.64048 -12054962.54147  22276602.1374   22276607.0924   22276600.320
        50.0004         46.0004
  -1452921.51646  -1087914.95945  25015522.4974   25015530.8284   25015523.602
        40.0004         35.0004
 -15657999.23549 -12177821.58948  20989090.6424   20989092.2464   20989090.020
        55.0004         50.0004
 -11727828.21547  -9083518.16447  22882794.2534   22882797.0744   22882794.539
        47.0004         43.0004
 15  5  1  1 26 30.0000000  0  8G13G24G12G01G06G02G17G28
   2334691.22846   1871257.49345  25401685.7784   25401689.2464   25401684.820
        38.0004         34.0004
 -18498889.76948 -14374055.28347  21622573.1024   21622578.0754   21622572.322
        52.0004         47.0004
  -6835239.56647  -5283283.16046  23651170.6884   23651173.5154   23651170.021
        46.0004         41.0004
  -1848317.11146  -1388308.52946  24549214.3744   24549221.8834   24549212.794
        41.0004         36.0004
 -15614323.58448 -12124045.81647  22259730.7114   22259736.0744   22259729.898
        50.0004         46.0004
  -1557995.84346  -1169790.70346  24995529.3814   24995535.9154   24995529.163
        41.0004         37.0004
 -15618128.77749 -12146753.70448  20996677.9614   20996679.8794   20996677.262
        55.0004         50.0004
 -11658667.40147  -9029626.67047  22895955.7644   22895958.4934   22895954.501
        47.0004         43.0004
 15  5  1  1 27  0.0000000  0  8G13G24G12G01G06G02G17G28
   2441993.05546   1954869.06745  25422101.2264   25422110.1614   25422100.149
        39.0004         34.0004
 -18546478.24448 -14411137.18647  21613517.1394   21613521.9024   21613516.186
        52.0004         47.0004
  -6929111.65247  -5356430.18346  23633307.0594   23633309.1914   23633305.617
        46.0004         41.0004
  -1757677.40546  -1317680.27745  24566461.9884   24566469.2534   24566461.601
        40.0004         35.0004
 -15702624.46448 -12192851.62047  22242928.4284   22242933.8454   22242927.155
        50.0004         46.0004
  -1663085.83547  -1251678.71046  24975530.8244   24975539.6644   24975532.020
        42.0004         38.0004
 -15577897.55549 -12115404.70548  21004333.5064   21004335.2024   21004332.802
        55.0004         50.0004
 -11589327.89947  -8975595.93447  22909150.5654   22909154.0284   22909150.281
        47.0004         43.0004
 15  5  1  1 27 30.0000000  0  7G24G12G01G06G02G17G28
 -18593550.02248 -14447816.47247  21604559.6344   21604564.1244   21604558.864
        52.0004         47.0004
  -7022897.39147  -5429509.90646  23615459.0844   23615463.5584   23615457.516
        46.0004         41.0004
  -1666704.01246  -1246792.00546  24583774.8804   24583783.0504   24583771.520
        40.0004         36.0004
 -15790566.59348 -12261377.89347  22226193.4104   22226198.6354   22226191.903
        51.0004         46.0004
  -1768189.48147  -1333577.38946  24955530.4394   24955536.5054   24955530.005
        42.0004         37.0004
 -15537307.53149 -12083776.12448  21012057.5474   21012059.2714   21012056.931
        55.0004         50.0004
 -11519809.87047  -8921426.08947  22922377.7404   22922381.9244   22922379.306
        47.0004         43.0004
 15  5  1  1 28  0.0000000  0  7G24G12G01G06G02G17G28
 -18640103.51348 -14484091.90047  21595700.6024   21595705.7744   21595699.774
        52.0004         47.0004
  -7116596.06647  -5502521.80246  23597627.8984   23597632.7424   23597628.009
        45.0004         41.0004
  -1575399.69246  -1175645.85746  24601151.5194   24601158.5924   24601150.367
        40.0004         36.0004
 -15878147.29348 -12329622.52647  22209526.5224   22209532.5064   22209525.904
        51.0004         46.0004
  -1873304.12846  -1415484.62646  24935527.1734   24935532.4604   24935527.154
        41.0004         37.0004
 -15496359.72049 -12051868.74248  21019849.8994   21019851.3984   21019848.753
        54.0004         50.0004
 -11450113.70447  -8867117.42647  22935642.4634   22935644.4674   22935641.522
        47.0004         42.0004
 15  5  1  1 28 30.0000000  0  7G24G12G01G06G02G17G28
 -18686136.61648 -14519961.83048  21586941.3964   21586946.0374   21586939.866
        52.0004         48.0004
  -7210206.30147  -5575464.77946  23579815.1614   23579818.7734   23579813.628
        45.0004         41.0004
  -1483767.05646  -1104243.84346  24618587.8014   24618593.5424   24618585.076
        40.0004         36.0004
 -15965363.73148 -12397583.32747  22192930.3684   22192935.8934   22192929.237
        51.0004         46.0004
  -1978427.58946  -1497398.77646  24915522.9314   24915529.0574   24915521.537
        41.0004         37.0004
 -15455055.41749 -12019683.57948  21027709.4114   21027711.2944   21027709.119
        54.0004         50.0004
 -11380239.34247  -8812669.90547  22948938.3934   22948942.3174   22948937.795
        47.0004         42.0004
 15  5  1  1 29  0.0000000  0  7G24G12G01G06G02G17G28
 -18731647.75748 -14555425.04148  21578280.9264   21578285.3184   21578279.814
        52.0004         48.0004
  -7303727.51247  -5648338.38346  23562020.3694   23562022.4914   23562018.398
        45.0004         41.0004
  -1391808.84946  -1032588.10146  24636085.9164   24636093.2644   24636085.502
        41.0004         36.0004
 -16052213.19148 -12465258.17147  22176403.2544   22176408.8644   22176402.524
        51.0004         46.0004
  -2083558.12647  -1579318.41046  24895516.5254   24895521.7804   24895516.962
        42.0004         37.0004
 -15413396.65149 -11987222.20948  21035637.0454   21035639.1114   21035636.616
        54.0004         50.0004
 -11310187.50247  -8758084.10447  22962269.8504   22962272.6844   22962268.292
        47.0004         42.0004
 15  5  1  1 29 30.0000000  0  7G24G12G01G06G02G17G28
 -18776635.51448 -14590480.42248  21569719.9544   21569724.6864   21569719.113
        52.0004         48.0004
  -7397158.51347  -5721141.69646  23544241.9974   23544242.7284   23544240.995
        45.0004         41.0004
  -1299527.91846   -960680.92446  24653646.5684   24653654.4644   24653644.312
        41.0004         37.0004
 -16138693.09448 -12532645.05147  22159947.1274   22159952.1884   22159945.998
        51.0004         46.0004
  -2188693.61847  -1661241.89246  24875510.9594   24875516.2394   24875509.832
        42.0004         37.0004
 -15371384.63849 -11954485.58248  21043631.5144   21043633.4914   21043630.834
        54.0004         50.0004
 -11239958.22047  -8703360.04147  22975633.5684   22975634.8644   22975632.797
        47.0004         42.0004
 15  5  1  1 30  0.0000000  0  7G24G12G01G06G02G17G28
 -18821097.27548 -14625125.92548  21561259.1304   21561263.3914   21561258.492
        52.0004         48.0004
  -7490498.00847  -5793873.70046  23526477.8804   23526481.7974   23526476.946
        45.0004         41.0004
  -1206926.74847   -888524.26946  24671268.0624   24671274.7184   24671266.705
        42.0004         37.0004
 -16224800.45048 -12599741.64147  22143560.8814   22143566.4514   22143559.817
        51.0004         46.0004
  -2293831.03846  -1743166.86346  24855502.3924   24855506.9824   24855502.970
        41.0004         36.0004
 -15329020.70749 -11921474.73548  21051692.9984   21051695.1424   21051692.165
        54.0004         50.0004
 -11169551.40747  -8648497.63847  22989031.6654   22989032.4654   22989031.367
        47.0004         42.0004
 15  5  1  1 30 30.0000000  0  8G03G24G12G01G06G02G17G28
                                                                  25154605.215

 -18865031.90848 -14659360.68448  21552898.2024   21552903.7304   21552897.552
        52.0004         48.0004
  -7583745.28047  -5866533.84046  23508733.7264   23508736.8764   23508733.011
        46.0004         41.0004
  -1114008.35147   -816120.40146  24688949.4134   24688956.8844   24688948.646
        42.0004         38.0004
 -16310532.92148 -12666546.11747  22127246.4164   22127252.0924   22127245.683
        51.0004         46.0004
  -2398968.70647  -1825092.01146  24835496.8214   24835500.1934   24835496.085
        42.0004         37.0004
 -15286306.54349 -11888190.97948  21059821.6204   21059823.3534   21059820.641
        54.0004         50.0004
 -11098967.64847  -8593497.34647  23002463.2654   23002465.7034   23002462.914
        46.0004         42.0004
 15  5  1  1 31  0.0000000  0  8G03G24G12G01G06G02G17G28
   -125800.51748    -70784.36046  25144533.4384   25144540.1504   25144532.351
        50.0004         36.0004
 -18908437.83148 -14693183.46448  21544638.9974   21544643.2414   21544637.866
        52.0004         48.0004
  -7676899.13147  -5939121.17946  23491007.4464   23491010.0904   23491007.689
        46.0004         41.0004
  -1020775.30247   -743471.36546  24706691.0894   24706698.4344   24706689.717
        43.0004         38.0004
 -16395887.61048 -12733056.23247  22111004.2044   22111009.9564   22111003.484
        51.0004         46.0004
  -2504104.48847  -1907015.69946  24815490.1024   24815494.1114   24815490.100
        42.0004         37.0004
 -15243243.87749 -11854635.66248  21068016.0084   21068017.8984   21068015.576
        54.0004         50.0004
 -11028207.10547  -8538359.30547  23015929.1704   23015932.3424   23015927.394
        46.0004         42.0004
 15  5  1  1 31 30.0000000  0  8G03G24G12G01G06G02G17G28
   -178349.16647   -111731.19946  25134534.6294   25134540.8104   25134536.493
        45.0004         37.0004
 -18951312.84748 -14726592.54648  21536479.9894   21536484.5654   21536479.031
        52.0004         48.0004
  -7769958.38847  -6011634.80746  23473297.7504   23473301.8004   23473297.208
        46.0004         41.0004
   -927230.31547   -670579.25146  24724492.1024   24724499.3694   24724492.248
        43.0004         38.0004
 -16480861.83148 -12799269.87147  22094834.0244   22094839.8214   22094833.025
        51.0004         46.0004
  -2609236.01147  -1988936.01146  24795483.5444   24795488.1814   24795484.156
        42.0004         38.0004
 -15199833.91949 -11820809.72548  21076276.5334   21076278.3744   21076275.811
        54.0004         50.0004
 -10957269.89147  -8483083.60847  23029426.2484   23029430.6514   23029427.101
        46.0004         42.0004
 15  5  1  1 32  0.0000000  0  8G03G24G12G01G06G02G17G28
   -230508.83447   -152375.07045  25124608.6384   25124614.0874   25124610.420
        42.0004         35.0004
 -18993655.66448 -14759586.93048  21528422.0564   21528427.0334   21528421.273
        52.0004         48.0004
  -7862922.18347  -6084074.06546  23455608.0994   23455611.3804   23455606.692
        46.0004         41.0004
   -833376.29147   -597446.31846  24742351.9354   24742360.5354   24742352.314
        43.0004         38.0004
 -16565453.04648 -12865185.09447  22078737.0264   22078742.0084   22078736.374
        51.0004         46.0004
  -2714361.10147  -2070851.34846  24775478.5134   24775483.9474   24775478.118
        42.0004         38.0004
 -15156078.14649 -11786714.32748  21084602.9554   21084605.0454   21084602.574
        54.0004         50.0004
 -10886156.50147  -8427670.63047  23042960.1694   23042961.8514   23042960.256
        47.0004         42.0004
 15  5  1  1 32 30.0000000  0  8G03G24G12G01G06G02G17G28
   -282277.11246   -192713.94346  25114755.4714   25114763.9364   25114758.851
        41.0004         37.0004
 -19035464.22348 -14792165.01448  21520466.4754   21520471.4754   21520465.773
        53.0004         48.0004
  -7955789.28947  -6156437.95146  23437935.8534   23437939.2814   23437935.164
        46.0004         41.0004
   -739215.85647   -524074.62946  24760272.1704   24760277.2914   24760272.526
        43.0004         38.0004
 -16649658.56948 -12930799.77947  22062713.3834   22062718.4274   22062712.648
        51.0004         47.0004
  -2819477.81847  -2152760.15646  24755475.9464   24755479.4184   24755475.780
        43.0004         38.0004
 -15111978.45949 -11752350.94348  21092995.0804   21092997.1174   21092994.671
        54.0004         50.0004
 -10814867.42147  -8372120.74547  23056526.6724   23056528.2684   23056525.507
        47.0004         42.0004
 15  5  1  1 33  0.0000000  0  8G03G24G12G01G06G02G17G28
   -333651.50046   -232745.93246  25104980.7294   25104985.6134   25104980.187
        41.0004         36.0004
 -19076737.03548 -14824325.63448  21512612.7874   21512616.6944   21512611.711
        53.0004         48.0004
  -8048558.71247  -6228725.75646  23420281.9104   23420286.0014   23420281.452
        46.0004         41.0004
   -644751.73747   -450466.30646  24778247.6994   24778253.9024   24778246.205
        43.0004         38.0004
 -16733475.63148 -12996111.74247  22046762.8144   22046768.8844   22046761.588
        51.0004         46.0004
  -2924583.70647  -2234660.53546  24735475.0264   24735479.4634   24735475.456
        43.0004         38.0004
 -15067536.04849 -11717720.50148  21101452.5034   21101454.1784   21101451.756
        54.0004         50.0004
 -10743402.37047  -8316433.74447  23070124.3924   23070128.3754   23070124.613
        47.0004         42.0004
 15  5  1  1 33 30.0000000  0  8G03G24G12G01G06G02G17G28
   -384629.51646   -272468.99645  25095278.8084   25095286.1004   25095280.619
        40.0004         35.0004
 -19117472.52848 -14856067.55848  21504860.2494   21504865.0004   21504859.844
        53.0004         48.0004
  -8141229.41847  -6300936.62846  23402647.2014   23402650.9264   23402645.679
        46.0004         41.0004
   -549986.57947   -376623.38846  24796277.9094   24796287.0484   24796277.286
        42.0004         37.0004
 -16816901.58048 -13061118.97047  22030887.2484   22030892.6784   22030886.102
        51.0004         46.0004
  -3029676.22547  -2316550.54946  24715476.0184   24715478.6094   24715476.694
        42.0004         38.0004
 -15022752.59449 -11682824.31048  21109974.0474   21109975.8654   21109973.355
        54.0004         50.0004
 -10671761.64647  -8260609.85447  23083755.6444   23083760.8034   23083757.500
        47.0004         42.0004
 15  5  1  1 34  0.0000000  0  8G03G24G12G01G06G02G17G28
   -435208.94046   -311881.54446  25085654.8944   25085660.1604   25085653.562
        40.0004         36.0004
 -19157668.80348 -14887389.31648  21497211.7764   21497216.1574   21497210.760
        53.0004         48.0004
  -8233800.32047  -6373069.71647  23385032.4874   23385034.5474   23385031.548
        46.0004         42.0004
   -454923.30246   -302548.25246  24814370.4484   24814376.1064   24814369.305
        41.0004         37.0004
 -16899933.93448 -13125819.48547  22015086.7694   22015092.8804   22015085.592
        51.0004         47.0004
  -3134753.78047  -2398428.91346  24695480.1274   24695483.5234   24695480.883
        42.0004         37.0004
 -14977629.84249 -11647663.73148  21118560.7214   21118562.6204   21118559.580
        54.0004         50.0004
 -10599945.53347  -8204649.29347  23097423.0974   23097426.6434   23097423.933
        47.0004         42.0004
 15  5  1  1 34 30.0000000  0  8G03G24G12G01G06G02G17G28
   -485387.37646   -350981.61546  25076105.9084   25076113.6924   25076107.919
        40.0004         36.0004
 -19197324.85548 -14918290.12448  21489665.3124   21489669.9684   21489664.367
        53.0004         48.0004
  -8326270.22047  -6445124.10047  23367435.4584   23367439.6894   23367434.252
        47.0004         42.0004
   -359564.68646   -228242.92846  24832516.2134   24832523.3934   24832513.948
        41.0004         37.0004
 -16982569.93748 -13190211.15047  21999362.1094   21999367.6804   21999361.123
        51.0004         47.0004
  -3239813.85646  -2480293.68446  24675485.5394   24675492.0604   24675487.539
        41.0004         36.0004
 -14932168.92849 -11612239.65148  21127211.6344   21127213.2534   21127210.870
        54.0004         50.0004
 -10527954.60247  -8148552.52747  23111123.4564   23111125.4214   23111123.723
        47.0004         42.0004
 15  5  1  1 35  0.0000000  0  8G03G24G12G01G06G02G17G28
   -535162.48446   -389767.42746  25066632.8614   25066640.8634   25066632.699
        41.0004         36.0004
 -19236438.32948 -14948768.13648  21482222.3244   21482226.7204   21482221.832
        53.0004         48.0004
  -8418638.24447  -6517099.09847  23349858.4124   23349861.8344   23349856.922
        47.0004         42.0004
   -263913.32746   -153709.49546  24850719.3104   24850726.9074   24850716.307
        41.0004         37.0004
 -17064807.05748 -13254291.99547  21983712.3144   21983718.4754   21983711.637
        51.0004         47.0004
  -3344854.19846  -2562143.08846  24655499.2894   24655501.5644   24655498.658
        41.0004         36.0004
 -14886371.34449 -11576553.23148  21135926.6894   21135928.4304   21135926.210
        54.0004         50.0004
 -10455788.78947  -8092319.46947  23124856.1854   23124858.9204   23124855.311
        46.0004         42.0004
 15  5  1  1 35 30.0000000  0  8G03G24G12G01G06G02G17G28
   -584531.82246   -428236.96246  25057238.6234   25057248.2974   25057240.390
        40.0004         36.0004
 -19275008.22048 -14978822.58448  21474882.5704   21474886.9454   21474881.771
        53.0004         48.0004
  -8510903.14847  -6588993.74447  23332300.6034   23332303.8264   23332300.890
        47.0004         42.0004
   -167971.96047    -78950.07546  24868977.2264   24868983.0424   24868976.081
        42.0004         37.0004
 -17146642.64248 -13318059.96147  21968139.1784   21968145.3714   21968138.610
        51.0004         47.0004
  -3449872.64846  -2643975.45246  24635513.2804   24635516.8834   24635514.472
        41.0004         36.0004
 -14840238.69349 -11540605.71548  21144705.2094   21144707.4254   21144704.560
        54.0004         50.0004
 -10383448.58747  -8035950.52747  23138623.0344   23138625.3034   23138621.303
        46.0004         42.0004
 15  5  1  1 36  0.0000000  0  8G03G24G12G01G06G02G17G28
   -633493.06546   -466388.53346  25047922.4544   25047930.6484   25047921.445
        41.0004         37.0004
 -19313032.52248 -15008451.89848  21467646.7154   21467651.4694   21467646.043
        53.0004         48.0004
  -8603063.91647  -6660807.26547  23314762.8934   23314766.7264   23314762.737
        47.0004         42.0004
    -71743.37646     -3966.83546  24887286.9244   24887294.9354   24887287.802
        41.0004         37.0004
 -17228074.10648 -13381513.00747  21952644.2204   21952649.2514   21952643.144
        51.0004         47.0004
  -3554866.79946  -2725788.91246  24615534.5114   24615538.3784   24615534.536
        41.0004         36.0004
 -14793772.72049 -11504398.47348  21153547.5094   21153549.5564   21153546.671
        54.0004         50.0004
 -10310933.97847  -7979445.69747  23152421.6874   23152426.3934   23152421.531
        46.0004         42.0004
 15  5  1  1 36 30.0000000  0  8G03G24G12G01G06G02G17G28
   -682044.05546   -504220.42846  25038683.9304   25038691.1744   25038682.491
        41.0004         36.0004
 -19350509.99148 -15037655.11148  21460515.1354   21460519.1394   21460514.022
        53.0004         48.0004
  -8695119.46247  -6732538.79147  23297246.1294   23297249.9884   23297245.172
        47.0004         42.0004
     24769.53046     71237.97246  24905651.4634   24905657.9384   24905651.820
        41.0004         36.0004
 -17309098.91148 -13444649.17347  21937225.2034   21937230.9134   21937224.408
        51.0004         47.0004
  -3659834.86946  -2807582.05846  24595559.7614   24595563.3334   24595560.498
        41.0004         37.0004
 -14746974.71549 -11467932.50448  21162453.1244   21162454.6884   21162452.185
        54.0004         50.0004
 -10238245.53247  -7922805.40647  23166252.6644   23166256.8874   23166253.789
        46.0004         42.0004
 15  5  1  1 37  0.0000000  0  8G03G24G12G01G06G02G17G28
   -730182.19546   -541730.63746  25029524.0884   25029531.3304   25029522.017
        41.0004         37.0004
 -19387438.88748 -15066430.86348  21453487.9244   21453492.6084   21453486.512
        53.0004         48.0004
  -8787068.43547  -6804187.25947  23279748.4644   23279751.1214   23279747.988
        47.0004         42.0004
    121564.24546    146662.36046  24924072.0544   24924080.3394   24924070.364
        41.0004         36.0004
 -17389714.42148 -13507466.42447  21921884.5384   21921890.3134   21921883.650
        51.0004         47.0004
  -3764774.09547  -2889352.73346  24575589.3554   24575593.9454   24575589.376
        42.0004         38.0004
 -14699846.21049 -11431209.00548  21171421.0784   21171422.9354   21171420.770
        54.0004         50.0004
 -10165383.27347  -7866029.67147  23180118.8854   23180120.9374   23180118.642
        46.0004         42.0004
 15  5  1  1 37 30.0000000  0  8G03G24G12G01G06G02G17G28
   -777905.53146   -578917.63846  25020440.5824   25020449.7844   25020440.359
        41.0004         36.0004
 -19423818.20348 -15094778.36848  21446565.2674   21446569.5564   21446564.460
        53.0004         48.0004
  -8878910.09847  -6875752.13147  23262270.7504   23262274.1234   23262270.496
        47.0004         42.0004
    218637.80846    222304.01046  24942546.5784   24942551.6784   24942544.741
        40.0004         36.0004
 -17469918.19948 -13569962.84447  21906622.6084   21906627.7314   21906621.527
        51.0004         47.0004
  -3869682.57247  -2971099.46746  24555625.8244   24555629.4804   24555626.236
        43.0004         38.0004
 -14652388.97949 -11394229.35148  21180452.0704   21180454.1434   21180450.907
        54.0004         50.0004
 -10092347.83647  -7809118.99547  23194017.0334   23194019.8684   23194017.265
        46.0004         42.0004
 15  5  1  1 38  0.0000000  0  8G03G24G12G01G06G02G17G28
   -825211.51046   -615779.36746  25011440.6804   25011446.7844   25011438.241
        40.0004         36.0004
 -19459645.58348 -15122695.78848  21439747.2974   21439751.2884   21439746.467
        53.0004         48.0004
  -8970642.95047  -6947232.19447  23244814.2294   23244818.4084   23244814.196
        47.0004         42.0004
    315987.63146    298160.94846  24961071.1464   24961078.5744   24961068.198
        40.0004         36.0004
 -17549707.50848 -13632136.28547  21891439.0244   21891444.0564   21891438.021
        51.0004         47.0004
  -3974557.88947  -3052820.34246  24535667.3714   24535672.9744   24535668.500
        43.0004         38.0004
 -14604604.27349 -11356994.52748  21189545.3274   21189547.0654   21189544.527
        54.0004         49.0004
 -10019139.09147  -7752073.28047  23207947.0214   23207949.7214   23207947.316
        46.0004         42.0004
 15  5  1  1 38 30.0000000  0  8G03G24G12G01G06G02G17G28
   -872097.95546   -652314.23546  25002515.8554   25002524.4004   25002516.496
        40.0004         36.0004
 -19494920.22248 -15150182.50948  21433034.6394   21433039.1014   21433033.351
        53.0004         48.0004
  -9062265.86247  -7018626.59047  23227380.6544   23227382.1754   23227379.474
        47.0004         42.0004
    413611.01546    374231.03146  24979645.4794   24979654.8944   24979645.362
        40.0004         36.0004
 -17629079.89648 -13693984.84447  21876334.7034   21876340.4844   21876333.989
        52.0004         47.0004
  -4079397.82247  -3134513.61146  24515718.9454   24515721.7884   24515718.617
        43.0004         39.0004
 -14556493.75049 -11319505.81248  21198700.2234   21198702.1894   21198699.596
        54.0004         49.0004
  -9945757.47747  -7694892.85447  23221912.7104   23221914.0774   23221911.786
        46.0004         42.0004
 15  5  1  1 39  0.0000000  0  8G03G24G12G01G06G02G17G28
   -918562.76846   -688520.51646  24993675.7004   24993682.4264   24993673.446
        40.0004         36.0004
 -19529640.85648 -15177237.53948  21426427.3794   21426432.2814   21426426.492
        53.0004         48.0004
  -9153777.92347  -7089934.61747  23209965.4054   23209967.8324   23209963.919
        47.0004         42.0004
    511504.86346    450511.90745  24998275.5964   24998284.7354   24998274.352
        40.0004         35.0004
 -17708032.90348 -13755506.61447  21861310.6034   21861316.1924   21861309.977
        52.0004         47.0004
  -4184200.24547  -3216177.62846  24495774.4174   24495778.2144   24495774.983
        43.0004         39.0004
 -14508059.00349 -11281764.46448  21207916.9824   21207918.9734   21207916.356
        54.0004         49.0004
  -9872203.35847  -7637578.00747  23235907.6484   23235912.7074   23235909.120
        46.0004         42.0004
 15  5  1  1 39 30.0000000  0  8G03G24G12G01G06G02G17G28
   -964603.50746   -724396.37146  24984912.9724   24984922.4864   24984912.491
        41.0004         37.0004
 -19563805.64648 -15203859.44248  21419926.2724   21419931.1454   21419925.217
        53.0004         48.0004
  -9245177.94647  -7161155.33547  23192572.6844   23192575.3784   23192571.726
        47.0004         42.0004
    609666.78546    527001.65645  25016954.0774   25016963.5504   25016952.627
        40.0004         35.0004
 -17786563.94548 -13816699.57247  21846366.7294   21846371.9034   21846365.734
        52.0004         47.0004
  -4288962.76547  -3297810.55946  24475839.3084   24475841.3764   24475839.030
        44.0004         39.0004
 -14459301.35249 -11243771.49848  21217195.3764   21217197.5064   21217194.755
        54.0004         49.0004
  -9798476.81347  -7580128.81346  23249937.9284   23249941.7454   23249938.646
        46.0004         41.0004
 15  5  1  1 40  0.0000000  0  8G03G24G12G01G06G02G17G28
  -1010218.02846   -759940.10646  24976234.4784   24976240.5874   24976232.891
        41.0004         37.0004
 -19597412.75148 -15230046.78348  21413530.9684   21413534.9274   21413529.811
        53.0004         48.0004
  -9336464.52347  -7232287.66347  23175200.6514   23175203.5854   23175200.546
        47.0004         42.0004
    708093.94946    603698.09345  25035684.3434   25035692.2224   25035682.244
        40.0004         35.0004
 -17864670.54548 -13877561.80947  21831503.5654   21831509.0474   21831502.810
        52.0004         47.0004
  -4393683.18947  -3379410.67646  24455911.5374   24455915.3484   24455911.408
        44.0004         39.0004
 -14410222.36649 -11205528.14448  21226534.9034   21226536.5074   21226534.394
        54.0004         49.0004
  -9724578.35047  -7522545.67146  23264002.0664   23264004.3444   23264000.830
        46.0004         41.0004
 15  5  1  1 40 30.0000000  0  8G03G24G12G01G06G02G17G28
  -1055404.09347   -795149.90446  24967636.4464   24967642.0244   24967633.405
        42.0004         37.0004
 -19630461.24348 -15255798.84848  21407242.3284   21407246.8404   21407241.310
        53.0004         48.0004
  -9427636.71747  -7303330.86847  23157851.5644   23157854.8434   23157850.885
        47.0004         42.0004
    806783.68546    680599.17045  25054465.1804   25054472.8404   25054466.682
        40.0004         35.0004
 -17942350.18348 -13938091.35447  21816721.3944   21816726.8524   21816720.036
        52.0004         47.0004
  -4498359.47847  -3460976.38946  24435991.6734   24435995.4344   24435992.221
        43.0004         38.0004
 -14360823.60349 -11167035.60948  21235935.3234   21235936.8024   21235934.387
        54.0004         49.0004
  -9650508.14047  -7464828.68246  23278096.0594   23278098.9114   23278096.220
        46.0004         41.0004
 15  5  1  1 41  0.0000000  0  8G03G24G12G01G06G02G17G28
  -1100159.70746   -830024.34446  24959116.7324   24959123.9074   24959115.561
        41.0004         36.0004
 -19662949.99248 -15281114.74248  21401059.4024   21401064.2564   21401058.632
        53.0004         48.0004
  -9518693.57547  -7374284.19547  23140523.7794   23140526.4264   23140523.268
        47.0004         42.0004
    905732.94346    757702.44745  25073293.7224   25073303.6514   25073292.618
        39.0004         34.0004
 -18019600.55148 -13998286.41147  21802020.9674   21802026.8484   21802020.239
        52.0004         47.0004
  -4602989.32547  -3542505.94746  24416081.0274   24416084.8434   24416080.759
        43.0004         38.0004
 -14311106.84049 -11128295.28648  21245396.1724   21245397.7494   21245395.524
        54.0004         49.0004
  -9576266.57647  -7406978.16246  23292225.3884   23292228.0604   23292224.517
        46.0004         41.0004
 15  5  1  1 41 30.0000000  0  8G03G24G12G01G06G02G17G28
  -1144482.38646   -864561.39445  24950685.3534   24950687.7564   24950680.952
        40.0004         35.0004
 -19694877.28048 -15305993.13548  21394984.0114   21394988.3334   21394982.811
        53.0004         48.0004
  -9609633.68647  -7445146.56547  23123219.8084   23123220.6674   23123218.095
        47.0004         42.0004
   1004939.26146    835005.98345  25092174.3004   25092180.5664   25092172.469
        39.0004         35.0004
 -18096418.90748 -14058144.82447  21787402.9644   21787408.6734   21787402.131
        52.0004         47.0004
  -4707570.22847  -3623997.34246  24396179.1844   24396183.7164   24396179.999
        43.0004         38.0004
 -14261073.41349 -11089308.21448  21254917.2324   21254919.1024   21254916.369
        54.0004         49.0004
  -9501853.76547  -7348994.21146  23306383.8504   23306388.1954   23306383.570
        45.0004         40.0004
 15  5  1  1 42  0.0000000  0  8G03G24G12G01G06G02G17G28
  -1188370.12046   -898759.60745  24942335.1104   24942339.4404   24942328.703
        40.0004         35.0004
 -19726241.84748 -15330433.04848  21389015.5494   21389020.2384   21389014.722
        53.0004         48.0004
  -9700455.77447  -7515916.95347  23105936.5024   23105937.7784   23105935.198
        47.0004         42.0004
   1104399.86546    912507.67845  25111101.5414   25111106.3554   25111101.041
        39.0004         35.0004
 -18172802.85848 -14117664.74647  21772867.8524   21772873.4204   21772866.552
        52.0004         47.0004
  -4812100.41747  -3705449.27246  24376288.0454   24376292.5574   24376287.664
        43.0004         38.0004
 -14210725.02549 -11050075.71548  21264497.7034   21264499.9604   21264497.127
        54.0004         49.0004
  -9427269.95147  -7290877.01746  23320576.0704   23320581.7434   23320575.638
        45.0004         40.0004
 15  5  1  1 42 30.0000000  0  8G03G24G12G01G06G02G17G28
  -1231820.94646   -932617.32745  24934061.2344   24934069.8724   24934058.061
        40.0004         35.0004
 -19757042.54348 -15354433.58248  21383154.8794   21383159.1064   21383153.428
        53.0004         48.0004
  -9791158.94447  -7586594.69047  23088675.7394   23088678.2044   23088675.519
        47.0004         43.0004
   1204111.83046    990205.24345  25130076.9404   25130080.5804   25130076.265
        40.0004         35.0004
 -18248750.17248 -14176844.41647  21758415.2224   21758420.7994   21758414.334
        52.0004         47.0004
  -4916577.35147  -3786859.65946  24356406.7814   24356410.1814   24356406.493
        43.0004         38.0004
 -14160063.25149 -11010599.01948  21274138.3654   21274140.8374   21274137.915
        54.0004         49.0004
  -9352515.76647  -7232627.05846  23334803.0454   23334805.7704   23334802.343
        45.0004         41.0004
 15  5  1  1 43  0.0000000  0  8G03G24G12G01G06G02G17G28
  -1274832.37946   -966132.66646  24925880.4394   24925885.1764   24925876.104
        40.0004         36.0004
 -19787277.86148 -15377993.56248  21377401.0294   21377405.1154   21377400.238
        53.0004         48.0004
  -9881741.38347  -7657178.34647  23071439.3534   23071440.8734   23071438.101
        47.0004         43.0004
   1304072.68146   1068096.71145  25149098.8944   25149103.5504   25149098.418
        39.0004         35.0004
 -18324258.09948 -14235681.70947  21744046.3884   21744051.8664   21744045.430
        52.0004         47.0004
  -5020998.62947  -3868226.72046  24336536.7934   24336539.2344   24336536.294
        42.0004         38.0004
 -14109089.24949 -10970879.03048  21283838.1854   21283840.7974   21283838.000
        54.0004         49.0004
  -9277591.22947  -7174244.36146  23349060.6354   23349063.2034   23349059.732
        45.0004         41.0004
 15  5  1  1 43 30.0000000  0  8G03G24G12G01G06G02G17G28
  -1317402.57846   -999304.19446  24917779.6354   24917784.3164   24917778.720
        41.0004         37.0004
 -19816946.24848 -15401111.77448  21371754.9764   21371759.5524   21371754.130
        53.0004         48.0004
  -9972202.57147  -7727667.51347  23054224.0054   23054226.0194   23054223.190
        47.0004         43.0004
   1404279.43146   1146179.83145  25168166.3264   25168173.9894   25168166.265
        39.0004         35.0004
 -18399324.49348 -14294174.94947  21729761.5894   21729767.3724   21729760.497
        52.0004         47.0004
  -5125362.28147  -3949548.89146  24316675.8044   24316680.0364   24316675.513
        42.0004         37.0004
 -14057804.99449 -10930917.28848  21293597.7284   21293599.9544   21293597.418
        54.0004         49.0004
  -9202496.96347  -7115729.41246  23363349.7904   23363353.1134   23363350.855
        45.0004         41.0004
 15  5  1  1 44  0.0000000  0  8G03G24G12G01G06G02G17G28
  -1359529.29747  -1032130.08746  24909763.1434   24909769.3304   24909761.987
        42.0004         37.0004
 -19846047.10648 -15423787.75248  21366217.1904   21366222.0014   21366216.492
        53.0004         48.0004
 -10062541.18047  -7798061.16647  23037033.0174   23037035.4134   23037032.565
        47.0004         43.0004
   1504729.63846   1224452.60945  25187280.9934   25187289.9374   25187280.487
        40.0004         35.0004
 -18473946.76748 -14352322.12848  21715562.0274   21715566.6724   21715561.219
        52.0004         48.0004
  -5229665.95547  -4030824.31446  24296826.5514   24296831.5774   24296826.190
        42.0004         37.0004
 -14006211.51949 -10890714.59048  21303415.8494   21303417.5954   21303414.833
        54.0004         49.0004
  -9127232.95547  -7057082.17946  23377671.9694   23377675.5214   23377671.952
        45.0004         41.0004
 15  5  1  1 44 30.0000000  0  8G03G24G12G01G06G02G17G28
  -1401210.58246  -1064608.94846  24901829.4804   24901836.8914   24901826.662
        41.0004         36.0004
 -19874578.70248 -15446020.16248  21360788.1154   21360792.4714   21360786.887
        53.0004         48.0004
 -10152755.87548  -7868358.28947  23019866.4264   23019867.6274   23019865.574
        48.0004         43.0004
   1605420.22246   1302912.70345  25206441.1704   25206449.4624   25206444.216
        40.0004         35.0004
 -18548122.69348 -14410121.50948  21701446.7844   21701451.5574   21701445.737
        52.0004         48.0004
  -5333907.63747  -4112051.45646  24276990.0044   24276993.6504   24276990.243
        42.0004         37.0004
 -13954310.81349 -10850272.49148  21313291.8024   21313294.0254   21313291.472
        54.0004         49.0004
  -9051799.72447  -6998303.10146  23392027.8834   23392030.6674   23392025.743
        46.0004         41.0004
 15  5  1  1 45  0.0000000  0  8G03G24G12G01G06G02G17G28
  -1442444.20146  -1096738.98146  24893983.3094   24893990.7304   24893979.978
        41.0004         36.0004
 -19902539.51548 -15467807.80348  21355467.0734   21355471.3674   21355466.079
        53.0004         48.0004
 -10242845.45747  -7938557.89647  23002722.2624   23002724.5554   23002722.116
        47.0004         43.0004
   1706348.70346   1381558.17745  25225646.6264   25225654.3134   25225647.652
        40.0004         35.0004
 -18621849.71148 -14467571.08648  21687416.6504   21687421.9834   21687415.139
        52.0004         48.0004
  -5438084.71047  -4193228.23546  24257165.5224   24257169.1124   24257165.255
        42.0004         38.0004
 -13902104.18149 -10809592.01148  21323226.6184   21323228.4404   21323226.151
        54.0004         49.0004
  -8976197.31047  -6939392.19946  23406413.3164   23406417.5354   23406413.452
        46.0004         41.0004
 15  5  1  1 45 30.0000000  0  8G03G24G12G01G06G02G17G28
  -1483228.18746  -1128518.66646  24886220.9224   24886228.7874   24886217.456
        40.0004         36.0004
 -19929928.88848 -15489150.15648  21350254.9814   21350259.8584   21350254.473
        53.0004         48.0004
 -10332809.02647  -8008659.32647  22985602.3914   22985604.2604   22985602.277
        47.0004         43.0004
   1807512.32546   1460386.84146  25244897.5494   25244905.6254   25244899.795
        40.0004         36.0004
 -18695125.53748 -14524669.07548  21673472.8934   21673477.9254   21673472.437
        52.0004         48.0004
  -5542195.20747  -4274353.17646  24237353.8464   24237358.7554   24237354.822
        43.0004         38.0004
 -13849593.10949 -10768674.30448  21333219.2414   21333221.2294   21333218.409
        54.0004         49.0004
  -8900426.28447  -6880349.90246  23420832.9194   23420835.2114   23420833.842
        46.0004         41.0004
 15  5  1  1 46  0.0000000  0  8G03G24G12G01G06G02G17G28
  -1523560.57446  -1159946.44446  24878546.8034   24878551.7544   24878545.394
        40.0004         36.0004
 -19956745.30048 -15510046.06748  21345152.2144   21345156.6454   21345151.321
        53.0004         48.0004
 -10422644.96947  -8078661.29747  22968507.3524   22968510.9654   22968506.224
        47.0004         43.0004
   1908908.20646   1539396.54146  25264193.4334   25264201.7544   25264195.404
        41.0004         36.0004
 -18767947.86948 -14581413.70748  21659615.0784   21659620.2014   21659613.798
        52.0004         48.0004
  -5646236.86447  -4355424.47346  24217557.3084   24217559.0994   24217556.498
        43.0004         39.0004
 -13796778.76849 -10727520.28548  21343269.6124   21343271.2034   21343269.159
        54.0004         49.0004
  -8824486.92647  -6821176.44846  23435282.2244   23435285.5974   23435283.466
        46.0004         41.0004
 15  5  1  1 46 30.0000000  0  8G03G24G12G01G06G02G17G28
  -1563439.27246  -1191020.70946  24870958.7104   24870964.9104   24870957.228
        41.0004         37.0004
 -19982987.91948 -15530494.85448  21340158.0724   21340162.8094   21340157.031
        53.0004         48.0004
 -10512352.24048  -8148562.99047  22951435.2084   22951439.0354   22951435.243
        48.0004         43.0004
   2010533.72846   1618585.17646  25283532.0244   25283539.0034   25283531.616
        41.0004         36.0004
 -18840314.33248 -14637803.11348  21645844.0344   21645849.5584   21645843.529
        52.0004         48.0004
  -5750207.28247  -4436440.27146  24197770.8874   24197775.0644   24197771.641
        44.0004         39.0004
 -13743663.83849 -10686132.03848  21353376.8224   21353378.9594   21353376.387
        54.0004         49.0004
  -8748379.70947  -6761872.16946  23449765.7184   23449770.7724   23449765.850
        45.0004         41.0004
 15  5  1  1 47  0.0000000  0  8G03G24G12G01G06G02G17G28
  -1602862.24646  -1221739.85446  24863456.2914   24863464.4944   24863454.990
        41.0004         37.0004
 -20008655.38048 -15550495.46848  21335273.9224   21335278.7474   21335272.982
        53.0004         48.0004
 -10601929.17448  -8218363.13847  22934391.2104   22934393.5404   22934390.399
        48.0004         43.0004
   2112386.15846   1697950.66645  25302914.7984   25302921.4744   25302909.406
        40.0004         35.0004
 -18912222.51948 -14693835.42848  21632160.1934   21632165.3924   21632159.546
        52.0004         48.0004
  -5854104.24347  -4517398.82946  24177999.6514   24178004.3374   24178000.158
        44.0004         39.0004
 -13690248.97449 -10644510.07648  21363541.2954   21363543.3374   21363540.626
        54.0004         49.0004
  -8672104.68647  -6702437.12746  23464280.5574   23464283.0484   23464280.737
        45.0004         40.0004
 15  5  1  1 47 30.0000000  0  8G03G24G12G01G06G02G17G28
  -1641827.51746  -1252102.34346  24856040.7174   24856049.7804   24856040.445
        41.0004         37.0004
 -20033746.70448 -15570047.14548  21330499.0014   21330504.0024   21330498.386
        53.0004         49.0004
 -10691375.09848  -8288061.19647  22917369.1314   22917372.5024   22917368.300
        48.0004         43.0004
   2214462.93946   1777490.93645  25322338.8834   25322345.6504   25322335.116
        39.0004         35.0004
 -18983670.17648 -14749508.88148  21618563.9754   21618569.4284   21618562.895
        52.0004         48.0004
  -5957925.62947  -4598298.49146  24158243.6044   24158247.5954   24158244.418
        44.0004         40.0004
 -13636535.88849 -10602655.73948  21373762.7524   21373764.6864   21373761.860
        54.0004         49.0004
  -8595662.23547  -6642871.62146  23478827.6214   23478831.3954   23478828.049
        45.0004         41.0004
 15  5  1  1 48  0.0000000  0  8G03G24G12G01G06G02G17G28
  -1680333.28447  -1282106.75046  24848714.4284   24848720.5544   24848714.174
        42.0004         37.0004
 -20058260.70548 -15589148.96148  21325834.2224   21325838.9454   21325833.312
        53.0004         48.0004
 -10780688.61448  -8357656.08047  22900373.0574   22900376.5584   22900372.855
        48.0004         43.0004
   2316761.01846   1857203.66345  25341804.5364   25341813.9914   25341805.125
        39.0004         35.0004
 -19054655.11048 -14804821.78348  21605056.1434   21605061.8364   21605055.283
        52.0004         48.0004
  -6061669.50847  -4679137.76446  24138502.7904   24138505.0634   24138502.603
        44.0004         40.0004
 -13582526.21048 -10560570.28848  21384040.2114   21384042.1424   21384039.637
        53.0004         49.0004
  -8519052.83947  -6583176.05246  23493406.5804   23493410.6824   23493405.760
        45.0004         41.0004
 15  5  1  1 48 30.0000000  0  8G03G24G12G01G06G02G17G28
  -1718377.30047  -1311751.38446  24841474.1014   24841481.9544   24841474.281
        42.0004         37.0004
 -20082195.94748 -15607799.79548  21321279.7784   21321284.2974   21321278.815
        53.0004         49.0004
 -10869868.47348  -8427146.81547  22883403.4584   22883405.8204   22883402.708
        48.0004         43.0004
   2419277.93746   1937086.90346  25361313.5674   25361322.4804   25361313.466
        40.0004         36.0004
 -19125174.86348 -14859772.20148  21591636.7474   21591641.9634   21591635.346
        52.0004         48.0004
  -6165332.86847  -4759914.29346  24118775.5584   24118777.9694   24118775.940
        45.0004         40.0004
 -13528221.04448 -10518254.58748  21394374.2284   21394376.4654   21394373.661
        53.0004         49.0004
  -8442276.62047  -6523350.47746  23508016.3674   23508018.8154   23508015.098
        45.0004         40.0004
 15  5  1  1 49  0.0000000  0  8G03G24G12G01G06G02G17G28
  -1755957.85947  -1341034.93346  24834321.8714   24834329.2614   24834322.937
        42.0004         37.0004
 -20105552.26548 -15625999.52348  21316835.3364   21316839.5674   21316834.016
        53.0004         49.0004
 -10958913.37948  -8496532.39947  22866458.4664   22866461.2434   22866456.859
        48.0004         43.0004
   2522010.67246   2017138.31445  25380862.8114   25380872.5384   25380863.378
        40.0004         35.0004
 -19195227.30148 -14914358.47748  21578306.2134   21578311.3614   21578304.956
        53.0004         48.0004
  -6268914.03247  -4840626.80046  24099065.7324   24099067.9844   24099064.722
        45.0004         40.0004
 -13473622.52148 -10475710.30048  21404764.0704   21404766.0254   21404763.552
        53.0004         49.0004
  -8365334.08547  -6463395.31946  23522656.4784   23522660.9374   23522656.760
        45.0004         40.0004
 15  5  1  1 49 30.0000000  0  8G03G24G12G01G06G02G17G28
  -1793072.89347  -1369955.69046  24827260.9664   24827266.5974   24827258.430
        42.0004         37.0004
 -20128327.49448 -15643746.44548  21312500.9334   21312505.2994   21312500.264
        53.0004         49.0004
 -11047822.09248  -8565811.83147  22849539.2324   22849542.4274   22849539.153
        48.0004         43.0004
   2624956.94546   2097356.14145  25400452.9364   25400463.9104   25400454.250
        39.0004         34.0004
 -19264809.96648 -14968578.70048  21565065.0894   21565070.1934   21565063.888
        53.0004         48.0004
  -6372410.46247  -4921273.27246  24079370.5874   24079372.5684   24079369.889
        45.0004         40.0004
 -13418732.11048 -10432938.56548  21415209.4404   21415211.2914   21415209.266
        53.0004         49.0004
  -8288225.22047  -6403310.55046  23537331.1724   23537335.4864   23537330.571
        45.0004         40.0004
 15  5  1  1 50  0.0000000  0  7G03G24G12G06G02G17G28
  -1829720.65347  -1398512.34246  24820285.3304   24820292.1044   24820281.769
        42.0004         37.0004
 -20150521.22048 -15661040.25648  21308278.1374   21308282.1714   21308277.332
        53.0004         49.0004
 -11136593.16848  -8634984.03147  22832647.5944   22832650.2904   22832646.483
        48.0004         43.0004
 -19333920.83848 -15022431.28648  21551913.6464   21551918.7424   21551912.827
        53.0004         48.0004
  -6475820.05847  -5001852.09146  24059691.6964   24059694.0014   24059691.730
        45.0004         40.0004
 -13363551.15848 -10389940.43248  21425709.8624   21425711.8404   21425709.531
        53.0004         49.0004
  -8210950.92347  -6343096.87946  23552036.2214   23552040.1644   23552035.294
        45.0004         40.0004
 15  5  1  1 50 30.0000000  0  7G03G24G12G06G02G17G28
  -1865899.11046  -1426703.28846  24813400.6604   24813408.0274   24813399.518
        41.0004         37.0004
 -20172132.27148 -15677880.02648  21304165.1484   21304169.9884   21304164.076
        53.0004         49.0004
 -11225225.33848  -8704047.97947  22815781.1004   22815783.5164   22815779.907
        48.0004         44.0004
 -19402557.58048 -15075914.41948  21538852.6964   21538858.2214   21538851.607
        53.0004         48.0004
  -6579140.51547  -5082361.44946  24040029.8074   24040033.3834   24040029.539
        45.0004         40.0004
 -13308080.88148 -10346716.85348  21436265.7214   21436267.7354   21436264.892
        53.0004         49.0004
  -8133511.36247  -6282754.40346  23566771.7324   23566775.9594   23566772.190
        45.0004         40.0004
 15  5  1  1 51  0.0000000  0  7G03G24G12G06G02G17G28
  -1901606.54447  -1454527.20646  24806608.4944   24806614.4774   24806608.023
        42.0004         37.0004
 -20193159.77948 -15694265.09448  21300163.8574   21300168.8384   21300162.642
        53.0004         49.0004
 -11313717.55148  -8773002.88147  22798941.4294   22798943.9444   22798941.183
        48.0004         44.0004
 -19470717.97648 -15129026.37848  21525882.2254   21525887.3514   21525881.354
        53.0004         48.0004
  -6682369.74247  -5162799.70146  24020386.5674   24020389.5774   24020386.809
        45.0004         40.0004
 -13252323.26148 -10303269.37248  21446875.9934   21446878.1324   21446875.602
        53.0004         49.0004
  -8055906.75247  -6222283.34346  23581540.3924   23581543.4804   23581539.966
        45.0004         40.0004
 15  5  1  1 51 30.0000000  0  8G15G03G24G12G06G02G17G28
                                                                  25668824.321

  -1936840.99147  -1481982.56146  24799900.4804   24799908.5504   24799902.366
        42.0004         37.0004
 -20213602.93348 -15710194.81848  21296273.7134   21296278.1134   21296272.720
        53.0004         49.0004
 -11402068.40648  -8841847.62747  22782128.8704   22782132.0604   22782127.593
        48.0004         44.0004
 -19538399.92348 -15181765.50848  21513002.2374   21513008.1594   21513001.241
        53.0004         48.0004
  -6785505.66947  -5243165.27346  24000759.7134   24000762.8494   24000759.791
        45.0004         40.0004
 -13196279.60648 -10259599.00648  21457540.7564   21457542.6554   21457540.291
        53.0004         49.0004
  -7978137.44547  -6161683.95146  23596339.3424   23596342.4024   23596338.629
        45.0004         40.0004
 15  5  1  1 52  0.0000000  0  7G03G24G12G06G02G17G28
  -1971600.63247  -1509067.92546  24793287.3774   24793295.3484   24793290.061
        42.0004         37.0004
 -20233460.40748 -15725668.16948  21292494.6174   21292499.8594   21292494.023
        53.0004         49.0004
 -11490276.52348  -8910581.14947  22765343.9074   22765344.9984   22765342.694
        48.0004         43.0004
 -19605601.05248 -15234129.98048  21500214.7244   21500219.5944   21500214.089
        53.0004         48.0004
  -6888545.51647  -5323455.96446  23981153.2674   23981154.2444   23981153.114
        44.0004         40.0004
 -13139951.64048 -10215707.09948  21468259.7814   21468260.9564   21468259.454
        53.0004         49.0004
  -7900203.75947  -6100956.46246  23611169.8304   23611173.1194   23611169.826
        44.0004         40.0004
 15  5  1  1 52 30.0000000  0  7G03G24G12G06G02G17G28
  -2005883.81846  -1535782.01846  24786761.0224   24786768.5824   24786766.384
        41.0004         36.0004
 -20252731.49348 -15740684.59648  21288827.7054   21288832.2094   21288827.101
        53.0004         49.0004
 -11578341.01548  -8979202.76547  22748584.9454   22748587.2204   22748583.964
        48.0004         43.0004
 -19672319.48148 -15286118.32448  21487518.6564   21487523.3934   21487517.034
        53.0004         48.0004
  -6991487.13247  -5403670.10746  23961563.7724   23961565.5344   23961564.853
        44.0004         40.0004
 -13083340.84448 -10171594.80748  21479031.9854   21479034.0484   21479031.568
        53.0004         49.0004
  -7822106.31547  -6040101.36646  23626030.2004   23626033.0464   23626029.490
        44.0004         39.0004
 15  5  1  1 53  0.0000000  0  7G03G24G12G06G02G17G28
  -2039688.53846  -1562123.31646  24780328.9144   24780338.1174   24780331.472
        41.0004         36.0004
 -20271415.40748 -15755243.48348  21285272.1234   21285276.9314   21285271.000
        53.0004         49.0004
 -11666260.24648  -9047711.19047  22731854.7444   22731857.6164   22731853.360
        48.0004         44.0004
 -19738552.82848 -15337728.68948  21474914.6504   21474919.8284   21474912.962
        53.0004         48.0004
  -7094328.32147  -5483806.01046  23941993.4264   23941995.7684   23941994.387
        44.0004         40.0004
 -13026448.57948 -10127263.18248  21489858.6834   21489860.5624   21489857.894
        53.0004         49.0004
  -7743845.29147  -5979118.80946  23640924.0174   23640927.1504   23640921.747
        44.0004         40.0004
 15  5  1  1 53 30.0000000  0  7G03G24G12G06G02G17G28
  -2073013.06647  -1588090.47646  24773989.8264   24773995.6814   24773989.119
        42.0004         37.0004
 -20289511.07048 -15769343.99148  21281829.1444   21281833.5954   21281828.058
        53.0004         49.0004
 -11754033.01448  -9116105.47647  22715151.1054   22715154.8794   22715151.017
        48.0004         44.0004
 -19804298.99948 -15388959.43448  21462403.1784   21462408.7414   21462402.403
        53.0004         48.0004
  -7197067.01947  -5563862.03646  23922442.9444   23922445.2074   23922443.025
        44.0004         40.0004
 -12969276.12248 -10082713.23048  21500738.0354   21500739.8384   21500737.353
        53.0004         49.0004
  -7665421.24547  -5918009.21446  23655845.2444   23655850.2754   23655844.190
        44.0004         39.0004
 15  5  1  1 54  0.0000000  0  7G03G24G12G06G02G17G28
  -2105855.72347  -1613682.10346  24767740.4714   24767746.0504   24767735.794
        42.0004         37.0004
 -20307017.41948 -15782985.30048  21278497.6914   21278501.8834   21278496.562
        53.0004         49.0004
 -11841657.73048  -9184384.41147  22698478.0924   22698479.3594   22698477.006
        48.0004         44.0004
 -19869555.93548 -15439808.95348  21449985.4724   21449990.3814   21449984.647
        53.0004         48.0004
  -7299701.02047  -5643836.48746  23902912.4794   23902914.4024   23902912.210
        45.0004         40.0004
 -12911825.53348 -10037946.55148  21511670.8424   21511672.6964   21511670.209
        53.0004         49.0004
  -7586834.26147  -5856772.68146  23670800.9234   23670806.4504   23670800.228
        44.0004         39.0004
 15  5  1  1 54 30.0000000  0  8G03G24G14G12G06G02G17G28
  -2138214.68746  -1638896.85646  24761579.2834   24761588.5614   24761579.873
        41.0004         36.0004
 -20323934.24848 -15796167.23848  21275278.6364   21275282.9814   21275277.294
        53.0004         49.0004
                                                                  25435698.510

 -11929133.23648  -9252547.08547  22681831.6354   22681833.8514   22681831.082
        49.0004         44.0004
 -19934321.48248 -15490275.57148  21437660.8264   21437666.5354   21437659.911
        53.0004         48.0004
  -7402227.96847  -5723727.52046  23883402.6574   23883404.8414   23883401.396
        45.0004         40.0004
 -12854098.28048  -9992964.28948  21522655.8954   21522657.4834   21522654.789
        53.0004         49.0004
  -7508084.76247  -5795409.50346  23685788.1954   23685790.4204   23685787.485
        44.0004         39.0004
 15  5  1  1 55  0.0000000  0  7G03G24G12G06G02G17G28
  -2170088.31746  -1663733.38546  24755515.7264   24755521.3654   24755515.897
        41.0004         37.0004
 -20340260.08748 -15808888.65948  21272171.2474   21272176.0954   21272170.580
        53.0004         49.0004
 -12016458.42548  -9320592.63147  22665213.6654   22665216.3334   22665213.328
        49.0004         44.0004
 -19998593.54248 -15540357.65948  21425430.6924   21425435.4154   21425429.171
        53.0004         48.0004
  -7504645.66947  -5803533.41146  23863912.0104   23863915.2964   23863912.336
        45.0004         40.0004
 -12796095.31548  -9947767.19148  21533693.1284   21533695.3284   21533692.307
        53.0004         48.0004
  -7429173.31547  -5733920.13046  23700805.2974   23700808.5494   23700803.543
        44.0004         39.0004
 15  5  1  1 55 30.0000000  0  7G03G24G12G06G02G17G28
  -2201474.86847  -1688190.41346  24749543.9534   24749550.0494   24749543.933
        42.0004         38.0004
 -20355994.76648 -15821149.44148  21269177.2014   21269181.7874   21269176.215
        53.0004         49.0004
 -12103631.79348  -9388519.85947  22648625.6334   22648627.5754   22648624.331
        49.0004         44.0004
 -20062370.08648 -15590053.63348  21413294.4494   21413298.8864   21413293.612
        53.0004         48.0004
  -7606951.75647  -5883252.34246  23844443.8944   23844446.0274   23844444.847
        45.0004         40.0004
 -12737818.67748  -9902356.83848  21544783.4904   21544785.0854   21544782.690
        53.0004         49.0004
  -7350100.29147  -5672304.82546  23715848.8554   23715853.9014   23715850.166
        44.0004         39.0004
 15  5  1  1 56  0.0000000  0  7G03G24G12G06G02G17G28
  -2232372.71547  -1712266.62846  24743664.1194   24743669.7734   24743662.722
        42.0004         38.0004
 -20371137.34148 -15832948.84848  21266295.6714   21266300.0974   21266294.761
        53.0004         49.0004
 -12190652.04948  -9456327.80847  22632066.0794   22632067.3694   22632065.686
        49.0004         44.0004
 -20125649.10448 -15639361.92848  21401252.2964   21401257.7744   21401251.343
        53.0004         48.0004
  -7709144.28147  -5962882.80546  23824996.6954   23824999.6994   23824997.195
        45.0004         40.0004
 -12679269.94848  -9856734.45948  21555924.3794   21555926.3444   21555923.443
        53.0004         49.0004
  -7270866.11647  -5610563.97846  23730926.5604   23730931.3394   23730927.690
        44.0004         39.0004
 15  5  1  1 56 30.0000000  0  7G03G24G12G06G02G17G28
  -2262780.04947  -1735960.62446  24737877.9664   24737883.4184   24737875.787
        43.0004         38.0004
 -20385686.66348 -15844285.97848  21263527.0414   21263531.8904   21263526.029
        53.0004         49.0004
 -12277517.77548  -9524015.31247  22615535.0204   22615537.9954   22615534.780
        49.0004         44.0004
 -20188428.47048 -15688280.87848  21389305.8364   21389310.8834   21389305.306
        53.0004         48.0004
  -7811220.79347  -6042422.85246  23805572.2034   23805574.8384   23805572.390
        45.0004         41.0004
 -12620450.16448  -9810900.87548  21567117.2674   21567119.8294   21567116.865
        53.0004         48.0004
  -7191471.05447  -5548697.75746  23746037.1154   23746040.2394   23746035.907
        43.0004         39.0004
 15  5  1  1 57  0.0000000  0  7G03G24G12G06G02G17G28
  -2292695.37847  -1759271.20846  24732184.8784   24732191.0524   24732182.752
        42.0004         37.0004
 -20399642.64948 -15855160.76548  21260871.5034   21260875.8944   21260871.045
        53.0004         49.0004
 -12364227.61148  -9591581.34947  22599035.2844   22599037.7314   22599034.603
        48.0004         44.0004
 -20250706.15148 -15736808.91148  21377454.7174   21377459.6374   21377453.779
        53.0004         48.0004
  -7913178.96647  -6121870.67846  23786170.9814   23786172.4984   23786170.283
        45.0004         41.0004
 -12561361.23948  -9764857.57248  21578361.7084   21578364.0284   21578360.615
        53.0004         49.0004
  -7111915.42847  -5486706.42046  23761176.0194   23761179.6504   23761174.781
        43.0004         39.0004
 15  5  1  1 57 30.0000000  0  8G03G24G14G12G06G02G17G28
  -2322116.97947  -1782197.07446  24726586.7744   24726592.1684   24726583.979
        42.0004         37.0004
 -20413004.07048 -15865572.25748  21258329.0144   21258333.2954   21258327.711
        53.0004         49.0004
   -111461.65747    -68221.15745  25387289.4064   25387293.7754   25387289.812
        47.0004         34.0004
 -12450780.39848  -9659025.02347  22582565.5904   22582566.8094   22582564.797
        49.0004         44.0004
 -20312480.20048 -15784944.49948  21365699.5924   21365704.9784   21365698.520
        53.0004         49.0004
  -8015016.83447  -6201224.77646  23766790.8654   23766793.4674   23766790.961
        45.0004         41.0004
 -12502004.16048  -9718605.30948  21589657.1654   21589659.0124   21589656.418
        53.0004         48.0004
  -7032199.61947  -5424590.27946  23776346.4004   23776348.4034   23776346.185
        44.0004         39.0004
 15  5  1  1 58  0.0000000  0  8G03G24G14G12G06G02G17G28
  -2351043.30747  -1804737.06646  24721081.9164   24721088.1904   24721079.722
        42.0004         38.0004
 -20425770.25148 -15875519.93448  21255899.6984   21255904.1814   21255898.482
        53.0004         49.0004
   -152168.55547    -99940.75845  25379543.3504   25379550.9134   25379542.768
        43.0004         34.0004
 -12537174.47448  -9726345.03547  22566124.5804   22566127.5714   22566123.476
        49.0004         44.0004
 -20373748.65548 -15832686.12048  21354040.3784   21354045.5524   21354039.198
        53.0004         49.0004
  -8116732.03947  -6280483.28646  23747434.6434   23747436.1224   23747434.174
        45.0004         40.0004
 -12442381.21148  -9672145.87448  21601002.8964   21601005.2104   21601001.989
        53.0004         48.0004
  -6952324.11147  -5362349.67746  23791545.7514   23791549.3914   23791544.783
        43.0004         38.0004
 15  5  1  1 58 30.0000000  0  8G03G24G14G12G06G02G17G28
  -2379472.76447  -1826889.88146  24715671.4344   24715677.7724   24715670.289
        42.0004         38.0004
 -20437940.84248 -15885003.50948  21253583.6624   21253587.8144   21253582.496
        53.0004         49.0004
   -192388.96446   -131281.31445  25371891.2854   25371893.4874   25371890.933
        40.0004         34.0004
 -12623408.39748  -9793540.23947  22549714.8184   22549716.7844   22549714.227
        49.0004         44.0004
 -20434509.43748 -15880032.15148  21342477.8074   21342483.4164   21342476.841
        53.0004         49.0004
  -8218322.20947  -6359644.36346  23728103.4874   23728105.3674   23728103.178
        45.0004         41.0004
 -12382493.31848  -9625480.00348  21612399.2714   21612401.2444   21612398.674
        53.0004         48.0004
  -6872289.30547  -5299984.94646  23806775.2674   23806779.4654   23806776.210
        43.0004         38.0004
 15  5  1  1 59  0.0000000  0  8G03G24G14G12G06G02G17G28
  -2407403.75647  -1848654.26946  24710356.0134   24710362.6374   24710354.586
        42.0004         38.0004
 -20449515.09748 -15894022.40948  21251381.2514   21251385.5574   21251380.215
        53.0004         49.0004
   -232121.31546   -162241.57945  25364331.8764   25364334.6124   25364329.471
        39.0004         35.0004
 -12709481.05248  -9860609.79247  22533335.5194   22533337.6204   22533334.554
        49.0004         44.0004
 -20494760.67948 -15926981.14148  21331012.8104   21331017.9024   21331011.224
        53.0004         48.0004
  -8319785.51447  -6438706.57746  23708796.0954   23708796.5844   23708795.445
        45.0004         41.0004
 -12322342.12948  -9578608.95748  21623845.7474   21623847.5414   21623844.681
        53.0004         48.0004
  -6792095.83747  -5237496.58346  23822034.4684   23822038.9704   23822034.621
        43.0004         38.0004
 15  5  1  1 59 30.0000000  0  8G03G24G14G12G06G02G17G28
  -2434834.80947  -1870029.06646  24705137.8174   24705141.6244   24705135.511
        42.0004         37.0004
 -20460492.60049 -15902576.31148  21249292.1584   21249296.4634   21249291.090
        54.0004         49.0004
   -271364.63046   -192820.75145  25356861.2274   25356864.7164   25356863.679
        39.0004         35.0004
 -12795391.14248  -9927552.67147  22516988.1404   22516989.5294   22516986.458
        49.0004         45.0004
 -20554500.47348 -15973531.59948  21319645.0144   21319649.5704   21319643.394
        53.0004         49.0004
  -8421119.08047  -6517667.71446  23689512.0134   23689514.1924   23689512.367
        45.0004         41.0004
 -12261929.12948  -9531533.90748  21635341.3414   21635343.7174   21635340.895
        53.0004         48.0004
  -6711743.75547  -5174884.61946  23837324.4784   23837330.0044   23837326.312
        43.0004         39.0004
 15  5  1  2  0  0.0000000  0  8G03G24G14G12G06G02G17G28
  -2461764.33247  -1891013.06046  24700013.3524   24700019.6494   24700012.529
        42.0004         38.0004
 -20470872.28449 -15910664.37648  21247316.8604   21247321.7394   21247315.925
        54.0004         49.0004
   -310117.75346   -223017.93145  25349489.2914   25349491.5844   25349487.028
        39.0004         34.0004
 -12881137.25548  -9994367.78247  22500671.2804   22500672.7334   22500669.488
        49.0004         45.0004
 -20613726.86648 -16019681.99848  21308374.0644   21308379.4174   21308372.801
        53.0004         49.0004
  -8522321.15647  -6596526.36446  23670253.2604   23670256.4274   23670254.819
        46.0004         41.0004
 -12201255.92948  -9484256.11048  21646887.6474   21646889.3394   21646886.864
        53.0004         48.0004
  -6631233.72547  -5112149.58646  23852646.5864   23852651.5604   23852647.665
        43.0004         39.0004
 15  5  1  2  0 30.0000000  0  8G03G24G14G12G06G02G17G28
  -2488190.75947  -1911605.05246  24694983.1634   24694990.0434   24694982.252
        43.0004         39.0004
 -20480653.79648 -15918286.33648  21245455.6724   21245459.9394   21245454.409
        53.0004         49.0004
   -348379.33946   -252832.19545  25342206.5824   25342210.7724   25342205.623
        39.0004         35.0004
 -12966717.96848 -10061054.01447  22484385.0084   22484387.3594   22484384.597
        49.0004         45.0004
 -20672437.87548 -16065430.80048  21297201.7664   21297207.0894   21297200.261
        53.0004         49.0004
  -8623389.54247  -6675280.85446  23651021.1514   23651022.8414   23651021.447
        46.0004         41.0004
 -12140323.96248  -9436776.67648  21658482.5324   21658484.8424   21658482.289
        53.0004         48.0004
  -6550566.03447  -5049291.68746  23867997.3354   23868002.0514   23867997.269
        43.0004         39.0004
 15  5  1  2  1  0.0000000  0  8G03G24G14G12G06G02G17G28
  -2514112.66847  -1931803.95246  24690051.4404   24690057.2304   24690050.833
        43.0004         39.0004
 -20489837.01648 -15925442.09748  21243708.4194   21243712.8234   21243707.347
        53.0004         49.0004
   -386148.02246   -282262.31345  25335020.0204   25335024.3884   25335018.190
        39.0004         35.0004
 -13052131.71648 -10127610.13847  22468132.1204   22468133.1484   22468130.786
        50.0004         45.0004
 -20730631.70548 -16110776.60948  21286127.1054   21286132.9184   21286126.113
        53.0004         49.0004
  -8724321.76047  -6753929.23746  23631814.0314   23631816.5774   23631814.198
        46.0004         41.0004
 -12079134.53148  -9389096.61348  21670126.7414   21670127.9754   21670126.359
        53.0004         48.0004
  -6469741.19147  -4986311.35046  23883376.9494   23883382.1114   23883377.506
        43.0004         38.0004
 15  5  1  2  1 30.0000000  0  8G03G24G14G12G06G02G17G28
  -2539528.63247  -1951608.56346  24685215.0094   24685220.5574   24685211.808
        43.0004         38.0004
 -20498421.24948 -15932131.11048  21242074.4754   21242079.2874   21242073.884
        53.0004         49.0004
   -423422.99546   -311307.68345  25327926.6674   25327932.7024   25327928.354
        40.0004         35.0004
 -13137377.14248 -10194035.10247  22451909.7744   22451911.8554   22451909.537
        50.0004         45.0004
 -20788306.51448 -16155717.98648  21275152.6424   21275157.4464   21275151.449
        53.0004         49.0004
  -8825115.78847  -6832469.93446  23612633.3704   23612636.1294   23612633.753
        46.0004         41.0004
 -12017689.38248  -9341217.28948  21681819.7524   21681821.3034   21681819.210
        53.0004         48.0004
  -6388759.58447  -4923208.86346  23898788.2454   23898792.9334   23898786.641
        43.0004         38.0004
 15  5  1  2  2  0.0000000  0  8G03G24G14G12G06G02G17G28
  -2564437.13247  -1971017.75046  24680475.3554   24680479.8684   24680472.801
        43.0004         38.0004
 -20506405.17448 -15938352.35148  21240555.3664   21240559.7804   21240554.153
        53.0004         49.0004
   -460202.97446   -339967.35745  25320927.9644   25320934.9244   25320930.982
        40.0004         35.0004
 -13222452.92548 -10260327.88747  22435721.2954   22435722.7024   22435720.389
        50.0004         45.0004
 -20845460.36948 -16200253.43248  21264276.6954   21264281.6314   21264275.450
        53.0004         49.0004
  -8925769.25147  -6910901.09046  23593480.0574   23593482.6324   23593480.193
        46.0004         41.0004
 -11955989.85448  -9293139.74748  21693560.2584   21693562.4104   21693559.624
        53.0004         48.0004
  -6307621.42547  -4859984.38546  23914227.9504   23914231.9234   23914227.373
        43.0004         38.0004
 15  5  1  2  2 30.0000000  0  8G03G24G14G12G06G02G17G28
  -2588836.87447  -1990030.46646  24675830.4674   24675837.5004   24675829.644
        43.0004         39.0004
 -20513789.53649 -15944106.40348  21239150.1364   21239154.7864   21239149.393
        54.0004         49.0004
   -496486.89846   -368240.43045  25314025.3814   25314025.7334   25314024.931
        39.0004         34.0004
 -13307357.64048 -10326487.36447  22419563.4064   22419565.4754   22419563.137
        50.0004         45.0004
 -20902091.54548 -16244381.58948  21253499.9844   21253505.3124   21253498.770
        53.0004         49.0004
  -9026279.93047  -6989220.99646  23574353.2684   23574356.7984   23574353.298
        46.0004         41.0004
 -11894037.50648  -9244865.21248  21705349.6064   21705351.8094   21705348.908
        53.0004         48.0004
  -6226327.60947  -4796638.62746  23929698.1924   23929701.7684   23929696.467
        43.0004         38.0004
 15  5  1  2  3  0.0000000  0  8G03G24G14G12G06G02G17G28
  -2612726.25947  -2008645.55046  24671285.7394   24671291.6784   24671284.963
        44.0004         39.0004
 -20520573.38049 -15949392.51848  21237859.2594   21237863.6044   21237858.635
        54.0004         49.0004
   -532273.37146   -396125.92745  25307214.6994   25307219.2484   25307212.083
        39.0004         35.0004
 -13392090.08248 -10392512.61447  22403439.2714   22403441.6894   22403438.155
        49.0004         45.0004
 -20958198.15949 -16288101.00548  21242823.1914   21242828.0364   21242822.417
        54.0004         49.0004
  -9126645.69247  -7067427.97346  23555254.0734   23555256.8114   23555254.647
        46.0004         41.0004
 -11831833.86248  -9196394.86248  21717186.6384   21717188.1384   21717186.354
        53.0004         48.0004
  -6144878.39447  -4733171.77846  23945196.2934   23945201.1984   23945196.941
        42.0004         38.0004
 15  5  1  2  3 30.0000000  0  8G03G24G14G12G06G02G17G28
  -2636104.11947  -2026862.03546  24666835.3204   24666842.3524   24666836.129
        43.0004         39.0004
 -20526755.98649 -15954210.12748  21236682.4424   21236687.0714   21236681.664
        54.0004         49.0004
   -567561.11846   -423622.86945  25300499.7364   25300503.9264   25300497.207
        40.0004         35.0004
 -13476648.33748 -10458402.11547  22387348.1534   22387350.8914   22387347.549
        50.0004         45.0004
 -21013778.37749 -16331410.23648  21232246.6814   21232251.3534   21232245.587
        54.0004         49.0004
  -9226864.38847  -7145520.37946  23536183.6664   23536186.1784   23536183.630
        46.0004         41.0004
 -11769380.05748  -9147729.56948  21729070.6864   21729072.8704   21729070.305
        53.0004         48.0004
  -6063274.04547  -4669584.04646  23960726.0444   23960730.8684   23960726.775
        42.0004         37.0004
 15  5  1  2  4  0.0000000  0  8G03G24G14G12G06G02G17G28
  -2658968.91547  -2044678.70646  24662484.7554   24662491.7664   24662485.597
        43.0004         38.0004
 -20532337.22848 -15958559.15348  21235620.6554   21235625.3654   21235619.235
        53.0004         49.0004
   -602349.67146   -450730.79045  25293879.2524   25293883.6124   25293878.513
        39.0004         34.0004
 -13561031.28248 -10524155.03547  22371289.9894   22371292.7014   22371290.011
        50.0004         45.0004
 -21068830.61149 -16374308.05448  21221770.5784   21221775.5154   21221769.224
        54.0004         49.0004
  -9326933.98147  -7223496.60247  23517140.1064   23517143.1824   23517140.591
        46.0004         42.0004
 -11706677.77448  -9098870.66548  21741003.2154   21741004.9204   21741002.552
        53.0004         48.0004
  -5981515.46347  -4605876.12446  23976284.6674   23976288.0964   23976283.140
        42.0004         38.0004
 15  5  1  2  4 30.0000000  0  8G03G24G14G12G06G02G17G28
  -2681319.27547  -2062094.51346  24658231.1004   24658237.9904   24658231.837
        43.0004         38.0004
 -20537316.98448 -15962439.48348  21234673.1474   21234677.5704   21234672.275
        53.0004         49.0004
   -636637.55646   -477448.60345  25287356.4864   25287358.0004   25287354.619
        38.0004         33.0004
 -13645237.45448 -10589770.20147  22355267.4474   22355269.1614   22355266.759
        49.0004         45.0004
 -21123352.90349 -16416792.92948  21211395.2554   21211400.7424   21211394.393
        54.0004         49.0004
  -9426851.79547  -7301354.51447  23498126.4674   23498129.1454   23498126.354
        46.0004         42.0004
 -11643728.50348  -9049819.30548  21752981.4314   21752983.9984   21752980.932
        53.0004         48.0004
  -5899602.67547  -4542048.02246  23991872.1764   23991875.9544   23991871.660
        43.0004         38.0004
 15  5  1  2  5  0.0000000  0  8G03G24G14G12G06G02G17G28
  -2703153.95947  -2079108.52846  24654075.9474   24654082.7264   24654073.676
        43.0004         38.0004
 -20541694.41248 -15965850.47148  21233839.9654   21233844.3924   21233838.871
        53.0004         49.0004
   -670423.85046   -503775.58745  25280919.9694   25280924.3894   25280923.914
        38.0004         33.0004
 -13729265.29548 -10655246.40547  22339275.9314   22339278.1474   22339275.962
        49.0004         45.0004
 -21177343.64349 -16458863.60348  21201121.4104   21201126.5414   21201120.479
        54.0004         49.0004
  -9526615.85747  -7379092.67147  23479142.0494   23479144.1184   23479141.968
        46.0004         42.0004
 -11580533.58848  -9000576.53248  21765007.0734   21765008.8314   21765006.611
        53.0004         48.0004
  -5817536.17847  -4478100.14746  24007487.9624   24007492.5844   24007486.994
        43.0004         39.0004
 15  5  1  2  5 30.0000000  0  8G03G24G14G12G06G02G17G28
  -2724471.67047  -2095719.68946  24650019.5894   24650026.4624   24650016.856
        43.0004         38.0004
 -20545469.53148 -15968792.12248  21233121.6034   21233126.2484   21233120.414
        53.0004         49.0004
   -703707.34046   -529710.76245  25274592.7894   25274594.3624   25274592.969
        38.0004         34.0004
 -13813113.59848 -10720582.70547  22323321.0984   22323323.5844   22323320.351
        49.0004         45.0004
 -21230801.04749 -16500518.69548  21190948.8474   21190953.8444   21190947.904
        54.0004         49.0004
  -9626224.01547  -7456709.32247  23460186.9554   23460188.9794   23460186.864
        46.0004         42.0004
 -11517094.72948  -8951143.66548  21777079.6204   21777081.3584   21777078.800
        52.0004         48.0004
  -5735316.43747  -4414032.89546  24023134.5314   24023139.2014   24023134.361
        44.0004         39.0004
 15  5  1  2  6  0.0000000  0  8G03G24G14G12G06G02G17G28
  -2745271.04747  -2111926.96446  24646062.2864   24646068.6114   24646059.090
        42.0004         38.0004
 -20548642.01748 -15971264.19148  21232517.7474   21232522.5184   21232516.652
        53.0004         49.0004
   -736487.20446   -555253.45745  25268353.2414   25268359.3554   25268352.263
        38.0004         34.0004
 -13896780.66148 -10785777.78547  22307399.7444   22307402.1034   22307398.742
        49.0004         45.0004
 -21283723.40949 -16541756.87148  21180877.4584   21180882.8204   21180876.799
        54.0004         49.0004
  -9725674.04847  -7534202.75547  23441262.9684   23441265.1214   23441262.815
        46.0004         42.0004
 -11453413.29148  -8901521.78348  21789197.4894   21789199.8764   21789196.955
        53.0004         48.0004
  -5652943.77847  -4349846.48746  24038810.2744   24038814.1444   24038809.599
        44.0004         39.0004
 15  5  1  2  6 30.0000000  0  8G03G24G14G12G06G02G17G28
  -2765551.01447  -2127729.49746  24642203.6144   24642209.0284   24642201.645
        43.0004         38.0004
 -20551211.58248 -15973266.45448  21232029.0954   21232033.6014   21232027.781
        53.0004         49.0004
   -768762.63146   -580403.12145  25262213.4174   25262214.4334   25262212.116
        38.0004         33.0004
 -13980265.16948 -10850830.62547  22291512.6074   22291514.6454   22291512.509
        50.0004         45.0004
 -21336109.17649 -16582576.92248  21170909.1384   21170914.1134   21170908.386
        54.0004         49.0004
  -9824963.68847  -7611571.23847  23422368.0534   23422369.9244   23422368.582
        46.0004         42.0004
 -11389490.78348  -8851712.05848  21801361.6264   21801364.0344   21801360.889
        53.0004         48.0004
  -5570418.91447  -4285541.48346  24054514.4674   24054517.4674   24054514.362
        43.0004         38.0004
 15  5  1  2  7  0.0000000  0  8G03G24G14G12G06G02G17G28
  -2785310.12547  -2143126.19746  24638442.5644   24638448.3664   24638443.894
        42.0004         37.0004
 -20553177.46749 -15974798.31248  21231654.8854   21231659.3234   21231654.050
        54.0004         49.0004
   -800532.32246   -605158.72745  25256165.6164   25256165.1154   25256163.979
        38.0004         33.0004
 -14063565.71548 -10915740.11047  22275661.3884   22275663.1524   22275660.644
        50.0004         45.0004
 -21387956.52449 -16622977.42848  21161042.6134   21161047.8174   21161041.248
        54.0004         49.0004
  -9924090.85347  -7688813.10447  23403504.9924   23403507.6414   23403504.670
        46.0004         42.0004
 -11325328.45948  -8801715.46448  21813571.1294   21813573.3884   21813570.610
        53.0004         48.0004
  -5487742.38147  -4221118.28746  24070246.5874   24070249.4634   24070247.439
        43.0004         38.0004
 15  5  1  2  7 30.0000000  0  8G03G24G14G12G06G02G17G28
  -2804547.27947  -2158116.16146  24634781.5734   24634787.3684   24634783.003
        42.0004         37.0004
 -20554540.16049 -15975860.14548  21231395.7204   21231399.9944   21231394.556
        54.0004         49.0004
   -831795.67956   -629519.76855  25250218.5395   25250221.7845   25250215.631
        38.0004         34.0004
 -14146680.67048 -10980504.97347  22259844.7564   22259847.4514   22259844.013
        50.0004         45.0004
 -21439263.91349 -16662957.18448  21151279.3844   21151284.7224   21151278.196
        54.0004         49.0004
 -10023053.23847  -7765926.56547  23384672.8474   23384675.4414   23384673.352
        47.0004         42.0004
 -11260927.67748  -8751533.05548  21825826.4354   21825828.7494   21825825.483
        52.0004         48.0004
  -5404914.68947  -4156577.31946  24086009.0784   24086010.6784   24086009.773
        43.0004         38.0004
 15  5  1  2  8  0.0000000  0  8G03G24G14G12G06G02G17G28
  -2823261.38047  -2172698.52546  24631221.3164   24631228.4594   24631219.616
        42.0004         37.0004
 -20555299.29649 -15976451.68548  21231251.1014   21231255.2884   21231249.684
        54.0004         49.0004
   -862551.61446   -653485.33845  25244365.4124   25244367.2754   25244363.998
        39.0004         35.0004
 -14229608.61148 -11045124.11447  22244064.4314   22244065.8934   22244063.257
        50.0004         45.0004
 -21490029.75249 -16702514.95548  21141619.2084   21141624.0924   21141617.793
        54.0004         49.0004
 -10121848.66547  -7842909.93247  23365873.5944   23365874.8434   23365873.173
        47.0004         42.0004
 -11196290.19948  -8701166.20348  21838126.0104   21838128.5234   21838125.654
        52.0004         48.0004
  -5321936.15347  -4091918.79146  24101798.6704   24101802.1204   24101798.699
        42.0004         38.0004
 15  5  1  2  8 30.0000000  0  8G03G24G14G12G06G02G17G28
  -2841451.02047  -2186872.24246  24627758.2554   24627767.2164   24627758.456
        42.0004         38.0004
 -20555454.41049 -15976572.56148  21231221.7234   21231225.9284   21231221.035
        54.0004         49.0004
   -892799.06946   -677054.73945  25238609.1384   25238612.6324   25238607.360
        40.0004         35.0004
 -14312348.13248 -11109596.43947  22228319.6044   22228322.4434   22228319.486
        50.0004         45.0004
 -21540252.36349 -16741649.42648  21132061.6114   21132066.7984   21132060.758
        54.0004         49.0004
 -10220474.84047  -7919761.42547  23347105.0894   23347107.8714   23347104.122
        47.0004         42.0004
 -11131417.38048  -8650615.97948  21850471.7344   21850474.0294   21850471.284
        52.0004         48.0004
  -5238807.20747  -4027143.08046  24117617.1454   24117621.3084   24117617.190
        43.0004         38.0004
 15  5  1  2  9  0.0000000  0  8G03G24G14G12G06G02G17G28
  -2859115.16847  -2200636.48346  24624398.9304   24624405.1204   24624396.991
        43.0004         38.0004
 -20555005.37548 -15976222.66448  21231307.0844   21231311.3714   21231306.177
        53.0004         49.0004
   -922537.16246   -700227.25745  25232949.6984   25232953.9014   25232947.917
        39.0004         34.0004
 -14394897.63148 -11173920.69047  22212611.6354   22212612.9464   22212610.351
        50.0004         46.0004
 -21589930.19749 -16780359.40048  21122608.5404   21122613.4114   21122607.781
        54.0004         49.0004
 -10318929.75147  -7996479.45147  23328369.0414   23328371.5354   23328368.671
        47.0004         42.0004
 -11066310.60348  -8599883.44948  21862860.8584   21862862.9884   21862860.644
        52.0004         48.0004
  -5155528.47247  -3962250.62446  24133464.6084   24133469.5874   24133465.054
        43.0004         38.0004
 15  5  1  2  9 30.0000000  0  7G03G24G12G06G02G17G28
  -2876252.70547  -2213990.40246  24621135.8704   24621143.3724   24621137.060
        43.0004         38.0004
 -20553952.67749 -15975402.38548  21231507.6084   21231511.7804   21231506.773
        54.0004         49.0004
 -14477255.72348 -11238095.80947  22196939.1614   22196940.8854   22196938.489
        50.0004         45.0004
 -21639061.73949 -16818643.69348  21113258.9934   21113263.8984   21113257.840
        54.0004         49.0004
 -10417211.05347  -8073062.21347  23309667.2174   23309668.7744   23309666.854
        47.0004         42.0004
 -11000971.54148  -8548969.91748  21875294.4804   21875296.4924   21875293.624
        52.0004         48.0004
  -5072100.47347  -3897241.87146  24149340.6704   24149344.5724   24149340.627
        43.0004         38.0004
 15  5  1  2 10  0.0000000  0  7G03G24G12G06G02G17G28
  -2892862.52947  -2226933.10446  24617975.5964   24617982.4464   24617975.168
        42.0004         38.0004
 -20552295.56349 -15974111.13548  21231822.6504   21231827.2674   21231821.808
        54.0004         49.0004
 -14559420.83048 -11302120.53147  22181303.5304   22181305.1394   22181302.338
        50.0004         45.0004
 -21687645.41949 -16856501.07748  21104013.6374   21104018.7194   21104012.801
        54.0004         49.0004
 -10515316.60747  -8149508.00947  23290997.9054   23290999.8694   23290998.591
        47.0004         42.0004
 -10935401.26148  -8497876.21048  21887772.1284   21887774.3334   21887771.280
        52.0004         48.0004
  -4988523.52047  -3832117.03446  24165246.1654   24165250.9204   24165245.065
        43.0004         38.0004
 15  5  1  2 10 30.0000000  0  7G03G24G12G06G02G17G28
  -2908943.47547  -2239463.68946  24614916.6644   24614921.9204   24614915.915
        42.0004         38.0004
 -20550033.96049 -15972348.84848  21232253.0314   21232257.5374   21232252.460
        54.0004         49.0004
 -14641391.39148 -11365993.67247  22165705.1394   22165706.4244   22165703.940
        50.0004         45.0004
 -21735679.65249 -16893930.32348  21094873.4004   21094878.3354   21094872.245
        54.0004         50.0004
 -10613244.27447  -8225815.20247  23272363.1344   23272364.8844   23272362.626
        47.0004         42.0004
 -10869601.28748  -8446603.52048  21900293.0814   21900295.4764   21900292.589
        52.0004         48.0004
  -4904798.22547  -3766876.58546  24181176.8124   24181181.0554   24181177.564
        42.0004         37.0004
 15  5  1  2 11  0.0000000  0  7G03G24G12G06G02G17G28
  -2924494.59947  -2251581.40046  24611955.3154   24611962.8604   24611955.293
        42.0004         38.0004
 -20547168.01449 -15970115.64848  21232798.4454   21232802.6974   21232797.742
        54.0004         49.0004
 -14723165.97848 -11429714.09947  22150143.8994   22150145.3164   22150142.517
        50.0004         46.0004
 -21783163.04849 -16930930.34848  21085837.5394   21085842.2034   21085836.395
        54.0004         49.0004
 -10710991.83547  -8301982.06347  23253762.1854   23253764.6764   23253761.677
        47.0004         42.0004
 -10803573.22548  -8395153.11348  21912857.9844   21912860.1704   21912857.392
        52.0004         48.0004
  -4820925.04246  -3701520.90046  24197137.2294   24197142.8994   24197137.860
        41.0004         37.0004
 15  5  1  2 11 30.0000000  0  7G03G24G12G06G02G17G28
  -2939514.71947  -2263285.36746  24609097.6304   24609104.5994   24609097.661
        42.0004         37.0004
 -20543697.81548 -15967411.60148  21233458.6394   21233462.9874   21233457.656
        53.0004         49.0004
 -14804742.99348 -11493280.58047  22134619.7394   22134621.3214   22134619.718
        50.0004         46.0004
 -21830094.05849 -16967499.93648  21076906.4124   21076911.2574   21076905.607
        54.0004         49.0004
 -10808557.18047  -8378006.92547  23235195.6464   23235198.3144   23235196.294
        47.0004         42.0004
 -10737318.35648  -8343525.96448  21925466.3654   21925468.4304   21925465.813
        52.0004         48.0004
  -4736904.45446  -3636050.39646  24213127.1734   24213129.3544   24213126.911
        41.0004         37.0004
 15  5  1  2 12  0.0000000  0  7G03G24G12G06G02G17G28
  -2954003.01447  -2274574.95446  24606342.4194   24606347.0664   24606340.451
        42.0004         37.0004
 -20539622.92148 -15964236.37048  21234234.4104   21234238.3304   21234233.613
        53.0004         49.0004
 -14886121.26548 -11556692.18947  22119134.4424   22119136.6644   22119133.878
        50.0004         46.0004
 -21876471.36649 -17003638.06648  21068081.3314   21068086.1374   21068080.352
        54.0004         49.0004
 -10905938.26847  -8453888.21147  23216664.8514   23216667.3634   23216665.536
        47.0004         42.0004
 -10670838.30548  -8291723.34647  21938117.1814   21938118.9604   21938115.914
        52.0004         47.0004
  -4652737.13947  -3570465.56346  24229145.0054   24229148.5254   24229144.801
        42.0004         37.0004
 15  5  1  2 12 30.0000000  0  7G03G24G12G06G02G17G28
  -2967958.19247  -2285449.11046  24603685.8854   24603691.7034   24603683.746
        42.0004         37.0004
 -20534943.51949 -15960590.08748  21235124.4974   21235129.0454   21235123.895
        54.0004         49.0004
 -14967298.93148 -11619947.47947  22103687.6694   22103688.9814   22103686.004
        50.0004         46.0004
 -21922293.27249 -17039343.41248  21059361.3874   21059366.6704   21059360.113
        54.0004         50.0004
 -11003132.60447  -8529623.97447  23198169.0484   23198171.2354   23198168.667
        47.0004         42.0004
 -10604134.19348  -8239746.14047  21950809.7854   21950812.3874   21950809.623
        52.0004         47.0004
  -4568423.39647  -3504766.62746  24245188.8754   24245192.7184   24245188.787
        42.0004         38.0004
 15  5  1  2 13  0.0000000  0  7G03G24G12G06G02G17G28
  -2981379.52547  -2295907.29346  24601132.3844   24601139.7284   24601131.026
        42.0004         37.0004
 -20529659.71149 -15956472.84748  21236130.4154   21236134.3944   21236129.588
        54.0004         49.0004
 -15048274.61948 -11683045.37647  22088278.1084   22088279.7154   22088277.265
        50.0004         46.0004
 -21967558.60249 -17074615.07048  21050748.1174   21050752.9804   21050746.772
        54.0004         50.0004
 -11100138.35147  -8605212.76247  23179709.1974   23179711.5384   23179709.474
        47.0004         42.0004
 -10537207.60048  -8187595.56548  21963545.9534   21963548.1984   21963545.729
        52.0004         48.0004
  -4483963.93647  -3438954.11046  24261258.3174   24261263.9234   24261257.464
        42.0004         38.0004
 15  5  1  2 13 30.0000000  0  7G03G24G12G06G02G17G28
  -2994265.86846  -2305948.60046  24598679.8624   24598687.1394   24598677.383
        41.0004         37.0004
 -20523771.43349 -15951884.58148  21237250.8764   21237255.4374   21237249.671
        54.0004         49.0004
 -15129046.32948 -11745984.34547  22072906.9234   22072909.3194   22072906.117
        51.0004         46.0004
 -22012265.82049 -17109451.83448  21042240.7494   21042245.2874   21042239.072
        54.0004         49.0004
 -11196952.73147  -8680652.46247  23161286.4904   23161287.3374   23161287.075
        47.0004         42.0004
 -10470059.83748  -8135272.64647  21976323.8134   21976325.8454   21976323.024
        52.0004         47.0004
  -4399359.26647  -3373028.47646  24277357.2454   24277364.4014   24277357.752
        42.0004         37.0004
 15  5  1  2 14  0.0000000  0  7G03G24G12G06G02G17G28
  -3006616.45946  -2315572.44046  24596330.1004   24596336.0724   24596328.819
        41.0004         36.0004
 -20517279.17049 -15946825.68748  21238486.2784   21238490.7154   21238485.380
        54.0004         49.0004
 -15209613.35648 -11808763.81247  22057575.6234   22057576.6354   22057575.202
        50.0004         46.0004
 -22056413.68249 -17143852.73748  21033839.4564   21033844.0904   21033838.289
        54.0004         50.0004
 -11293574.44147  -8755942.00047  23142899.5044   23142902.2174   23142899.375
        47.0004         42.0004
 -10402692.36848  -8082778.53647  21989143.2784   21989145.5034   21989142.441
        52.0004         47.0004
  -4314609.98846  -3306990.15546  24293485.5104   24293491.9384   24293486.359
        41.0004         37.0004
 15  5  1  2 14 30.0000000  0  7G03G24G12G06G02G17G28
  -3018430.31646  -2324778.05446  24594080.6054   24594087.4144   24594081.599
        41.0004         36.0004
 -20510182.67949 -15941295.96348  21239836.5974   21239840.9524   21239835.387
        54.0004         49.0004
 -15289973.77448 -11871382.29247  22042283.1044   22042285.1684   22042282.062
        50.0004         46.0004
 -22100000.72749 -17177816.64848  21025544.8084   21025549.9954   21025544.056
        54.0004         50.0004
 -11390001.06747  -8831079.54547  23124550.5544   23124552.1604   23124549.868
        47.0004         43.0004
 -10335106.17248  -8030113.98647  22002004.9234   22002006.5334   22002003.796
        52.0004         47.0004
  -4229716.38347  -3240839.35846  24309640.8674   24309646.9634   24309640.587
        42.0004         37.0004
 15  5  1  2 15  0.0000000  0  7G03G24G12G06G02G17G28
  -3029706.54946  -2333564.66646  24591936.1904   24591941.3744   24591936.577
        41.0004         36.0004
 -20502482.32248 -15935295.69048  21241301.7254   21241306.1674   21241300.741
        53.0004         49.0004
 -15370125.95148 -11933838.50047  22027030.9274   22027032.6644   22027030.541
        51.0004         46.0004
 -22143025.68849 -17211342.56648  21017357.3264   21017362.5134   21017356.542
        54.0004         50.0004
 -11486230.05148  -8906063.09347  23106239.1964   23106240.8754   23106239.169
        48.0004         43.0004
 -10267303.24748  -7977280.55347  22014907.0564   22014908.7704   22014906.528
        52.0004         47.0004
  -4144679.32947  -3174576.79546  24325823.9454   24325828.6444   24325825.023
        42.0004         37.0004
 15  5  1  2 15 30.0000000  0  7G03G24G12G06G02G17G28
  -3040444.36646  -2341931.76946  24589892.3144   24589899.8764   24589892.444
        41.0004         36.0004
 -20494178.03248 -15928824.82748  21242882.2504   21242886.2374   21242881.034
        53.0004         49.0004
 -15450068.30548 -11996131.20347  22011818.8634   22011820.4044   22011817.634
        51.0004         46.0004
 -22185487.22049 -17244429.44748  21009277.6434   21009282.5974   21009276.586
        54.0004         50.0004
 -11582259.55048  -8980891.16347  23087964.0534   23087967.3284   23087965.019
        48.0004         43.0004
 -10199284.56948  -7924279.00747  22027850.5174   22027852.9764   22027849.790
        52.0004         47.0004
  -4059499.20647  -3108202.76246  24342034.6554   24342037.6884   24342034.087
        42.0004         38.0004
 15  5  1  2 16  0.0000000  0  7G03G24G12G06G02G17G28
  -3050642.83146  -2349878.63046  24587950.6774   24587954.9524   24587951.334
        41.0004         36.0004
 -20485269.92348 -15921883.45648  21244577.2734   21244581.8004   21244576.507
        53.0004         49.0004
 -15529799.24948 -12058259.18147  21996646.5804   21996647.6614   21996645.934
        51.0004         46.0004
 -22227384.03549 -17277076.29648  21001304.7414   21001309.7624   21001303.805
        54.0004         50.0004
 -11678087.11048  -9055561.88247  23069729.4594   23069731.6454   23069728.988
        48.0004         43.0004
 -10131052.07548  -7871110.84347  22040834.4554   22040837.2174   22040834.338
        52.0004         47.0004
  -3974176.36647  -3041717.48146  24358270.3054   24358273.9954   24358269.291
        42.0004         37.0004
 15  5  1  2 16 30.0000000  0  7G03G24G12G06G02G17G28
  -3060301.13646  -2357404.58646  24586112.3864   24586118.5474   24586112.314
        41.0004         36.0004
 -20475758.37848 -15914471.87748  21246387.5574   21246391.7794   21246386.315
        53.0004         49.0004
 -15609317.62248 -12120221.51147  21981514.3134   21981516.2474   21981512.984
        51.0004         46.0004
 -22268714.94749 -17309282.18348  20993439.6564   20993444.7034   20993438.502
        54.0004         50.0004
 -11773711.78348  -9130074.51047  23051532.8814   23051534.4134   23051531.858
        48.0004         43.0004
 -10062606.87348  -7817776.93747  22053859.3014   22053861.6854   22053858.404
        52.0004         47.0004
  -3888711.61247  -2975121.62746  24374532.7494   24374535.5514   24374532.248
        42.0004         37.0004
 15  5  1  2 17  0.0000000  0  7G03G24G12G06G02G17G28
  -3069418.43446  -2364509.01446  24584378.5554   24584385.4104   24584377.301
        41.0004         36.0004
 -20465643.58748 -15906590.23948  21248312.0224   21248316.9234   21248311.162
        53.0004         49.0004
 -15688621.36048 -12182016.59747  21966423.5074   21966425.0054   21966423.148
        51.0004         46.0004
 -22309478.54349 -17341046.00248  20985682.5754   20985687.4784   20985681.500
        54.0004         50.0004
 -11869130.07048  -9204426.32047  23033374.2554   23033376.9744   23033374.680
        48.0004         43.0004
  -9993949.28748  -7764277.52147  22066924.1244   22066926.6194   22066923.617
        52.0004         47.0004
  -3803105.38646  -2908415.52146  24390820.6134   24390828.7034   24390821.442
        41.0004         36.0004
 15  5  1  2 17 30.0000000  0  7G03G24G12G06G02G17G28
  -3077994.08246  -2371191.32646  24582746.7734   24582752.7174   24582745.786
        41.0004         37.0004
 -20454925.63948 -15898238.60448  21250351.7994   21250356.2574   21250351.241
        53.0004         49.0004
 -15767709.03048 -12243643.32947  21951374.1184   21951374.8404   21951372.981
        51.0004         46.0004
 -22349673.77349 -17372366.94548  20978033.5764   20978038.7114   20978032.760
        54.0004         50.0004
 -11964339.92348  -9278615.71447  23015256.3884   23015258.7544   23015256.958
        48.0004         43.0004
  -9925082.37448  -7710615.00947  22080028.6914   22080031.5584   22080028.060
        51.0004         47.0004
  -3717358.48946  -2841599.83246  24407140.3374   24407145.6504   24407139.902
        41.0004         37.0004
 15  5  1  2 18  0.0000000  0  7G03G24G12G06G02G17G28
  -3086027.22446  -2377450.90746  24581218.9274   24581225.9494   24581217.596
        41.0004         36.0004
 -20443605.42848 -15889417.67648  21252505.6104   21252510.5474   21252504.379
        53.0004         49.0004
 -15846579.14748 -12305100.53247  21936364.9304   21936366.0604   21936364.303
        51.0004         46.0004
 -22389299.35549 -17403244.00448  20970493.2504   20970498.0724   20970492.078
        54.0004         50.0004
 -12059339.81248  -9352641.50047  22997179.2574   22997181.2764   22997180.142
        48.0004         43.0004
  -9856006.80048  -7656789.90447  22093174.2364   22093176.1414   22093173.153
        51.0004         47.0004
  -3631471.29647  -2774674.83646  24423484.0354   24423489.9474   24423487.062
        42.0004         37.0004
 15  5  1  2 18 30.0000000  0  7G03G24G12G06G02G17G28
  -3093517.15546  -2383287.21346  24579792.5464   24579798.4964   24579791.929
        41.0004         36.0004
 -20431682.70548 -15880127.25448  21254774.4894   21254779.2284   21254773.678
        53.0004         49.0004
 -15925230.02548 -12366386.89747  21921397.5264   21921399.9424   21921396.885
        51.0004         46.0004
 -22428354.09049 -17433676.24948  20963061.3544   20963066.1694   20963060.632
        54.0004         50.0004
 -12154127.33048  -9426501.81147  22979141.9644   22979142.9724   22979141.475
        48.0004         44.0004
  -9786723.93448  -7602803.26947  22106358.0684   22106360.4194   22106357.574
        51.0004         47.0004
  -3545444.31447  -2707640.89246  24439855.3654   24439860.3914   24439855.130
        42.0004         37.0004
 15  5  1  2 19  0.0000000  0  7G03G24G12G06G02G17G28
  -3100463.25446  -2388699.75446  24578470.7234   24578476.8404   24578470.167
        41.0004         37.0004
 -20419157.98348 -15870367.74948  21257157.7834   21257162.5154   21257156.770
        53.0004         49.0004
 -16003660.11048 -12427501.22047  21906472.8794   21906474.4044   21906472.733
        51.0004         46.0004
 -22466836.90049 -17463662.83848  20955738.3264   20955743.1064   20955737.687
        55.0004         50.0004
 -12248700.05048  -9500194.73147  22961144.8044   22961146.6004   22961145.060
        48.0004         43.0004
  -9717235.17048  -7548656.20347  22119581.0824   22119583.5754   22119581.045
        51.0004         47.0004
  -3459278.13047  -2640498.50046  24456252.7794   24456257.0984   24456250.852
        42.0004         37.0004
 15  5  1  2 19 30.0000000  0  7G03G24G12G06G02G17G28
  -3106864.65047  -2393687.80046  24577251.1904   24577259.3034   24577251.884
        42.0004         37.0004
 -20406031.44848 -15860139.29748  21259655.7554   21259660.1814   21259654.955
        53.0004         49.0004
 -16081867.66348 -12488442.14647  21891590.2494   21891592.0874   21891588.935
        51.0004         46.0004
 -22504746.53149 -17493202.79148  20948524.3754   20948529.3084   20948523.274
        55.0004         50.0004
 -12343056.57748  -9573719.19147  22943189.1274   22943190.0714   22943189.486
        48.0004         43.0004
  -9647541.75948  -7494349.66047  22132843.9094   22132845.9134   22132843.284
        51.0004         47.0004
  -3372973.15046  -2573247.92746  24472675.4394   24472678.8924   24472672.666
        41.0004         37.0004
 15  5  1  2 20  0.0000000  0  7G03G24G12G06G02G17G28
  -3112720.90547  -2398251.08946  24576139.7424   24576146.4374   24576137.997
        42.0004         37.0004
 -20392303.87048 -15849442.49348  21262267.8104   21262272.6904   21262266.926
        53.0004         49.0004
 -16159851.41148 -12549208.67547  21876751.0144   21876752.4814   21876750.390
        51.0004         46.0004
 -22542082.08549 -17522295.41148  20941419.6394   20941424.4534   20941418.269
        55.0004         50.0004
 -12437194.58148  -9647073.38647  22925275.5364   22925276.5934   22925275.168
        48.0004         43.0004
  -9577645.05248  -7439884.71347  22146144.8324   22146146.8004   22146143.668
        51.0004         47.0004
  -3286530.52546  -2505890.09246  24489124.6344   24489129.6764   24489124.774
        41.0004         37.0004
 15  5  1  2 20 30.0000000  0  8G03G24G14G12G06G02G17G28
  -3118031.22447  -2402389.01646  24575126.9364   24575131.0304   24575127.878
        42.0004         37.0004
 -20377975.20448 -15838277.31748  21264994.5764   21264999.3114   21264993.527
        53.0004         49.0004
                                                                  25129869.276

 -16237609.67848 -12609799.50547  21861953.6004   21861956.1524   21861953.154
        51.0004         47.0004
 -22578842.23049 -17550939.66548  20934424.2054   20934429.3044   20934423.092
        55.0004         50.0004
 -12531111.93848  -9720255.63847  22907403.3614   22907404.8744   22907403.653
        48.0004         43.0004
  -9507546.51248  -7385262.49447  22159483.6964   22159486.7124   22159482.989
        51.0004         47.0004
  -3199950.53746  -2438425.21846  24505600.9334   24505604.0964   24505602.086
        41.0004         36.0004
 15  5  1  2 21  0.0000000  0  8G03G24G14G12G06G02G17G28
  -3122795.10446  -2406101.13246  24574221.5534   24574226.3784   24574220.797
        41.0004         36.0004
 -20363046.05448 -15826644.21448  21267835.6004   21267840.1354   21267835.088
        53.0004         49.0004
    -27216.99449    -12276.21545  25126573.6924   25126578.8454   25126576.368
        55.0004         35.0004
 -16315140.85248 -12670213.37847  21847200.2444   21847202.3634   21847199.890
        51.0004         47.0004
 -22615026.09049 -17579134.86348  20927538.6734   20927543.8244   20927537.803
        55.0004         50.0004
 -12624806.35048  -9793264.18847  22889574.3184   22889575.5554   22889574.526
        48.0004         43.0004
  -9437247.41748  -7330483.99847  22172861.2034   22172863.5074   22172860.979
        51.0004         47.0004
  -3113233.83346  -2370853.78046  24522099.9394   24522106.3734   24522103.488
        41.0004         36.0004
 15  5  1  2 21 30.0000000  0  8G03G24G14G12G06G02G17G28
  -3127011.87946  -2409386.90446  24573418.7734   24573424.7454   24573419.165
        41.0004         37.0004
 -20347516.88948 -15814543.57248  21270790.8324   21270795.5764   21270789.620
        53.0004         49.0004
    -43995.70448    -25350.49345  25123382.0904   25123383.9314   25123383.126
        48.0004         35.0004
 -16392443.05148 -12730448.82947  21832490.1384   21832492.0124   21832489.693
        51.0004         47.0004
 -22650632.47849 -17606880.09148  20920763.2524   20920767.9144   20920761.939
        55.0004         50.0004
 -12718275.73248  -9866097.41847  22871787.1004   22871788.0984   22871787.613
        48.0004         44.0004
  -9366748.97748  -7275550.16247  22186276.6964   22186279.2024   22186276.169
        51.0004         47.0004
  -3026380.96846  -2303176.33046  24538629.0054   24538634.5064   24538628.411
        41.0004         36.0004
 15  5  1  2 22  0.0000000  0  8G03G24G14G12G06G02G17G28
  -3130681.01146  -2412245.93446  24572720.0224   24572725.7654   24572718.308
        41.0004         37.0004
 -20331388.06948 -15801975.66848  21273860.1494   21273864.7884   21273858.937
        53.0004         49.0004
    -60249.34547    -38015.62645  25120288.9964   25120293.0324   25120287.119
        44.0004         35.0004
 -16469514.91248 -12790504.80847  21817824.6174   21817826.0654   21817823.683
        51.0004         47.0004
 -22685660.46649 -17634174.61548  20914097.5714   20914102.1644   20914096.583
        55.0004         50.0004
 -12811517.96848  -9938753.60447  22854043.7064   22854044.4204   22854043.540
        48.0004         44.0004
  -9296052.90848  -7220462.32947  22199730.1924   22199732.0934   22199729.716
        51.0004         47.0004
  -2939392.43946  -2235393.16946  24555182.9734   24555188.9474   24555184.453
        41.0004         36.0004
 15  5  1  2 22 30.0000000  0  8G03G24G14G12G06G02G17G28
  -3133801.95446  -2414677.83646  24572126.5564   24572132.1924   24572125.103
        41.0004         36.0004
 -20314660.11748 -15788940.90548  21277043.3354   21277048.2114   21277042.443
        53.0004         49.0004
    -75977.78946    -50271.48045  25117295.3604   25117298.3044   25117296.202
        40.0004         34.0004
 -16546354.57948 -12850379.84947  21803202.4174   21803203.8304   21803201.376
        51.0004         47.0004
 -22720109.00149 -17661017.61548  20907542.3684   20907547.2024   20907541.203
        55.0004         50.0004
 -12904530.97348 -10011231.18247  22836343.4954   22836346.2084   22836343.934
        49.0004         44.0004
  -9225160.06048  -7165221.16047  22213221.0564   22213222.3864   22213219.563
        51.0004         47.0004
  -2852268.82746  -2167504.72646  24571761.2844   24571768.0154   24571759.503
        41.0004         36.0004
 15  5  1  2 23  0.0000000  0  8G03G24G14G12G06G02G17G28
  -3136374.18346  -2416682.15646  24571638.0734   24571642.2194   24571635.909
        41.0004         37.0004
 -20297333.47848 -15775439.62848  21280340.3424   21280345.0374   21280339.772
        53.0004         49.0004
    -91180.58346    -62117.85945  25114402.4014   25114410.6884   25114402.695
        39.0004         35.0004
 -16622960.55848 -12910072.78747  21788623.9524   21788626.0844   21788623.393
        51.0004         47.0004
 -22753977.11649 -17687408.33848  20901097.0914   20901102.0514   20901096.075
        55.0004         50.0004
 -12997312.83148 -10083528.64047  22818687.4364   22818689.9744   22818687.483
        49.0004         44.0004
  -9154072.00948  -7109827.89847  22226748.2644   22226750.4294   22226748.134
        51.0004         47.0004
  -2765011.05946  -2099511.75846  24588365.4994   24588371.6664   24588367.197
        40.0004         36.0004
 15  5  1  2 23 30.0000000  0  8G03G24G14G12G06G02G17G28
  -3138397.14947  -2418258.47246  24571252.1344   24571259.6254   24571252.212
        42.0004         37.0004
 -20279409.02648 -15761472.52748  21283751.6864   21283755.6414   21283750.462
        53.0004         49.0004
   -105857.47946    -73554.31445  25111608.3774   25111613.6784   25111609.183
        39.0004         35.0004
 -16699331.54648 -12969582.62447  21774091.8154   21774093.2064   21774091.193
        52.0004         47.0004
 -22787263.81549 -17713346.00448  20894762.6544   20894767.6234   20894762.092
        55.0004         50.0004
 -13089861.22248 -10155644.18647  22801076.7074   22801078.7494   22801075.932
        49.0004         44.0004
  -9082790.03548  -7054283.51647  22240313.3584   22240314.6104   22240312.818
        51.0004         47.0004
  -2677619.53846  -2031414.54746  24604996.5394   24605002.0284   24604997.257
        40.0004         36.0004
 15  5  1  2 24  0.0000000  0  8G03G24G14G12G06G02G17G28
  -3139870.49747  -2419406.53446  24570973.2064   24570978.0294   24570971.722
        42.0004         38.0004
 -20260887.41548 -15747040.10448  21287275.6094   21287280.5994   21287274.769
        53.0004         49.0004
   -120008.07446    -84580.77245  25108919.3324   25108918.9064   25108917.389
        39.0004         34.0004
 -16775465.58048 -13028907.81847  21759604.0454   21759604.8284   21759603.218
        52.0004         47.0004
 -22819968.21149 -17738829.93248  20888539.4184   20888544.5084   20888538.532
        55.0004         50.0004
 -13182174.33348 -10227576.42247  22783510.7524   22783511.4624   22783510.345
        49.0004         44.0004
  -9011315.54248  -6998589.12247  22253914.2844   22253915.5984   22253913.374
        51.0004         47.0004
  -2590094.80646  -1963213.53146  24621654.2084   24621656.7344   24621650.497
        40.0004         36.0004
 15  5  1  2 24 30.0000000  0  8G03G24G14G12G06G02G17G28
  -3140793.80647  -2420125.98546  24570795.6934   24570801.4344   24570794.686
        42.0004         37.0004
 -20241768.78148 -15732142.46248  21290914.0394   21290918.9064   21290913.219
        53.0004         49.0004
   -133632.59146    -95197.27345  25106323.9494   25106327.8844   25106324.629
        39.0004         35.0004
 -16851361.34548 -13088047.35047  21745160.7614   21745162.8514   21745160.367
        52.0004         47.0004
 -22852089.48349 -17763859.47348  20882427.1174   20882431.8214   20882426.060
        55.0004         50.0004
 -13274249.96548 -10299323.61347  22765988.7614   22765990.7494   22765988.927
        49.0004         44.0004
  -8939649.88748  -6942745.77147  22267550.8574   22267553.5834   22267550.413
        51.0004         47.0004
  -2502437.83946  -1894909.48845  24638334.2454   24638338.2634   24638333.545
        40.0004         35.0004
 15  5  1  2 25  0.0000000  0  8G03G24G14G12G06G02G17G28
  -3141166.47747  -2420416.36846  24570725.0074   24570730.9244   24570723.091
        42.0004         37.0004
 -20222054.11548 -15716780.38248  21294665.4624   21294670.6854   21294664.742
        53.0004         49.0004
   -146730.16946   -105403.13145  25103831.8894   25103831.6654   25103831.176
        39.0004         34.0004
 -16927016.65048 -13146999.50547  21730764.1244   21730766.1034   21730763.436
        52.0004         47.0004
 -22883626.62149 -17788433.84748  20876425.7694   20876430.7354   20876424.440
        55.0004         50.0004
 -13366085.86148 -10370883.99147  22748513.1344   22748513.8664   22748512.952
        49.0004         44.0004
  -8867794.31748  -6886754.43147  22281224.5714   22281227.0464   22281224.200
        51.0004         47.0004
  -2414648.74246  -1826502.42445  24655039.2754   24655042.6214   24655038.428
        40.0004         35.0004
 15  5  1  2 25 30.0000000  0  8G03G24G14G12G06G02G17G28
  -3140988.22447  -2420277.46846  24570758.7944   24570763.7824   24570758.609
        42.0004         37.0004
 -20201743.92748 -15700954.26748  21298531.0384   21298535.2934   21298530.143
        53.0004         49.0004
   -159301.08746   -115198.65445  25101440.8344   25101442.3474   25101439.668
        39.0004         34.0004
 -17002430.10048 -13205763.20347  21716413.5274   21716415.6554   21716412.766
        52.0004         47.0004
 -22914578.82849 -17812552.44148  20870535.7524   20870540.6494   20870534.741
        55.0004         50.0004
 -13457680.58248 -10442256.40947  22731082.6634   22731085.1294   22731082.353
        49.0004         44.0004
  -8795750.05448  -6830616.06747  22294934.4434   22294936.4954   22294933.562
        51.0004         47.0004
  -2326728.58946  -1757993.23745  24671768.3184   24671774.3324   24671770.262
        39.0004         33.0004
 15  5  1  2 26  0.0000000  0  8G03G24G14G12G06G02G17G28
  -3140258.67647  -2419708.95946  24570898.3724   24570904.1974   24570898.433
        42.0004         37.0004
 -20180838.58748 -15684664.39348  21302508.5114   21302513.5854   21302507.560
        53.0004         49.0004
   -171344.99446   -124583.47245  25099150.1074   25099150.1604   25099148.075
        39.0004         35.0004
 -17077600.19748 -13264337.27947  21702108.8394   21702110.4694   21702108.178
        52.0004         47.0004
 -22944945.21849 -17836214.54748  20864757.3684   20864761.7064   20864755.987
        55.0004         50.0004
 -13549031.56548 -10513438.90947  22713698.4414   22713701.0314   22713699.426
        49.0004         44.0004
  -8723518.32248  -6774331.61747  22308679.7394   22308682.2534   22308679.525
        51.0004         47.0004
  -2238677.87646  -1689382.31145  24688520.6704   24688529.1324   24688524.277
        38.0004         33.0004
 15  5  1  2 26 30.0000000  0  9G25G03G24G14G12G06G02G17G28
                                                                  25080037.360

  -3138977.40947  -2418710.56046  24571141.8094   24571149.4754   24571143.494
        42.0004         37.0004
 -20159338.98848 -15667911.45548  21306600.1384   21306604.9934   21306599.125
        53.0004         49.0004
   -182861.76946   -133557.54445  25096953.8654   25096958.6724   25096955.831
        39.0004         35.0004
 -17152525.05448 -13322720.26047  21687851.1694   21687852.4894   21687850.747
        52.0004         47.0004
 -22974725.05849 -17859419.60248  20859090.1054   20859094.8804   20859088.803
        55.0004         50.0004
 -13640136.59248 -10584429.75047  22696362.9474   22696364.4574   22696362.984
        49.0004         44.0004
  -8651100.36948  -6717902.06147  22322460.2544   22322463.1994   22322460.044
        51.0004         46.0004
  -2150497.25046  -1620670.20945  24705305.6364   24705311.3844   24705304.348
        39.0004         35.0004
 15  5  1  2 27  0.0000000  0  9G25G03G24G14G12G06G02G17G28
   -203527.51048   -106230.10046  25060257.9484   25060267.1224   25060258.334
        52.0004         38.0004
  -3137144.08146  -2417282.02146  24571489.9744   24571495.3294   24571490.126
        41.0004         36.0004
 -20137245.83348 -15650696.00748  21310803.9524   21310808.7124   21310803.409
        53.0004         49.0004
   -193851.18746   -142120.73145  25094867.0744   25094868.6594   25094865.614
        40.0004         35.0004
 -17227203.07248 -13380910.90347  21673640.9624   21673641.8654   21673640.241
        52.0004         47.0004
 -23003917.39649 -17882166.86448  20853535.2294   20853539.9554   20853534.498
        55.0004         50.0004
 -13730993.84048 -10655227.52247  22679071.5364   22679073.9254   22679072.993
        49.0004         44.0004
  -8578497.70148  -6661328.57747  22336276.5234   22336278.7914   22336275.563
        51.0004         46.0004
  -2062187.20346  -1551857.31046  24722110.6194   24722114.2194   24722110.903
        40.0004         36.0004
 15  5  1  2 27 30.0000000  0  9G25G03G24G14G12G06G02G17G28
   -307458.37547   -187215.20446  25040477.9654   25040487.7234   25040479.089
        47.0004         36.0004
  -3134758.41746  -2415423.04746  24571944.0894   24571950.8054   24571941.801
        41.0004         36.0004
 -20114559.86948 -15633018.63048  21315121.1324   21315125.7434   21315120.443
        53.0004         49.0004
   -204313.19546   -150272.95446  25092876.3924   25092880.3624   25092875.109
        40.0004         36.0004
 -17301632.83048 -13438908.09047  21659477.5594   21659478.2484   21659476.612
        52.0004         47.0004
 -23032521.60749 -17904455.83948  20848091.7714   20848096.7464   20848090.244
        55.0004         50.0004
 -13821601.78048 -10725831.03947  22661830.7404   22661832.3774   22661830.724
        49.0004         44.0004
  -8505711.10048  -6604611.76647  22350127.2814   22350130.3224   22350126.016
        51.0004         46.0004
  -1973748.75446  -1482944.31546  24738939.8664   24738944.8204   24738940.462
        41.0004         37.0004
 15  5  1  2 28  0.0000000  0  9G25G03G24G14G12G06G02G17G28
   -411381.99847   -268194.54546  25020704.6444   25020713.0104   25020703.126
        43.0004         36.0004
  -3131820.18847  -2413133.54146  24572502.6404   24572508.2234   24572502.229
        42.0004         37.0004
 -20091281.93148 -15614879.97648  21319550.7274   21319555.1854   21319549.904
        53.0004         49.0004
   -214247.90046   -158014.24045  25090981.9954   25090989.1274   25090983.245
        40.0004         35.0004
 -17375812.33348 -13496710.28247  21645361.0234   21645362.4764   21645360.447
        52.0004         47.0004
 -23060536.89549 -17926285.92048  20842760.6324   20842765.5354   20842759.261
        55.0004         50.0004
 -13911957.73548 -10796238.18947  22644635.9904   22644637.9774   22644636.145
        49.0004         45.0004
  -8432742.72148  -6547753.30547  22364012.7954   22364014.5484   22364011.645
        51.0004         46.0004
  -1885182.14946  -1413931.45846  24755794.4494   24755799.0014   24755794.566
        41.0004         37.0004
