     2.11           OBSERVATION DATA    G (GPS)             RINEX VERSION / TYPE
teqc  2013Mar15                         20160913 13:06:34UTCPGM / RUN BY / DATE
OSX ker:10.8.0|Core 2 Duo|gcc 4.2 -m64|OSX ker:10.8.0+|=+   COMMENT
Linux 2.4.21-27.ELsmp|Opteron|gcc -static|Linux x86_64|=+   COMMENT
HEADER CHANGED BY EPN CB ON 2011-10-10                      COMMENT
TO BE CONFORM WITH THE INFORMATION IN                       COMMENT
ftp://epncb.oma.be/pub/station/log/brus.log                 COMMENT
                                                            COMMENT
teqc  2010Oct21                         20111010 00:01:17UTCCOMMENT
teqc  2010Oct21                         20111010 00:01:02UTCCOMMENT
teqc  2010Oct21                         20111009 01:01:01UTCCOMMENT
BIT 2 OF LLI FLAGS DATA COLLECTED UNDER A/S CONDITION       COMMENT
 SNR is mapped to RINEX snr flag value [0-9]                COMMENT
  L1 & L2: min(max(int(snr_dBHz/6), 0), 9)                  COMMENT
pseudorange smoothing corrections not applied               COMMENT
COORDINATES IN ETRF2000                                     COMMENT
Forced Modulo Decimation to 30 seconds                      COMMENT
BRUS                                                        MARKER NAME
13101M004                                                   MARKER NUMBER
Carine Bruyninx     ROB                                     OBSERVER / AGENCY
RT919994505         ASHTECH Z-XII3T     1L01-1D04           REC # / TYPE / VERS
CR519994604         ASH701945B_M    NONE                    ANT # / TYPE
  4027894.0130   307045.5980  4919474.9120                  APPROX POSITION XYZ
        3.9702        0.0000        0.0000                  ANTENNA: DELTA H/E/N
     1     1                                                WAVELENGTH FACT L1/2
     7    L1    L2    C1    P2    P1    S1    S2            # / TYPES OF OBSERV
    30.0000                                                 INTERVAL
teqc windowed: start @ 2011 Oct  9 06:00:00.000             COMMENT
teqc windowed: delta = 21600.000 sec                        COMMENT
  2011    10     9     6     0    0.0000000     GPS         TIME OF FIRST OBS
                                                            END OF HEADER
 11 10  9  6  0  0.0000000  0  8G18G25G09G27G22G12G15G17
  -6992684.88949  -5430660.55249  23788405.7474   23788407.0854   23788405.9604
       213.0004        141.0004
  -4021149.82149  -3119067.56449  24080191.9344   24080196.9444   24080190.9034
       215.0004        149.0004
 -25944527.97149 -20202331.65249  19738474.6384   19738476.6934   19738474.3544
       245.0004        208.0004
 -10726219.56649  -8349768.34949  20883814.6824   20883817.5294   20883814.5754
       243.0004        200.0004
  -4961493.74649  -3690779.45849  23761567.0924   23761565.8824   23761566.6294
       214.0004        151.0004
 -17690542.39849 -13210167.78049  21364431.5374   21364433.3394   21364431.5734
       237.0004        190.0004
 -14081817.79449 -10959035.02349  22253906.4784   22253909.8344   22253906.4734
       233.0004        180.0004
  -8668004.28749  -6743238.58649  22531458.4854   22531460.9184   22531458.7044
       232.0004        176.0004
 11 10  9  6  0 30.0000000  0  8G18G25G09G27G22G12G15G17
  -6922809.41749  -5376212.16049  23801702.1774   23801703.6214   23801699.9954
       212.0004        140.0004
  -4125509.78649  -3200387.03349  24060331.6504   24060337.5654   24060332.0264
       214.0004        148.0004
 -25950124.30549 -20206692.45349  19737409.3424   19737411.6794   19737409.4124
       245.0004        208.0004
 -10701582.67549  -8330570.80349  20888503.0104   20888505.9274   20888503.0634
       243.0004        200.0004
  -4942318.69649  -3675837.86049  23765214.7514   23765215.9744   23765213.9584
       215.0004        151.0004
 -17762214.68149 -13266016.31849  21350792.2864   21350794.5514   21350793.2924
       237.0004        191.0004
 -13989316.68449 -10886956.30049  22271509.7944   22271512.6034   22271509.8384
       234.0004        180.0004
  -8633831.38749  -6716610.38249  22537961.7924   22537963.6854   22537961.2894
       231.0004        177.0004
 11 10  9  6  1  0.0000000  0  8G18G25G09G27G22G12G15G17
  -6852626.54449  -5321524.21949  23815059.6134   23815057.5794   23815055.7204
       210.0004        138.0004
  -4229725.38349  -3281594.01049  24040498.2094   24040504.9284   24040498.6674
       210.0004        147.0004
 -25955229.86449 -20210670.83549  19736438.2874   19736440.1784   19736438.1324
       245.0004        208.0004
 -10676653.50949  -8311145.50049  20893246.7854   20893249.5244   20893246.8694
       244.0004        200.0004
  -4922627.21649  -3660493.88549  23768963.9844   23768963.0534   23768963.0994
       217.0004        153.0004
 -17833506.10749 -13321568.08049  21337226.7414   21337228.3214   21337226.8654
       237.0004        191.0004
 -13896498.07049 -10814630.16649  22289173.6044   22289174.6614   22289172.5474
       234.0004        179.0004
  -8599108.61649  -6689553.68449  22544568.9554   22544571.7174   22544569.2624
       232.0004        177.0004
 11 10  9  6  1 30.0000000  0  8G18G25G09G27G22G12G15G17
  -6782137.80749  -5266597.99649  23828470.8864   23828471.6294   23828469.0014
       207.0004        138.0004
  -4333794.12449  -3362686.54049  24020698.0904   24020702.9094   24020696.1314
       213.0004        147.0004
 -25959843.07649 -20214265.55949  19735559.1664   19735562.3944   19735559.6354
       244.0004        208.0004
 -10651430.72049  -8291491.40049  20898046.1524   20898049.7794   20898046.2724
       243.0004        200.0004
  -4902419.31949  -3644747.47849  23772807.9854   23772809.5514   23772807.4954
       214.0004        153.0004
 -17904414.30549 -13376821.21249  21323733.3884   21323735.0894   21323732.9784
       238.0004        191.0004
 -13803362.82349 -10742057.29749  22306894.5454   22306897.6054   22306895.1544
       232.0004        178.0004
  -8563836.01049  -6662068.57549  22551280.9674   22551284.3194   22551282.0734
       233.0004        179.0004
 11 10  9  6  2  0.0000000  0  8G18G25G09G27G22G12G15G17
  -6711346.68849  -5211436.12349  23841939.7674   23841943.5274   23841940.0474
       206.0004        137.0004
  -4437715.11549  -3443663.92449  24000919.6034   24000925.8414   24000919.2854
       212.0004        148.0004
 -25963963.77749 -20217476.51649  19734776.4554   19734778.4094   19734775.8214
       245.0004        208.0004
 -10625914.64649  -8271608.77849  20902901.3914   20902905.0914   20902901.6904
       243.0004        200.0004
  -4881696.61749  -3628599.94849  23776752.9184   23776749.8554   23776751.5454
       217.0004        154.0004
 -17974938.85349 -13431775.41549  21310310.5844   21310314.9084   21310312.2664
       234.0004        191.0004
 -13709913.60149 -10669239.77749  22324678.5584   22324681.0294   22324678.2584
       233.0004        178.0004
  -8528014.97049  -6634156.11249  22558098.1804   22558100.3904   22558098.3474
       233.0004        178.0004
 11 10  9  6  2 30.0000000  0  9G18G25G09G27G22G14G12G15G17
  -6640255.77849  -5156040.62549  23855470.8044   23855473.7324   23855470.0504
       208.0004        136.0004
  -4541486.91249  -3524525.04649  23981174.0444   23981180.4404   23981173.9944
       216.0004        150.0004
 -25967591.31749 -20220303.19349  19734084.9554   19734088.2674   19734085.3044
       244.0004        208.0004
 -10600105.22149  -8251497.57049  20907813.5044   20907816.7244   20907813.4364
       244.0004        201.0004
  -4860460.05149  -3612052.00949  23780794.1494   23780793.5764   23780793.0374
       216.0004        154.0004
   -320028.64449   -226117.64749  24142650.3714   24142653.1034
       206.0004        137.0004
 -18045078.34949 -13486429.57349  21296965.5784   21296967.6574   21296965.9744
       238.0004        191.0004
 -13616152.51849 -10596179.25749  22342521.0064   22342523.5144   22342520.3874
       232.0004        179.0004
  -8491646.79349  -6605817.30449  22565018.0654   22565021.2884   22565018.0014
       230.0004        177.0004
 11 10  9  6  3  0.0000000  0  9G18G25G09G27G22G14G12G15G17
  -6568867.94749  -5100413.81849  23869054.7414   23869055.2584   23869052.9014
       209.0004        136.0004
  -4645108.40249  -3605269.08949  23961454.9434   23961462.0424   23961453.8144
       217.0004        150.0004
 -25970725.42749 -20222745.38549  19733489.5604   19733491.3864   19733489.4074
       245.0004        208.0004
 -10574002.45249  -8231157.78249  20912781.0304   20912783.8284   20912780.9284
       244.0004        201.0004
  -4838711.12049  -3595104.79149  23784932.0594   23784932.1174   23784931.2144
       216.0004        153.0004
   -420572.91649   -304463.85549  24123517.8894   24123520.8104   24123518.9314
       205.0004        136.0004
 -18114832.18749 -13540783.20249  21283692.5044   21283693.6014   21283691.9964
       237.0004        191.0004
 -13522081.90149 -10522877.53049  22360420.0374   22360424.4904   22360420.6784
       229.0004        178.0004
  -8454733.07949  -6577053.42449  22572042.1194   22572045.2254   22572042.2224
       229.0004        176.0004
 11 10  9  6  3 30.0000000  0  9G18G25G09G27G22G14G12G15G17
  -6497186.08649  -5044557.80949  23882693.5664   23882696.2324   23882693.9924
       212.0004        139.0004
  -4748578.24449  -3685894.95449  23941765.1984   23941770.8924   23941764.5664
       216.0004        149.0004
 -25973365.84349 -20224802.86549  19732986.1714   19732989.0394   19732986.3684
       244.0004        208.0004
 -10547606.29449  -8210589.36749  20917804.0854   20917807.2484   20917804.0624
       244.0004        201.0004
  -4816451.16249  -3577759.41549  23789167.5304   23789168.9054   23789167.4064
       214.0004        154.0004
   -520918.58949   -382655.33349  24104424.0364   24104424.6484   24104423.6404
       206.0004        136.0004
 -18184199.25549 -13594835.47349  21270491.2394   21270493.8884   21270491.8074
       236.0004        191.0004
 -13427704.08749 -10449336.44349  22378379.9684   22378383.9484   22378381.2004
       231.0004        177.0004
  -8417274.89549  -6547865.25949  22579170.9364   22579171.8714   22579171.3454
       232.0004        176.0004
 11 10  9  6  4  0.0000000  0  9G18G25G09G27G22G14G12G15G17
  -6425212.63249  -4988474.62849  23896392.5104   23896394.7054   23896392.1954
       209.0004        139.0004
  -4851894.51649  -3766401.17749  23922103.5554   23922110.4694   23922105.1874
       210.0004        147.0004
 -25975511.15949 -20226474.56749  19732578.5824   19732580.8634   19732578.5634
       244.0004        208.0004
 -10520916.11149  -8189791.85149  20922882.8114   20922885.9734   20922883.0134
       243.0004        201.0004
  -4793680.48349  -3560016.05249  23793502.9854   23793500.9694   23793500.1124
       217.0004        154.0004
   -621062.52549   -460689.56149  24085366.9214   24085368.5834   24085368.3014
       205.0004        139.0004
 -18253178.44249 -13648585.49649  21257365.8954   21257367.7664   21257365.7654
       237.0004        191.0004
 -13333020.77149 -10375557.29249  22396398.1734   22396401.5224   22396398.5514
       231.0004        178.0004
  -8379273.00649  -6518253.41349  22586403.0114   22586405.0234   22586401.9904
       231.0004        177.0004
 11 10  9  6  4 30.0000000  0  9G18G25G09G27G22G14G12G15G17
  -6352950.55349  -4932166.55849  23910140.8204   23910143.7244   23910141.6774
       206.0004        140.0004
  -4955056.57949  -3846787.19349  23902474.0464   23902479.4044   23902474.5054
       216.0004        147.0004
 -25977161.71349 -20227760.73049  19732264.2874   19732266.8914   19732264.1454
       245.0004        208.0004
 -10493932.30149  -8168765.53149  20928017.3554   20928020.5744   20928017.5874
       244.0004        200.0004
  -4770401.11049  -3541876.32049  23797931.6184   23797931.5824   23797930.0034
       215.0004        153.0004
   -721002.50949   -538564.86549  24066348.6824   24066350.5454   24066348.7624
       206.0004        143.0004
 -18321768.66949 -13702032.42049  21244314.2254   21244314.9394   21244313.6804
       238.0004        192.0004
 -13238034.61349 -10301542.17349  22414474.4244   22414477.2244   22414474.5174
       232.0004        178.0004
  -8340729.24449  -6488219.34649  22593736.3744   22593739.9234   22593737.9554
       230.0004        177.0004
 11 10  9  6  5  0.0000000  0  9G18G25G09G27G22G14G12G15G17
  -6280402.34549  -4875635.53649  23923949.0654   23923950.1234   23923947.8394
       208.0004        139.0004
  -5058062.85649  -3927051.83149  23882873.8034   23882879.1904   23882872.2034
       217.0004        151.0004
 -25978316.53449 -20228660.61249  19732044.7794   19732047.4474   19732044.6464
       245.0004        209.0004
 -10466654.64949  -8147510.24449  20933207.7414   20933211.1734   20933207.9254
       242.0004        200.0004
  -4746614.08149  -3523340.99249  23802457.2934   23802456.9454   23802456.3174
       214.0004        150.0004
   -820736.11349   -616279.37449  24047368.8044   24047372.5964   24047370.5164
       205.0004        142.0004
 -18389969.03449 -13755175.55649  21231334.8914   21231336.9404   21231334.7624
       236.0004        192.0004
 -13142747.67949 -10227292.66449  22432606.7764   22432609.4444   22432607.6254
       231.0004        178.0004
  -8301644.71849  -6457763.89649  22601174.8974   22601177.0714   22601173.8454
       230.0004        177.0004
 11 10  9  6  5 30.0000000  0  9G18G25G09G27G22G14G12G15G17
  -6207571.56549  -4818884.34149  23937807.4504   23937810.1544   23937807.3804
       207.0004        142.0004
  -5160912.50149  -4007194.42849  23863301.6074   23863307.6794   23863303.1204
       218.0004        153.0004
 -25978975.82249 -20229174.36649  19731919.5684   19731921.9984   19731919.2844
       246.0004        209.0004
 -10439083.70149  -8126026.41849  20938454.7414   20938457.9564   20938454.8224
       243.0004        200.0004
  -4722321.17449  -3504411.46549  23807080.4244   23807079.6174   23807079.2014
       216.0004        151.0004
   -920261.25749   -693831.44049  24028430.3734   24028431.7184   24028430.6394
       203.0004        139.0004
 -18457778.79749 -13808014.33549  21218430.0864   21218433.4274   21218430.7854
       235.0004        191.0004
 -13047162.87249 -10152811.06149  22450794.6364   22450797.8644   22450795.8274
       231.0004        178.0004
  -8262021.74749  -6426888.88949  22608714.3164   22608718.4484   22608715.7024
       230.0004        178.0004
 11 10  9  6  6  0.0000000  0  9G18G25G09G27G22G14G12G15G17
  -6134460.43249  -4761914.65649  23951720.7564   23951723.8114   23951719.6624
       211.0004        138.0004
  -5263603.75249  -4087213.60749  23843760.9374   23843765.7634   23843760.8714
       218.0004        154.0004
 -25979138.71549 -20229301.31949  19731887.8894   19731890.8384   19731887.9994
       244.0004        208.0004
 -10411218.87549  -8104313.60549  20943757.6354   20943760.7134   20943757.4294
       243.0004        200.0004
  -4697523.43449  -3485088.59549  23811798.8174   23811798.1994   23811797.5344
       214.0004        150.0004
  -1019574.97249   -771218.75149  24009532.0344   24009534.6074   24009532.0594
       204.0004        139.0004
 -18525196.98749 -13860547.98949  21205602.4884   21205604.3994   21205602.2984
       237.0004        192.0004
 -12951281.87049 -10078098.64649  22469042.1984   22469043.9754   22469042.3154
       232.0004        178.0004
  -8221860.89149  -6395594.74749  22616357.4094   22616359.1544   22616357.3034
       231.0004        178.0004
 11 10  9  6  6 30.0000000  0  9G18G25G09G27G22G14G12G15G17
  -6061072.32949  -4704729.16049  23965686.5404   23965688.1934   23965686.1264
       210.0004        140.0004
  -5366135.67049  -4167108.59949  23824250.1594   23824255.0694   23824250.4394
       220.0004        154.0004
 -25978805.20449 -20229041.45949  19731951.3384   19731954.4854   19731951.4814
       245.0004        208.0004
 -10383060.28949  -8082371.87849  20949116.0034   20949119.0574   20949116.0454
       243.0004        200.0004
  -4672222.27449  -3465373.42549  23816612.3424   23816612.8654   23816611.1164
       211.0004        148.0004
  -1118674.87049   -848439.48649  23990676.2824   23990677.4564   23990674.8624
       210.0004        139.0004
 -18592222.99749 -13912776.05249  21192847.9204   21192849.4174   21192847.9994
       237.0004        192.0004
 -12855107.16649 -10003157.39249  22487343.9654   22487345.5924   22487343.6934
       232.0004        177.0004
  -8181163.76549  -6363882.74449  22624100.6504   22624104.2804   22624102.2724
       230.0004        177.0004
 11 10  9  6  7  0.0000000  0  9G18G25G09G27G22G14G12G15G17
  -5987409.38149  -4647329.48049  23979703.7214   23979706.9804   23979703.9584
       212.0004        143.0004
  -5468506.44449  -4246878.02249  23804766.5104   23804774.3404   23804766.7704
       214.0004        150.0004
 -25977974.21449 -20228393.95349  19732109.9504   19732112.4994   19732109.7184
       245.0004        208.0004
 -10354607.25449  -8060200.71849  20954529.7284   20954533.6004   20954529.9414
       242.0004        200.0004
  -4646418.80049  -3445266.84549  23821523.1914   23821523.6644   23821521.6134
       213.0004        148.0004
  -1217558.28649   -925491.55849  23971858.0794   23971858.7214   23971856.8314
       209.0004        141.0004
 -18658855.21149 -13964697.26049  21180167.1224   21180169.4414   21180167.6144
       236.0004        192.0004
 -12758640.69749  -9927988.76149  22505699.0764   22505702.1724   22505699.9054
       229.0004        177.0004
  -8139931.26549  -6331753.53449  22631949.4724   22631949.7294   22631948.3554
       232.0004        177.0004
 11 10  9  6  7 30.0000000  0  9G18G25G09G27G22G14G12G15G17
  -5913474.83549  -4589718.16849  23993771.9224   23993775.4574   23993771.5224
       210.0004        142.0004
  -5570715.10749  -4326521.15049  23785316.7054   23785325.7354   23785317.3884
       213.0004        149.0004
 -25976645.71049 -20227358.78449  19732362.9124   19732365.0094   19732363.1154
       246.0004        208.0004
 -10325860.29749  -8037800.52449  20960000.7404   20960003.7774   20960000.7044
       243.0004        200.0004
  -4620114.29849  -3424769.86049  23826529.2354   23826528.4684   23826528.2514
       214.0004        150.0004
  -1316222.86049  -1002373.07749  23953082.0794   23953084.3744   23953082.3384
       211.0004        143.0004
 -18725093.08349 -14016311.18949  21167562.5634   21167564.9174   21167563.0824
       237.0004        193.0004
 -12661885.07449  -9852594.83249  22524110.4834   22524115.0844   22524111.8594
       231.0004        176.0004
  -8098164.80449  -6299208.28249  22639895.6454   22639898.6904   22639895.8764
       230.0004        176.0004
 11 10  9  6  8  0.0000000  0  9G18G25G09G27G22G14G12G15G17
  -5839271.47249  -4531897.41449  24007892.2674   24007895.9894   24007894.0014
       210.0004        139.0004
  -5672760.33449  -4406036.92949  23765899.8864   23765906.0854   23765899.2214
       219.0004        151.0004
 -25974819.00049 -20225935.39749  19732710.5064   19732713.1994   19732710.0584
       244.0004        208.0004
 -10296819.35049  -8015171.24249  20965526.7164   20965530.0484   20965527.2284
       243.0004        199.0004
  -4593310.49049  -3403883.80049  23831630.1164   23831628.3034   23831628.7174
       214.0004        147.0004
  -1414666.04149  -1079082.05949  23934350.3784   23934351.8224   23934349.4084
       209.0004        143.0004
 -18790935.61149 -14067617.05649  21155033.4274   21155036.3004   21155033.6434
       237.0004        193.0004
 -12564842.49849  -9776977.32349  22542579.5354   22542581.5514   22542579.1904
       232.0004        176.0004
  -8055866.64549  -6266248.71649  22647944.6154   22647947.3684   22647944.8324
       230.0004        176.0004
 11 10  9  6  8 30.0000000  0  9G18G25G09G27G22G14G12G15G17
  -5764802.26349  -4473869.50549  24022064.7644   24022066.0514   24022063.0864
       207.0004        137.0004
  -5774640.86049  -4485424.37849  23746513.7614   23746519.2124   23746512.6404
       220.0004        154.0004
 -25972493.99149 -20224123.71749  19733152.3744   19733155.2544   19733152.5554
       245.0004        208.0004
 -10267484.30549  -7992312.78349  20971109.5164   20971112.9444   20971109.3844
       243.0004        200.0004
  -4566008.66849  -3382609.68349  23836823.7864   23836823.8214   23836823.9044
       209.0004        144.0004
  -1512885.41149  -1155616.64549  23915658.7114   23915661.0864   23915658.4294
       206.0004        140.0004
 -18856382.35349 -14118614.52149  21142578.9254   21142581.9434   21142579.7144
       237.0004        193.0004
 -12467515.26649  -9701137.95849  22561099.2624   22561102.4804   22561099.9234
       230.0004        174.0004
  -8013037.99249  -6232875.75349  22656094.7434   22656097.4644   22656095.4424
       229.0004        175.0004
 11 10  9  6  9  0.0000000  0  9G18G25G09G27G22G14G12G15G17
  -5690070.43049  -4415636.92149  24036287.9084   24036289.0094   24036285.6304
       210.0004        138.0004
  -5876355.71349  -4564682.70349  23727157.7174   23727162.8044   23727156.5524
       217.0004        155.0004
 -25969670.64249 -20221923.72349  19733689.3844   19733692.4954   19733689.3014
       243.0004        208.0004
 -10237855.45649  -7969225.40749  20976746.8704   20976750.8394   20976747.2124
       242.0004        199.0004
  -4538210.56149  -3360948.85449  23842115.4014   23842114.1194   23842113.7444
       214.0004        150.0004
  -1610878.65149  -1231974.99349  23897012.4504   23897014.8054   23897010.6494
       209.0004        141.0004
 -18921431.82349 -14169302.42549  21130201.1924   21130203.2464   21130201.7654
       238.0004        194.0004
 -12369905.83749  -9625078.73949  22579673.2904   22579677.0304   22579673.5164
       228.0004        175.0004
  -7969680.55349  -6199090.78449  22664344.9534   22664348.1614   22664345.4884
       228.0004        176.0004
 11 10  9  6  9 30.0000000  0  9G18G25G09G27G22G14G12G15G17
  -5615077.75249  -4357201.11749  24050554.2014   24050557.6544   24050555.4084
       204.0004        138.0004
  -5977903.05749  -4643810.50149  23707832.4274   23707838.7654   23707834.0764
       215.0004        152.0004
 -25966347.97349 -20219334.65149  19734322.3894   19734325.4404   19734322.4684
       246.0004        209.0004
 -10207931.97549  -7945908.44049  20982441.9934   20982445.0034   20982441.8584
       244.0004        199.0004
  -4509917.18349  -3338902.12749  23847499.5824   23847498.9134   23847499.0524
       215.0004        153.0004
  -1708642.82149  -1308154.88649  23878406.8204   23878409.1514   23878408.1794
       209.0004        142.0004
 -18986083.24749 -14219680.15649  21117897.9214   21117900.5324   21117897.9904
       238.0004        193.0004
 -12272016.23849  -9548801.20749  22598301.2624   22598304.6854   22598301.6354
       229.0004        174.0004
  -7925795.21949  -6164894.45149  22672696.3054   22672698.2824   22672697.0794
       227.0004        175.0004
 11 10  9  6 10  0.0000000  0  9G18G25G09G27G22G14G12G15G17
  -5539827.64149  -4298564.72249  24064875.0454   24064877.8924   24064874.5404
       210.0004        139.0004
  -6079281.80649  -4722806.91249  23688540.1664   23688547.8604   23688541.4544
       215.0004        152.0004
 -25962525.60049 -20216356.20049  19735049.8924   19735052.1144   19735049.7814
       244.0004        208.0004
 -10177714.20649  -7922362.14649  20988193.0684   20988195.0494   20988192.4964
       244.0004        200.0004
  -4481130.05749  -3316470.61949  23852976.8294   23852977.3394   23852976.7064
       215.0004        153.0004
  -1806175.31949  -1384154.29149  23859847.7324   23859850.2804   23859847.4164
       211.0004        144.0004
 -19050335.89849 -14269747.15249  21105671.2684   21105673.7094   21105672.0744
       238.0004        194.0004
 -12173848.83149  -9472307.17749  22616980.9914   22616984.7804   22616981.8494
       227.0004        171.0004
  -7881383.72949  -6130288.12649  22681148.1444   22681150.5284   22681148.3094
       229.0004        177.0004
 11 10  9  6 10 30.0000000  0  9G18G25G09G27G22G14G12G15G17
  -5464322.90649  -4239729.92049  24079244.6804   24079245.7504   24079243.5224
       208.0004        139.0004
  -6180490.75649  -4801671.03649  23669281.9614   23669287.1944   23669281.5744
       216.0004        152.0004
 -25958203.32549 -20212988.21349  19735872.1974   19735874.7514   19735872.5334
       245.0004        208.0004
 -10147202.28449  -7898586.63849  20993998.5584   20994001.4794   20993998.7404
       243.0004        199.0004
  -4451851.07849  -3293655.86049  23858550.2574   23858549.3414   23858549.3614
       215.0004        153.0004
  -1903473.76549  -1459971.31049  23841334.3964   23841335.0824   23841332.7954
       213.0004        143.0004
 -19114188.72249 -14319502.59649  21093521.7404   21093522.7774   21093520.9084
       240.0004        194.0004
 -12075405.98349  -9395598.53449  22635716.5014   22635718.5564   22635715.3854
       229.0004        173.0004
  -7836447.38849  -6095272.82449  22689698.3394   22689702.1394   22689698.8864
       229.0004        176.0004
 11 10  9  6 11  0.0000000  0  9G18G25G09G27G22G14G12G15G17
  -5388566.79649  -4180699.21749  24093660.2064   24093662.1744   24093658.0134
       207.0004        136.0004
  -6281528.76849  -4880401.99549  23650054.9124   23650061.5154   23650054.5544
       217.0004        152.0004
 -25953381.22849 -20209230.75149  19736789.9894   19736792.3404   19736789.7044
       244.0004        208.0004
 -10116396.37549  -7874582.06549  20999860.4064   20999863.4704   20999860.8034
       243.0004        199.0004
  -4422081.63649  -3270458.92049  23864213.3514   23864214.8464   23864213.2114
       215.0004        153.0004
  -2000535.83849  -1535604.08149  23822862.7154   23822864.5704   23822862.0054
       210.0004        144.0004
 -19177641.32349 -14368946.18949  21081445.7924   21081448.1554   21081446.5264
       238.0004        194.0004
 -11976690.01849  -9318677.07449  22654501.1694   22654503.9684   22654501.5564
       227.0004        174.0004
  -7790988.34549  -6059850.24049  22698350.0314   22698352.5724   22698350.5224
       230.0004        177.0004
 11 10  9  6 11 30.0000000  0  9G18G25G09G27G22G14G12G15G17
  -5312562.07649  -4121474.78649  24108120.8494   24108123.3424   24108122.9934
       205.0004        135.0004
  -6382394.60549  -4958998.76249  23630863.7164   23630867.2234   23630861.3544
       219.0004        154.0004
 -25948058.92949 -20205083.52349  19737802.2764   19737805.0884   19737802.7534
       245.0004        208.0004
 -10085296.36749  -7850348.33049  21005778.3974   21005782.0354   21005778.4524
       242.0004        199.0004
  -4391823.64049  -3246881.28549  23869971.9664   23869971.6994   23869970.8654
       214.0004        153.0004
  -2097358.93849  -1611050.66149  23804438.4404   23804438.9714   23804436.6664
       213.0004        146.0004
 -19240692.84049 -14418077.24349  21069448.4714   21069449.4404   21069448.4034
       240.0004        194.0004
 -11877703.29449  -9241544.63049  22673334.8134   22673339.3604   22673336.8494
       224.0004        172.0004
  -7745008.07749  -6024021.47749  22707099.3274   22707102.0944   22707098.6084
       228.0004        176.0004
 11 10  9  6 12  0.0000000  0  9G18G25G09G27G22G14G12G15G17
  -5236311.26349  -4062058.61249  24122632.0604   24122634.0374   24122629.8654
       205.0004        134.0004
  -6483086.70849  -5037460.12549  23611700.8644   23611707.0144   23611699.9504
       216.0004        153.0004
 -25942235.94049 -20200546.14949  19738911.1654   19738913.2844   19738910.9094
       244.0004        208.0004
 -10053901.55749  -7825884.87749  21011753.3994   21011756.5104   21011752.9964
       242.0004        199.0004
  -4361077.50249  -3222923.28649  23875822.8704   23875823.4244   23875822.6614
       213.0004        154.0004
  -2193940.37149  -1686308.91349  23786058.8554   23786060.2894   23786058.4884
       212.0004        149.0004
 -19303342.13049 -14466894.87249  21057526.6854   21057527.8574   21057526.3214
       240.0004        195.0004
 -11778447.94149  -9164202.85149  22692224.0794   22692227.6404   22692225.6484
       227.0004        172.0004
  -7698507.79349  -5987787.53749  22715947.5504   22715950.4304   22715948.8444
       228.0004        175.0004
 11 10  9  6 12 30.0000000  0  9G18G25G09G27G22G14G12G15G17
  -5159817.60249  -4002453.19749  24137189.3174   24137189.0084   24137187.4164
       204.0004        133.0004
  -6583603.92949  -5115785.22149  23592573.5444   23592577.4984   23592571.6644
       218.0004        156.0004
 -25935912.12649 -20195618.52549  19740114.0814   19740116.9184   19740114.2964
       244.0004        208.0004
 -10022212.45449  -7801192.09749  21017783.2074   21017786.5724   21017782.9814
       242.0004        199.0004
  -4329845.47849  -3198586.68149  23881763.8604   23881766.6474   23881763.2274
       210.0004        153.0004
  -2290277.61249  -1761376.91149  23767725.9894   23767728.7654   23767726.0174
       215.0004        148.0004
 -19365588.72249 -14515398.71449  21045682.2954   21045682.7284   21045681.9664
       241.0004        195.0004
 -11678926.43749  -9086653.68549  22711165.0264   22711166.5334   22711162.5584
       228.0004        171.0004
  -7651489.43449  -5951149.90049  22724896.6864   22724897.7304   22724896.1684
       229.0004        175.0004
 11 10  9  6 13  0.0000000  0  9G18G25G09G27G22G14G12G15G17
  -5083084.07349  -3942660.88549  24151793.2864   24151794.1334   24151790.7794
       204.0004        134.0004
  -6683945.31849  -5193973.31149  23573478.6394   23573483.8084   23573478.0674
       222.0004        158.0004
 -25929087.34049 -20190300.52449  19741412.3404   19741415.7744   19741412.4644
       243.0004        208.0004
  -9990229.31349  -7776270.20049  21023869.5014   21023872.6324   21023869.3724
       242.0004        199.0004
  -4298129.64549  -3173873.08549  23887800.1974   23887801.9334   23887801.0304
       212.0004        152.0004
  -2386368.39849  -1836252.91149  23749442.1404   23749442.5744   23749439.8934
       213.0004        145.0004
 -19427431.51449 -14563587.89949  21033912.7104   21033914.5414   21033912.9914
       240.0004        195.0004
 -11579141.28449  -9008899.10649  22730152.4464   22730155.3824   22730152.2214
       226.0004        172.0004
  -7603954.20249  -5914109.49649  22733941.1144   22733944.0824   22733941.4244
       228.0004        176.0004
 11 10  9  6 13 30.0000000  0  9G18G25G09G27G22G14G12G15G17
  -5006113.10049  -3882683.51649  24166437.3474   24166439.7234   24166437.5464
       203.0004        131.0004
  -6784109.12349  -5272023.05649  23554418.1054   23554423.0184   23554418.0064
       220.0004        156.0004
 -25921761.03749 -20184591.74049  19742806.9094   19742809.4614   19742806.5434
       244.0004        208.0004
  -9957951.53849  -7751118.71249  21030011.6764   21030014.6504   21030011.8194
       243.0004        199.0004
  -4265930.88549  -3148783.15249  23893927.0794   23893929.2324   23893928.0634
       207.0004        153.0004
  -2482209.60149  -1910934.37849  23731202.7504   23731203.8584   23731201.7154
       209.0004        143.0004
 -19488869.63449 -14611461.77149  21022220.2584   21022223.0194   21022221.5794
       238.0004        195.0004
 -11479094.50649  -8930940.65749  22749187.6224   22749192.8604   22749190.0694
       224.0004        171.0004
  -7555904.20049  -5876667.97449  22743084.4324   22743087.8084   22743085.1144
       227.0004        174.0004
 11 10  9  6 14  0.0000000  0  9G18G25G09G27G22G14G12G15G17
  -4928907.92749  -3822523.70949  24181132.4154   24181130.8064   24181131.1224
       207.0004        135.0004
  -6884094.64349  -5349933.85249  23535390.4444   23535396.5914   23535389.8834
       218.0004        154.0004
 -25913932.98449 -20178491.97349  19744296.1454   19744299.4634   19744296.3444
       244.0004        208.0004
  -9925379.53949  -7725737.95249  21036210.5764   21036213.1074   21036210.0164
       242.0004        199.0004
  -4233251.29449  -3123318.55249  23900144.3674   23900147.6594   23900145.3524
       208.0004        149.0004
  -2577799.21149  -1985419.78349  23713010.4354   23713014.5844   23713011.4674
       211.0004        143.0004
 -19549902.70949 -14659020.00949  21010607.9764   21010609.2204   21010607.9964
       240.0004        195.0004
 -11378789.04349  -8852780.59749  22768277.1744   22768280.3204   22768277.3464
       226.0004        170.0004
  -7507341.12149  -5838826.64849  22752326.3574   22752329.4504   22752326.4384
       228.0004        175.0004
 11 10  9  6 14 30.0000000  0  9G18G25G09G27G22G14G12G15G17
  -4851470.94149  -3762183.23049  24195866.5584   24195869.1624   24195866.7164
       207.0004        138.0004
  -6983899.99149  -5427704.28149  23516399.3754   23516403.1354   23516398.5994
       218.0004        155.0004
 -25905602.34149 -20172000.59349  19745882.1464   19745884.6114   19745882.4864
       245.0004        208.0004
  -9892512.75049  -7700127.50549  21042463.8914   21042468.0644   21042464.1034
       242.0004        199.0004
  -4200092.07749  -3097480.25549  23906456.9364   23906458.5224   23906457.2404
       212.0004        151.0004
  -2673134.08649  -2059706.74249  23694871.3004   23694872.9314   23694871.1614
       215.0004        147.0004
 -19610529.43749 -14706261.63549  20999070.5214   20999072.1774   20999070.3044
       239.0004        195.0004
 -11278226.37449  -8774420.15549  22787415.4704   22787418.1504   22787414.2364
       230.0004        171.0004
  -7458266.25449  -5800586.53849  22761664.8574   22761667.8964   22761664.7204
       228.0004        175.0004
 11 10  9  6 15  0.0000000  0  9G18G25G09G27G22G14G12G15G17
  -4773805.46249  -3701664.71249  24210643.0924   24210645.8904   24210643.5814
       206.0004        137.0004
  -7083524.43449  -5505333.71949  23497440.3034   23497446.4594   23497441.5034
       221.0004        159.0004
 -25896769.57549 -20165117.93549  19747563.0214   19747565.4954   19747563.0004
       244.0004        207.0004
  -9859351.56649  -7674287.65049  21048774.9494   21048777.7004   21048775.0704
       242.0004        199.0004
  -4166455.30149  -3071269.80449  23912854.3144   23912858.7764   23912855.1874
       206.0004        148.0004
  -2768212.20549  -2133793.61649  23676777.4214   23676780.6584   23676778.0564
       211.0004        150.0004
 -19670749.34849 -14753186.23549  20987610.8214   20987612.3634   20987611.3314
       240.0004        196.0004
 -11177409.55249  -8695861.67849  22806599.7924   22806603.1004   22806599.9434
       229.0004        173.0004
  -7408681.49049  -5761949.09549  22771101.0384   22771102.7874   22771100.7554
       229.0004        175.0004
 11 10  9  6 15 30.0000000  0  9G18G25G09G27G22G14G12G15G17
  -4695914.85249  -3640970.76249  24225466.5854   24225469.4604   24225465.6064
       207.0004        137.0004
  -7182966.60749  -5582821.13449  23478519.6944   23478523.4804   23478517.4604
       224.0004        162.0004
 -25887434.16049 -20157843.60949  19749339.6094   19749341.9774   19749339.3184
       244.0004        208.0004
  -9825895.91849  -7648218.33949  21055140.6994   21055144.0074   21055140.7524
       241.0004        198.0004
  -4132342.35949  -3044688.27849  23919348.1314   23919350.9234   23919347.6794
       208.0004        149.0004
  -2863030.80749  -2207678.24949  23658735.6454   23658737.5104   23658734.7724
       211.0004        147.0004
 -19730561.62049 -14799793.20749  20976229.1754   20976231.2494   20976229.3864
       240.0004        196.0004
 -11076340.44049  -8617106.59249  22825832.6324   22825834.3964   22825833.2254
       228.0004        171.0004
  -7358588.26849  -5722915.46649  22780633.0864   22780635.7734   22780632.9564
       229.0004        174.0004
 11 10  9  6 16  0.0000000  0  9G18G25G09G27G22G14G12G15G17
  -4617801.54049  -3580103.33249  24240331.2874   24240334.6254   24240332.4294
       203.0004        136.0004
  -7282225.25949  -5660165.53949  23459628.1384   23459635.1084   23459629.9674
       221.0004        160.0004
 -25877596.11049 -20150177.61149  19751211.1004   19751213.8694   19751211.1184
       244.0004        207.0004
  -9792145.78949  -7621919.55849  21061563.7324   21061566.5274   21061563.3284
       242.0004        199.0004
  -4097755.16749  -3017737.27249  23925929.0084   23925932.0334   23925928.4884
       212.0004        150.0004
  -2957587.47249  -2281358.77149  23640740.6034   23640743.8804   23640740.1654
       208.0004        145.0004
 -19789965.71449 -14846082.09949  20964924.5914   20964926.9584   20964924.8764
       240.0004        196.0004
 -10975021.95349  -8538157.17149  22845109.3404   22845114.3114   22845111.8894
       223.0004        168.0004
  -7307988.92349  -5683487.45649  22790261.3984   22790263.9144   22790261.8634
       228.0004        175.0004
 11 10  9  6 16 30.0000000  0  9G18G25G09G27G22G14G12G15G17
  -4539468.39849  -3519064.56349  24255236.2664   24255241.5364   24255237.1834
       200.0004        135.0004
  -7381299.10749  -5737365.96149  23440775.6034   23440781.9884   23440776.2164
       219.0004        158.0004
 -25867255.13749 -20142119.73649  19753179.2434   19753181.8744   19753178.9384
       244.0004        208.0004
  -9758100.98849  -7595391.16949  21068042.5214   21068045.1084   21068042.4614
       243.0004        199.0004
  -4062695.33149  -2990417.95649  23932604.4984   23932603.6874   23932603.0984
       211.0004        151.0004
  -3051879.41549  -2354833.03449  23622797.0524   23622800.5674   23622796.4994
       207.0004        143.0004
 -19848960.92049 -14892052.39549  20953698.8744   20953700.6664   20953698.6854
       241.0004        197.0004
 -10873455.91549  -8459014.87149  22864437.4004   22864443.0154   22864439.5974
       226.0004        172.0004
  -7256884.81249  -5643666.10049  22799986.3864   22799989.7254   22799986.4124
       228.0004        175.0004
 11 10  9  6 17  0.0000000  0  9G18G25G09G27G22G14G12G15G17
  -4460917.83249  -3457856.36149  24270183.7624   24270186.0864   24270185.0264
       203.0004        134.0004
  -7480186.55749  -5814421.12849  23421958.8854   23421963.5244   23421958.4664
       222.0004        156.0004
 -25856410.64449 -20133669.49949  19755242.6764   19755245.6934   19755242.3764
       244.0004        207.0004
  -9723761.29049  -7568632.99149  21074577.3854   21074580.3384   21074577.4444
       243.0004        199.0004
  -4027164.17349  -2962731.36149  23939362.4784   23939364.5034   23939362.1124
       207.0004        148.0004
  -3145903.57349  -2428098.63749  23604905.7624   23604907.9174   23604905.7804
       209.0004        146.0004
 -19907545.72849 -14937702.90049  20942550.0204   20942552.6184   20942550.1624
       241.0004        197.0004
 -10771644.35149  -8379681.26049  22883815.0504   22883817.7514   22883814.0834
       228.0004        173.0004
  -7205277.12949  -5603452.36549  22809806.6044   22809810.5124   22809807.3864
       228.0004        173.0004
 11 10  9  6 17 30.0000000  0  9G18G25G09G27G22G14G12G15G17
  -4382153.72949  -3396481.79649  24285173.1024   24285174.7734   24285172.1974
       206.0004        132.0004
  -7578887.22749  -5891330.76249  23403177.4674   23403182.6194   23403178.3464
       223.0004        161.0004
 -25845063.44949 -20124827.55649  19757402.5194   19757405.1054   19757402.6414
       245.0004        208.0004
  -9689127.72349  -7541645.82049  21081167.4374   21081170.7834   21081167.4904
       242.0004        199.0004
  -3991164.59549  -2934679.75849  23946212.9894   23946215.1914   23946212.7744
       209.0004        148.0004
  -3239658.67149  -2501154.57749  23587064.9944   23587068.3364   23587065.2494
       210.0004        148.0004
 -19965720.73749 -14983034.08149  20931479.3204   20931481.4984   20931479.7234
       240.0004        197.0004
 -10669590.67149  -8300158.99349  22903235.5944   22903237.0484   22903235.0764
       227.0004        167.0004
  -7153168.66949  -5562848.41749  22819723.4074   22819726.0404   22819723.4054
       229.0004        174.0004
 11 10  9  6 18  0.0000000  0  9G18G25G09G27G22G14G12G15G17
  -4303178.14349  -3334942.42949  24300205.0624   24300204.3834   24300204.3294
       204.0004        130.0004
  -7677399.11349  -5968093.25949  23384431.6174   23384438.0134   23384430.8124
       224.0004        163.0004
 -25833212.44549 -20115593.02849  19759657.2834   19759660.3454   19759657.2414
       244.0004        208.0004
  -9654199.36849  -7514428.94649  21087814.1594   21087817.5614   21087813.5964
       241.0004        198.0004
  -3954697.23449  -2906263.69549  23953153.2734   23953154.2654   23953153.4144
       209.0004        149.0004
  -3333141.10349  -2573998.03449  23569274.7194   23569279.0994   23569275.1414
       210.0004        147.0004
 -20023484.17049 -15028044.56449  20920487.6394   20920489.4614   20920488.2774
       242.0004        197.0004
 -10567296.56149  -8220449.35849  22922699.5564   22922703.6424   22922700.8494
       225.0004        169.0004
  -7100560.47349  -5521855.03249  22829733.1894   22829737.0084   22829733.4394
       228.0004        173.0004
 11 10  9  6 18 30.0000000  0  9G18G25G09G27G22G14G12G15G17
  -4223994.62049  -3273241.01849  24315268.3444   24315272.0374   24315267.9624
       198.0004        130.0004
  -7775721.29149  -6044707.95349  23365720.3594   23365726.5814   23365720.8154
       222.0004        161.0004
 -25820857.70149 -20105965.98049  19762008.3274   19762011.1654   19762008.4314
       244.0004        208.0004
  -9618976.49849  -7486982.58249  21094516.8074   21094520.2394   21094516.6614
       241.0004        199.0004
  -3917764.21749  -2877484.74749  23960181.8544   23960183.1554   23960181.7634
       211.0004        149.0004
  -3426348.41749  -2646627.12849  23551537.2084   23551541.4664   23551537.4404
       207.0004        145.0004
 -20080835.93449 -15072734.25049  20909574.6204   20909575.6934   20909574.0884
       241.0004        197.0004
 -10464764.45749  -8140554.27549  22942210.6024   22942214.8384   22942211.1004
       225.0004        173.0004
  -7047454.52449  -5480473.82349  22839839.3674   22839842.7294   22839840.1394
       230.0004        175.0004
 11 10  9  6 19  0.0000000  0  9G18G25G09G27G22G14G12G15G17
  -4144605.89949  -3211379.70349  24330376.0114   24330379.2724   24330374.4744
       203.0004        131.0004
  -7873852.71049  -6121174.00049  23347046.9524   23347051.0374   23347046.0214
       220.0004        159.0004
 -25807999.33949 -20095946.50349  19764455.2264   19764458.0924   19764454.9884
       244.0004        207.0004
  -9583459.17749  -7459306.77349  21101275.7594   21101278.9964   21101275.5604
       242.0004        199.0004
  -3880367.41349  -2848344.41849  23967299.1344   23967299.3234   23967298.4524
       210.0004        147.0004
  -3519278.34049  -2719040.06849  23533854.7264   23533856.3334   23533853.8244
       211.0004        147.0004
 -20137775.19549 -15117102.52049  20898738.5654   20898741.0344   20898739.2664
       241.0004        198.0004
 -10361996.84449  -8060475.69949  22961766.9094   22961771.6274   22961767.2394
       223.0004        169.0004
  -6993852.73349  -5438706.22849  22850041.0714   22850042.6024   22850040.0584
       231.0004        174.0004
 11 10  9  6 19 30.0000000  0  9G18G25G09G27G22G14G12G15G17
  -4065014.86049  -3149360.76449  24345522.8294   24345524.6254   24345521.9974
       206.0004        133.0004
  -7971791.96549  -6197490.31249  23328408.2214   23328415.4654   23328409.2034
       220.0004        158.0004
 -25794636.96149 -20085534.28449  19766998.1884   19767000.7224   19766997.9414
       244.0004        207.0004
  -9547647.29649  -7431401.44649  21108090.5464   21108093.4134   21108090.3144
       242.0004        198.0004
  -3842508.95849  -2818844.35249  23974502.9194   23974499.8494   23974502.1714
       210.0004        144.0004
  -3611927.98449  -2791234.65249  23516224.2084   23516227.0104   23516225.3784
       211.0004        148.0004
 -20194300.95349 -15161148.57849  20887983.0594   20887984.5344   20887982.8074
       242.0004        198.0004
 -10258996.09949  -7980215.45749  22981368.3524   22981370.3864   22981368.5104
       226.0004        168.0004
  -6939756.95349  -5396553.72649  22860333.1634   22860337.5324   22860333.7904
       228.0004        174.0004
 11 10  9  6 20  0.0000000  0  9G18G25G09G27G22G14G12G15G17
  -3985224.25249  -3087186.30149  24360708.6934   24360706.1084   24360708.0064
       209.0004        133.0004
  -8069537.62249  -6273655.79949  23309809.2854   23309815.0244   23309809.3714
       222.0004        162.0004
 -25780770.31349 -20074729.12249  19769636.6564   19769639.3994   19769636.6244
       243.0004        207.0004
  -9511540.48649  -7403266.29849  21114961.4484   21114964.3204   21114961.0344
       242.0004        199.0004
  -3804190.22349  -2788985.57949  23981792.9764   23981794.6134   23981793.9994
       206.0004        145.0004
  -3704294.67049  -2863208.69049  23498647.1474   23498650.2934   23498646.9044
       209.0004        148.0004
 -20250412.71349 -15204872.02849  20877305.2484   20877306.9174   20877305.1434
       243.0004        198.0004
 -10155764.43249  -7899775.25949  23001014.0394   23001015.7584   23001012.2354
       227.0004        169.0004
  -6885168.57149  -5354017.36149  22870721.5584   22870724.0604   22870722.6584
       229.0004        174.0004
 11 10  9  6 20 30.0000000  0  9G18G25G09G27G22G14G12G15G17
  -3905237.44649  -3024858.96749  24375926.9574   24375930.9504   24375927.2544
       203.0004        135.0004
  -8167088.82849  -6349669.72749  23291245.2034   23291251.1524   23291244.8564
       222.0004        163.0004
 -25766399.70449 -20063531.26149  19772371.2184   19772374.3754   19772371.0504
       244.0004        207.0004
  -9475139.49449  -7374901.91849  21121888.4454   21121891.6744   21121888.0674
       242.0004        199.0004
  -3765413.00249  -2758769.57249  23989171.9614   23989174.2854   23989172.3124
       206.0004        145.0004
  -3796376.34349  -2934960.66849  23481124.0174   23481126.9954   23481124.5194
       211.0004        148.0004
 -20306110.41049 -15248272.84149  20866705.6844   20866708.0344   20866705.6324
       242.0004        198.0004
 -10052304.39249  -7819157.12649  23020701.6234   23020704.4704   23020699.7214
       224.0004        169.0004
  -6830090.21249  -5311099.20049  22881203.7594   22881206.1764   22881203.7694
       229.0004        173.0004
 11 10  9  6 21  0.0000000  0  9G18G25G09G27G22G14G12G15G17
  -3825056.95449  -2962380.70349  24391188.3994   24391188.2694   24391185.6494
       206.0004        133.0004
  -8264444.25049  -6425531.07849  23272718.3364   23272725.4584   23272718.4964
       218.0004        161.0004
 -25751524.58349 -20051940.28449  19775201.4994   19775205.0784   19775201.6464
       243.0004        207.0004
  -9438443.95749  -7346308.01849  21128870.9424   21128874.3614   21128870.8634
       242.0004        199.0004
  -3726179.53949  -2728198.09249  23996639.7724   23996640.3104   23996638.4854
       212.0004        147.0004
  -3888169.89349  -3006488.08449  23463658.3744   23463661.3684   23463657.1484
       214.0004        151.0004
 -20361392.37049 -15291349.70649  20856185.6044   20856188.3584   20856186.1194
       241.0004        199.0004
  -9948618.22449  -7738362.80049  23040428.8134   23040434.6464   23040431.6374
       220.0004        167.0004
  -6774523.02849  -5267800.14449  22891776.6694   22891780.1374   22891778.3354
       226.0004        173.0004
 11 10  9  6 21 30.0000000  0  9G18G25G09G27G22G14G12G15G17
  -3744686.03349  -2899754.03049  24406480.7834   24406480.4124   24406478.5274
       206.0004        131.0004
  -8361602.86149  -6501239.07649  23254228.8654   23254236.7194   23254229.7824
       220.0004        161.0004
 -25736145.35749 -20039956.49349  19778129.1394   19778131.6264   19778129.0504
       245.0004        207.0004
  -9401454.10549  -7317484.77749  21135910.0994   21135913.7064   21135910.0614
       242.0004        199.0004
  -3686491.85849  -2697272.67449  24004191.9244   24004192.5924   24004191.6584
       210.0004        147.0004
  -3979673.25949  -3077789.43349  23446244.7784   23446247.7044   23446244.7244
       216.0004        151.0004
 -20416258.83349 -15334102.80149  20845745.1364   20845747.9294   20845745.2274
       241.0004        199.0004
  -9844708.73849  -7657394.43149  23060201.6374   23060207.1834   23060203.6454
       221.0004        165.0004
  -6718469.65449  -5224122.22949  22902445.0054   22902446.6104   22902444.6074
       228.0004        173.0004
 11 10  9  6 22  0.0000000  0  9G18G25G09G27G22G14G12G15G17
  -3664127.56549  -2836981.28249  24421813.3434   24421813.0574   24421810.8634
       206.0004        132.0004
  -8458563.24049  -6576792.63649  23235778.6384   23235785.3094   23235778.9834
       220.0004        161.0004
 -25720261.60449 -20027579.56949  19781151.9584   19781153.9944   19781151.4304
       244.0004        207.0004
  -9364169.82249  -7288432.13149  21143005.3814   21143008.5474   21143004.8674
       241.0004        198.0004
  -3646351.24549  -2665994.30249  24011829.4424   24011829.5424   24011829.5244
       209.0004        146.0004
  -4070883.53749  -3148862.41449  23428888.4364   23428890.0404   23428888.1864
       216.0004        150.0004
 -20470708.68149 -15376531.26449  20835382.6354   20835386.1454   20835383.4854
       240.0004        198.0004
  -9740578.08149  -7576253.73349  23080018.5584   23080023.5164   23080020.2784
       222.0004        165.0004
  -6661931.46549  -5180066.52149  22913200.9204   22913205.4654   22913202.5484
       226.0004        172.0004
 11 10  9  6 22 30.0000000  0  9G18G25G09G27G22G14G12G15G17
  -3583384.19549  -2774064.42649  24437172.4214   24437174.9174   24437172.8784
       198.0004        129.0004
  -8555324.07149  -6652190.70749  23217365.3884   23217372.4934   23217365.4194
       219.0004        161.0004
 -25703872.97449 -20014809.24149  19784270.2294   19784273.0514   19784270.4704
       244.0004        207.0004
  -9326590.90749  -7259149.90449  21150155.1834   21150159.2664   21150155.4844
       240.0004        197.0004
  -3605759.73449  -2634364.58549  24019554.1684   24019554.7374   24019554.0494
       210.0004        146.0004
  -4161797.99749  -3219704.88049  23411587.1944   23411590.0254   23411586.8144
       214.0004        149.0004
 -20524741.49449 -15418634.76349  20825101.1334   20825103.9214   20825101.6244
       240.0004        198.0004
  -9636228.28649  -7494942.30349  23099877.2374   23099881.3494   23099876.7644
       224.0004        166.0004
  -6604910.09449  -5135634.32649  22924053.8104   22924055.6584   22924053.9884
       228.0004        171.0004
 11 10  9  6 23  0.0000000  0  9G18G25G09G27G22G14G12G15G17
  -3502459.38549  -2711006.15749  24452575.1434   24452576.5834   24452574.6214
       205.0004        130.0004
  -8651884.88149  -6727432.88449  23198989.5534   23198996.9054   23198990.1444
       219.0004        161.0004
 -25686980.23849 -20001646.08449  19787483.2464   19787487.5364   19787483.7334
       243.0004        207.0004
  -9288718.20249  -7229638.72949  21157362.8794   21157366.0604   21157362.8084
       241.0004        197.0004
  -3564720.12849  -2602385.70449  24027365.4364   24027364.6844   24027365.0504
       213.0004        148.0004
  -4252414.55449  -3290315.18849  23394344.7204   23394345.6174   23394344.4364
       216.0004        150.0004
 -20578357.21049 -15460413.25449  20814899.0204   20814901.0284   20814898.9604
       242.0004        198.0004
  -9531662.69749  -7413462.71949  23119776.5804   23119778.5684   23119775.1344
       224.0004        164.0004
  -6547408.23949  -5090827.72449  22934996.6554   22934999.3734   22934995.3824
       228.0004        172.0004
 11 10  9  6 23 30.0000000  0  9G18G25G09G27G22G14G12G15G17
  -3421355.93349  -2647808.72249  24468008.7474   24468011.4194   24468008.4604
       207.0004        134.0004
  -8748244.06649  -6802517.94649  23180654.5484   23180660.8604   23180653.8514
       222.0004        164.0004
 -25669583.05849 -19988089.87349  19790794.7634   19790798.1084   19790795.1124
       245.0004        207.0004
  -9250551.06949  -7199898.13349  21164625.6314   21164629.3094   21164626.0244
       241.0004        197.0004
  -3523233.58249  -2570058.55449  24035260.6764   24035259.6034   24035259.2794
       212.0004        146.0004
  -4342730.47149  -3360691.24349  23377156.8634   23377159.7324   23377157.2464
       214.0004        152.0004
 -20631554.61549 -15501865.77549  20804775.1744   20804777.8904   20804775.6084
       241.0004        198.0004
  -9426882.99149  -7331816.27549  23139712.9524   23139716.9244   23139713.5484
       221.0004        163.0004
  -6489427.39749  -5045647.89049  22946028.7834   22946032.3824   22946028.7744
       227.0004        172.0004
 11 10  9  6 24  0.0000000  0  9G18G25G09G27G22G14G12G15G17
  -3340075.88749  -2584473.68849  24483475.7894   24483477.1524   24483473.3614
       202.0004        132.0004
  -8844399.53249  -6877444.29049  23162357.8144   23162363.8524   23162356.8054
       225.0004        164.0004
 -25651680.35249 -19974139.74049  19794202.9424   19794204.8254   19794202.5684
       247.0004        207.0004
  -9212088.82949  -7169927.58549  21171944.8884   21171948.6734   21171944.9794
       240.0004        197.0004
  -3481301.65649  -2537384.35949  24043236.3374   24043237.7974   24043237.9244
       206.0004        141.0004
  -4432742.37949  -3430830.38749  23360028.7944   23360031.0834   23360028.6834
       213.0004        152.0004
 -20684332.54549 -15542991.44149  20794731.8784   20794734.4894   20794732.0564
       240.0004        198.0004
  -9321890.99449  -7250004.38249  23159691.4244   23159697.0134   23159692.2014
       220.0004        165.0004
  -6430968.83149  -5000095.78849  22957154.1094   22957156.8514   22957153.9204
       227.0004        172.0004
 11 10  9  6 24 30.0000000  0  9G18G25G09G27G22G14G12G15G17
  -3258623.44649  -2521004.24849  24498973.7114   24498976.1334   24498972.4954
       206.0004        132.0004
  -8940351.53349  -6952212.08449  23144097.6524   23144104.5734   23144098.7814
       224.0004        163.0004
 -25633273.78949 -19959797.00049  19797705.1274   19797707.4394   19797704.7974
       246.0004        207.0004
  -9173332.97749  -7139728.26149  21179320.3284   21179323.6274   21179320.3704
       241.0004        198.0004
  -3438927.51849  -2504365.56249  24051303.3284   24051300.5864   24051301.2974
       208.0004        143.0004
  -4522448.87349  -3500731.54749  23342957.5504   23342960.4264   23342957.6754
       215.0004        152.0004
 -20736691.62449 -15583790.73049  20784767.0324   20784771.1764   20784768.6614
       239.0004        198.0004
  -9216690.35549  -7168029.95149  23179709.4404   23179716.0764   23179711.1164
       220.0004        164.0004
  -6372036.01449  -4954174.16349  22968367.4794   22968371.4334   22968367.6464
       226.0004        171.0004
 11 10  9  6 25  0.0000000  0  9G18G25G09G27G22G14G12G15G17
  -3177000.93749  -2457402.36149  24514509.3804   24514509.1234   24514508.8054
       203.0004        130.0004
  -9036098.37049  -7026820.03449  23125878.4874   23125884.4034   23125878.1344
       222.0004        162.0004
 -25614362.57549 -19945061.00549  19801302.1904   19801306.0714   19801302.6594
       244.0004        206.0004
  -9134283.00749  -7109299.74949  21186751.4494   21186754.5904   21186750.9534
       241.0004        197.0004
  -3396112.68449  -2471003.39849  24059447.7204   24059450.4444   24059447.7844
       203.0004        145.0004
  -4611846.74749  -3570392.25849  23325947.1154   23325947.8764   23325945.8614
       216.0004        150.0004
 -20788631.09449 -15624263.05249  20774884.3164   20774886.9904   20774885.2704
       240.0004        198.0004
  -9111283.40749  -7085894.76349  23199769.6764   23199774.5744   23199770.6834
       224.0004        163.0004
  -6312629.95549  -4907883.75849  22979673.3554   22979674.3584   22979673.7044
       228.0004        170.0004
 11 10  9  6 25 30.0000000  0  9G18G25G09G27G22G14G12G15G17
  -3095211.29349  -2393670.24149  24530071.3804   24530075.0764   24530072.8754
       200.0004        131.0004
  -9131638.73049  -7101267.05249  23107697.2044   23107703.6954   23107697.2124
       225.0004        165.0004
 -25594946.51449 -19929931.62049  19804997.2544   19805000.9574   19804997.4264
       244.0004        206.0004
  -9094938.85849  -7078641.99649  21194237.7634   21194241.1894   21194237.7934
       240.0004        197.0004
  -3352858.80649  -2437299.08949  24067678.7924   24067679.3374   24067677.2934
       207.0004        143.0004
  -4700933.48349  -3639810.51349  23308992.5144   23308995.8054   23308993.6594
       213.0004        152.0004
 -20840149.75549 -15664407.46749  20765081.1174   20765083.5354   20765081.4094
       241.0004        198.0004
  -9005671.84049  -7003600.11049  23219869.5654   23219871.9504   23219869.2064
       225.0004        166.0004
  -6252752.74749  -4861226.23849  22991066.8644   22991069.9734   22991066.5724
       227.0004        171.0004
 11 10  9  6 26  0.0000000  0  9G18G25G09G27G22G14G12G15G17
  -3013257.58349  -2329810.24549  24545665.2354   24545666.5624   24545663.2584
       197.0004        130.0004
  -9226971.47649  -7175552.30149  23089557.8684   23089561.9404   23089555.4674
       227.0004        167.0004
 -25575026.00449 -19914409.17749  19808788.9764   19808791.6734   19808788.8564
       246.0004        206.0004
  -9055300.73549  -7047755.16849  21201780.8184   21201784.4824   21201780.4814
       240.0004        196.0004
  -3309168.39349  -2403254.67449  24075993.7544   24075995.6754   24075992.8434
       206.0004        146.0004
  -4789706.60449  -3708984.37049  23292099.5174   23292102.6584   23292100.1844
       213.0004        152.0004
 -20891247.37149 -15704223.79749  20755357.3654   20755359.6114   20755357.5054
       241.0004        197.0004
  -8899858.27349  -6921148.06949  23240005.9024   23240008.0554   23240004.9264
       224.0004        164.0004
  -6192406.60749  -4814203.31149  23002550.3704   23002552.9614   23002550.3364
       226.0004        168.0004
 11 10  9  6 26 30.0000000  0  9G18G25G09G27G22G14G12G15G17
  -2931142.57949  -2265824.53849  24561293.8994   24561297.5644   24561291.6174
       202.0004        131.0004
  -9322095.43149  -7249674.85449  23071455.0184   23071460.6594   23071455.4534
       225.0004        165.0004
 -25554600.82149 -19898493.47649  19812676.2794   19812678.6794   19812676.1854
       246.0004        206.0004
  -9015368.52249  -7016639.19849  21209380.3344   21209383.2944   21209380.2354
       241.0004        196.0004
  -3265043.38249  -2368871.58449  24084389.7514   24084391.0334   24084390.7204
       204.0004        145.0004
  -4878163.24649  -3777911.63149  23275266.3824   23275269.9694   23275267.3634
       212.0004        151.0004
 -20941923.51949 -15743711.71549  20745714.1904   20745716.5934   20745714.4684
       241.0004        198.0004
  -8793845.13049  -6838540.52449  23260178.5564   23260181.0554   23260178.4404
       224.0004        162.0004
  -6131593.39849  -4766816.42449  23014123.2464   23014126.3284   23014123.0274
       225.0004        167.0004
 11 10  9  6 27  0.0000000  0  9G18G25G09G27G22G14G12G15G17
  -2848869.38549  -2201715.61549  24576951.1054   24576950.6294   24576949.0474
       207.0004        131.0004
  -9417009.47149  -7323633.83549  23053391.2754   23053400.0924   23053392.1324
       221.0004        162.0004
 -25533670.91349 -19882184.47249  19816658.5214   19816661.4154   19816658.6624
       245.0004        207.0004
  -8975142.36349  -6985294.16349  21217034.8644   21217038.1914   21217034.6574
       240.0004        196.0004
  -3220485.65249  -2334151.29749  24092868.9374   24092871.6474   24092868.8644
       208.0004        144.0004
  -4966300.96349  -3846590.37449  23258496.2454   23258498.0424   23258496.2654
       215.0004        152.0004
 -20992177.75749 -15782870.86349  20736150.4944   20736153.0924   20736151.5034
       240.0004        199.0004
  -8687634.87149  -6755779.33049  23280388.3934   23280390.9294   23280388.2404
       221.0004        161.0004
  -6070314.75249  -4719066.86849  23025783.2494   23025786.7534   23025783.5794
       223.0004        170.0004
 11 10  9  6 27 30.0000000  0  9G18G25G09G27G22G14G12G15G17
  -2766441.25049  -2137485.96049  24592637.5354   24592636.3074   24592636.5484
       207.0004        133.0004
  -9511712.53149  -7397428.44949  23035370.7144   23035377.4294   23035371.6604
       224.0004        164.0004
 -25512236.46949 -19865482.32849  19820736.5774   19820740.2574   19820736.8104
       244.0004        206.0004
  -8934622.35849  -6953720.17149  21224745.4894   21224748.6364   21224745.1924
       239.0004        195.0004
  -3175497.52449  -2299095.65349  24101431.2164   24101431.8004   24101430.5754
       207.0004        144.0004
  -5054117.36349  -3915018.75449  23241785.5184   23241787.7564   23241785.3704
       216.0004        153.0004
 -21042009.51049 -15821700.82049  20726668.7684   20726670.3364   20726669.3094
       242.0004        199.0004
  -8581230.21449  -6672866.72149  23300634.8224   23300641.6984   23300636.3694
       215.0004        162.0004
  -6008573.28049  -4670956.67849  23037532.4344   23037536.4684   23037533.8284
       226.0004        170.0004
 11 10  9  6 28  0.0000000  0  9G18G25G09G27G22G14G12G15G17
  -2683860.37249  -2073137.22649  24608347.0034   24608352.6874   24608347.8734
       198.0004        129.0004
  -9606203.05449  -7471057.43749  23017391.4544   23017396.9414   23017391.3684
       225.0004        166.0004
 -25490297.18149 -19848386.80149  19824912.9794   19824915.1034   19824912.6134
       246.0004        206.0004
  -8893808.20949  -6921916.96449  21232511.7024   21232515.2384   21232511.7814
       238.0004        196.0004
  -3130080.50649  -2263705.80949  24110071.4884   24110073.0474   24110071.6914
       203.0004        140.0004
  -5141609.07549  -3983194.12649  23225134.3274   23225139.0834   23225134.7594
       213.0004        152.0004
 -21091417.86749 -15860200.83849  20717267.4524   20717268.2744   20717267.1664
       243.0004        199.0004
  -8474633.09249  -6589804.14449  23320920.9104   23320925.8894   23320921.8004
       220.0004        163.0004
  -5946370.49749  -4622487.02449  23049370.0384   23049372.4024   23049370.3424
       225.0004        170.0004
 11 10  9  6 28 30.0000000  0  9G18G25G09G27G22G14G12G15G17
  -2601130.27449  -2008672.21349  24624095.0674   24624092.9954   24624093.9684
       202.0004        130.0004
  -9700480.47049  -7544520.34749  22999450.1414   22999456.0404   22999450.8824
       225.0004        167.0004
 -25467853.94649 -19830898.59049  19829182.7334   19829186.1144   19829183.0114
       244.0004        206.0004
  -8852700.38249  -6889884.92149  21240333.9774   21240338.2424   21240334.1594
       238.0004        195.0004
  -3084237.60149  -2227984.08349  24118796.5104   24118798.5644   24118795.0164
       203.0004        142.0004
  -5228774.39449  -4051115.15549  23208548.7774   23208550.5624   23208547.9274
       215.0004        152.0004
 -21140402.98749 -15898371.06849  20707945.1614   20707946.8824   20707945.2914
       242.0004        199.0004
  -8367846.46049  -6506593.85549  23341244.3384   23341244.8764   23341243.7594
       224.0004        162.0004
  -5883709.07949  -4573659.99349  23061293.6044   23061296.9574   23061294.4724
       226.0004        169.0004
 11 10  9  6 29  0.0000000  0  9G18G25G09G27G22G14G12G15G17
  -2518253.35249  -1944092.85649  24639864.5164   24639865.4964   24639864.2424
       202.0004        131.0004
  -9794543.27449  -7617816.01949  22981550.6334   22981556.0164   22981551.2284
       225.0004        167.0004
 -25444906.34649 -19813017.37149  19833550.3164   19833553.0344   19833549.8974
       245.0004        206.0004
  -8811298.79749  -6857623.96549  21248212.2734   21248216.3284   21248212.3634
       239.0004        195.0004
  -3037970.05849  -2191931.48449  24127599.0584   24127601.1944   24127598.5574
       206.0004        143.0004
  -5315610.40149  -4118779.58949  23192026.0104   23192027.7684   23192025.1934
       217.0004        154.0004
 -21188963.95149 -15936210.78749  20698704.8074   20698706.1774   20698705.0234
       244.0004        199.0004
  -8260872.26549  -6423237.40949  23361602.1634   23361603.4244   23361599.3494
       223.0004        161.0004
  -5820590.69149  -4524476.86849  23073305.6674   23073308.4674   23073305.1684
       226.0004        168.0004
 11 10  9  6 29 30.0000000  0  9G18G25G09G27G22G14G12G15G17
  -2435233.11049  -1879401.81449  24655659.6684   24655664.7834   24655661.7314
       197.0004        128.0004
  -9888390.61949  -7690943.83049  22963693.5914   22963697.1604   22963693.4434
       226.0004        166.0004
 -25421454.96649 -19794743.58749  19838012.9084   19838015.7924   19838012.8804
       245.0004        206.0004
  -8769603.85449  -6825134.43549  21256147.9324   21256150.8334   21256147.3854
       241.0004        196.0004
  -2991280.73549  -2155550.22049  24136485.2514   24136487.1994   24136485.3304
       206.0004        145.0004
  -5402115.03349  -4186185.79749  23175562.7184   23175564.9754   23175562.7244
       214.0004        152.0004
 -21237100.73149 -15973719.97349  20689544.1174   20689545.9714   20689544.4754
       243.0004        199.0004
  -8153713.33049  -6339737.06949  23381993.9754   23381995.4484   23381992.5964
       222.0004        162.0004
  -5757017.67949  -4474939.48649  23085401.4564   23085405.1214   23085402.1134
       225.0004        168.0004
 11 10  9  6 30  0.0000000  0  9G18G25G09G27G22G14G12G15G17
  -2352071.93149  -1814600.95649  24671487.0934   24671485.6614   24671482.7394
       198.0004        127.0004
  -9982020.62149  -7763902.29349  22945875.8054   22945880.7794   22945874.7094
       225.0004        167.0004
 -25397499.07749 -19776076.67949  19842570.9854   19842574.6754   19842571.0414
       244.0004        206.0004
  -8727614.72249  -6792415.67049  21264137.9054   21264141.5264   21264138.1654
       241.0004        197.0004
  -2944170.81249  -2118841.24849  24145450.5214   24145452.7124   24145450.8384
       207.0004        147.0004
  -5488284.71449  -4253331.01449  23159165.1074   23159169.2354   23159164.2674
       216.0004        152.0004
 -21284811.96549 -16010897.56349  20680464.4364   20680466.6884   20680465.0434
       239.0004        199.0004
  -8046371.20549  -6256093.96749  23402418.5224   23402420.5254   23402418.7074
       221.0004        159.0004
  -5692991.37649  -4425048.88749  23097586.1824   23097589.7834   23097586.1284
       226.0004        167.0004
 11 10  9  6 30 30.0000000  0  9G18G25G09G27G22G14G12G15G17
  -2268773.60449  -1749693.21149  24687339.5234   24687341.9074   24687335.4184
       202.0004        128.0004
 -10075433.20849  -7836691.30649  22928096.6984   22928105.6784   22928098.5614
       223.0004        168.0004
 -25373039.90149 -19757017.60449  19847225.0084   19847228.5994   19847225.4134
       244.0004        206.0004
  -8685332.62349  -6759468.58949  21272183.8854   21272187.5494   21272183.6164
       240.0004        196.0004
  -2896643.71149  -2081807.18649  24154493.9874   24154497.4414   24154492.8674
       203.0004        145.0004
  -5574117.68949  -4320213.86949  23142833.8884   23142834.9954   23142831.7304
       218.0004        153.0004
 -21332098.23249 -16047744.01049  20671467.2734   20671468.6244   20671467.4284
       241.0004        200.0004
  -7938849.54449  -6172310.91249  23422877.7744   23422881.7774   23422876.9484
       218.0004        158.0004
  -5628514.96549  -4374807.59149  23109855.3834   23109858.7374   23109855.8754
       223.0004        167.0004
 11 10  9  6 31  0.0000000  0  9G18G25G09G27G22G14G12G15G17
  -2185340.59349  -1684680.55149  24703213.4374   24703217.8264   24703214.9164
       199.0004        130.0004
 -10168626.71949  -7909309.61249  22910365.6304   22910371.0414   22910365.2874
       225.0004        169.0004
 -25348076.79249 -19737565.85149  19851975.7344   19851978.8664   19851975.5844
       244.0004        205.0004
  -8642757.20049  -6726292.95149  21280285.0134   21280289.4554   21280285.1284
       240.0004        196.0004
  -2848700.99249  -2044449.31449  24163617.2574   24163619.4084   24163615.7144
       200.0004        142.0004
  -5659611.39549  -4386832.36949  23126562.9544   23126566.2264   23126563.8264
       215.0004        154.0004
 -21378958.95249 -16084258.86249  20662549.6714   20662551.4134   20662549.8264
       240.0004        200.0004
  -7831150.07449  -6088389.34849  23443371.9604   23443377.8384   23443373.3414
       219.0004        162.0004
  -5563590.01549  -4324216.76849  23122211.1844   23122213.4694   23122211.7354
       228.0004        168.0004
 11 10  9  6 31 30.0000000  0  9G18G25G09G27G22G14G12G15G17
  -2101775.47649  -1619564.92349  24719114.6614   24719117.4344   24719116.1614
       200.0004        130.0004
 -10261599.74949  -7981756.13049  22892674.3144   22892679.3954   22892674.1714
       227.0004        170.0004
 -25322609.79149 -19717721.46849  19856822.5664   19856825.2904   19856822.3224
       244.0004        205.0004
  -8599888.34949  -6692888.68749  21288442.6604   21288446.7614   21288442.7854
       241.0004        196.0004
  -2800344.65649  -2006769.07349  24172820.2584   24172821.6264   24172818.9164
       207.0004        142.0004
  -5744762.59349  -4453183.96149  23110357.7634   23110362.4634   23110358.2254
       212.0004        154.0004
 -21425393.28749 -16120441.46449  20653713.1294   20653715.2414   20653713.0274
       240.0004        200.0004
  -7723275.35349  -6004331.21949  23463900.4434   23463906.4704   23463901.0154
       217.0004        160.0004
  -5498218.34049  -4273277.83049  23134651.4104   23134653.8374   23134650.6514
       227.0004        167.0004
 11 10  9  6 32  0.0000000  0  9G18G25G09G27G22G14G12G15G17
  -2018081.60849  -1554348.93449  24735043.9514   24735046.4654   24735042.8024
       205.0004        130.0004
 -10354351.35849  -8054030.09849  22875021.3574   22875027.5264   22875022.3924
       223.0004        167.0004
 -25296639.14249 -19697484.62549  19861764.5964   19861767.4324   19861764.3694
       244.0004        205.0004
  -8556726.12549  -6659255.81549  21296656.5924   21296660.2324   21296656.2434
       241.0004        195.0004
  -2751577.13449  -1968768.41049  24182099.6204   24182100.8634   24182099.8534
       209.0004        145.0004
  -5829568.78049  -4519266.70149  23094221.1674   23094222.9124   23094221.1974
       216.0004        153.0004
 -21471400.80749 -16156291.49049  20644958.0004   20644960.2674   20644958.0764
       240.0004        200.0004
  -7615227.61449  -5920138.30349  23484461.3404   23484465.3384   23484461.2824
       220.0004        158.0004
  -5432402.45549  -4221992.77049  23147173.2704   23147178.8394   23147173.7494
       222.0004        166.0004
 11 10  9  6 32 30.0000000  0  9G18G25G09G27G22G14G12G15G17
  -1934262.02149  -1489034.99349  24750994.9984   24750993.1864   24750990.8704
       206.0004        129.0004
 -10446880.60849  -8126130.79749  22857414.4894   22857421.2684   22857414.8754
       225.0004        169.0004
 -25270165.30449 -19676855.68349  19866801.6994   19866805.2844   19866802.0344
       244.0004        206.0004
  -8513271.16849  -6625394.85049  21304926.5874   21304929.7494   21304926.5524
       242.0004        196.0004
  -2702400.79749  -1930449.21049  24191458.5114   24191460.9034   24191456.5854
       207.0004        143.0004
  -5914027.87749  -4585078.99749  23078150.1024   23078151.2584   23078150.0374
       217.0004        156.0004
 -21516981.51149 -16191808.93349  20636284.0484   20636286.8394   20636284.6394
       239.0004        200.0004
  -7507009.75449  -5835812.76849  23505056.6604   23505059.0154   23505055.9574
       222.0004        159.0004
  -5366144.47049  -4170363.22049  23159782.7174   23159787.1994   23159782.9124
       223.0004        167.0004
 11 10  9  6 33  0.0000000  0  9G18G25G09G27G22G14G12G15G17
  -1850319.02749  -1423624.89749  24766968.0694   24766971.1344   24766967.4724
       202.0004        131.0004
 -10539185.91549  -8198057.01949  22839850.0864   22839856.7204   22839849.5914
       227.0004        171.0004
 -25243188.02249 -19655834.45349  19871935.5214   19871939.0584   19871935.5114
       244.0004        205.0004
  -8469522.98449  -6591305.39549  21313251.1624   21313254.7314   21313251.5654
       241.0004        196.0004
  -2652817.47249  -1891812.92349  24200892.6594   24200895.7954   24200892.6754
       203.0004        143.0004
  -5998136.84049  -4650618.46949  23062144.9584   23062145.7174   23062143.7344
       217.0004        156.0004
 -21562134.35349 -16226992.97349  20627692.0824   20627694.4044   20627692.4884
       239.0004        200.0004
  -7398623.52849  -5751356.07049  23525680.5254   23525685.6334   23525681.1524
       218.0004        159.0004
  -5299446.40949  -4118390.73649  23172476.3664   23172479.2164   23172476.3794
       226.0004        169.0004
 11 10  9  6 33 30.0000000  0  9G18G25G09G27G22G14G12G15G17
  -1766256.53649  -1358121.71349  24782963.7474   24782966.3224   24782963.0184
       202.0004        128.0004
 -10631267.08049  -8269808.56649  22822328.5574   22822333.3374   22822326.9234
       228.0004        170.0004
 -25215708.43049 -19634421.81149  19877164.7964   19877167.4214   19877164.8154
       244.0004        205.0004
  -8425482.45049  -6556988.13149  21321631.3714   21321635.4424   21321631.4124
       241.0004        195.0004
  -2602829.82549  -1852861.54549  24210404.9594   24210407.3204   24210404.8594
       201.0004        142.0004
  -6081893.57149  -4715883.46749  23046204.6784   23046208.4084   23046204.9054
       215.0004        156.0004
 -21606859.85749 -16261844.01449  20619180.4354   20619183.5734   20619180.6924
       239.0004        200.0004
  -7290072.33449  -5666770.84549  23546337.5264   23546342.4534   23546337.2784
       220.0004        161.0004
  -5232310.93249  -4066077.40949  23185249.7934   23185255.1034   23185250.0804
       223.0004        168.0004
 11 10  9  6 34  0.0000000  0  9G18G25G09G27G22G14G12G15G17
  -1682076.49949  -1292526.92949  24798981.7724   24798981.3814   24798983.4634
       202.0004        127.0004
 -10723121.67149  -8341383.55349  22804847.0344   22804854.5734   22804846.6994
       224.0004        169.0004
 -25187725.37549 -19612616.85549  19882489.9814   19882493.2164   19882490.0044
       245.0004        206.0004
  -8381148.41849  -6522442.16249  21330067.9334   21330072.3144   21330067.9594
       241.0004        197.0004
  -2552439.21549  -1813596.22549  24219993.8944   24219997.3674   24219994.2914
       203.0004        141.0004
  -6165294.79549  -4780871.42549  23030335.2414   23030338.1504   23030334.7994
       217.0004        156.0004
 -21651156.59349 -16296360.95549  20610750.7554   20610754.4544   20610751.7374
       238.0004        201.0004
  -7181357.25949  -5582057.89949  23567024.6844   23567028.2404   23567025.5284
       219.0004        157.0004
  -5164739.39749  -4013424.32649  23198110.1744   23198112.3644   23198110.9384
       226.0004        169.0004
 11 10  9  6 34 30.0000000  0  9G18G25G09G27G22G14G12G15G17
  -1597782.79549  -1226843.54049  24815026.2424   24815021.1474   24815025.5994
       205.0004        124.0004
 -10814750.02949  -8412782.26049  22787411.7414   22787417.4574   22787410.7494
       227.0004        170.0004
 -25159240.50949 -19590420.87149  19887910.5474   19887913.8494   19887910.7054
       244.0004        206.0004
  -8336522.44349  -6487668.71549  21338560.0574   21338564.4194   21338560.2584
       241.0004        196.0004
  -2501649.22049  -1774019.66649  24229659.8294   24229662.2794   24229660.7644
       206.0004        143.0004
  -6248339.23649  -4845581.40749  23014533.4164   23014534.5054   23014532.4714
       218.0004        156.0004
 -21695025.40949 -16330544.45449  20602403.6024   20602406.4704   20602404.0194
       239.0004        201.0004
  -7072482.42849  -5497220.44449  23587741.1484   23587748.0424   23587742.1294
       216.0004        158.0004
  -5096734.86649  -3960433.81149  23211051.0954   23211053.5154   23211050.4224
       223.0004        166.0004
 11 10  9  6 35  0.0000000  0  9G18G25G09G27G22G14G12G15G17
  -1513377.07549  -1161072.84649  24831086.3004   24831083.8324   24831083.7624
       202.0004        122.0004
 -10906149.70849  -8484002.80249  22770018.5064   22770025.9604   22770018.7694
       225.0004        170.0004
 -25130252.91449 -19567833.14849  19893426.5094   19893430.1154   19893426.5064
       244.0004        205.0004
  -8291603.31349  -6452666.83749  21347109.0504   21347111.7924   21347108.5734
       242.0004        196.0004
  -2450461.26049  -1734132.90649  24239400.4184   24239402.4884   24239400.9454
       210.0004        144.0004
  -6331022.68949  -4910010.09849  22998798.0014   22998800.5024   22998797.7924
       218.0004        157.0004
 -21738464.59049 -16364393.17249  20594137.6674   20594140.5124   20594138.0994
       240.0004        201.0004
  -6963448.68749  -5412259.24749  23608489.2964   23608496.5294   23608491.3894
       217.0004        160.0004
  -5028298.60349  -3907106.91149  23224071.6514   23224076.4264   23224071.9834
       221.0004        164.0004
 11 10  9  6 35 30.0000000  0  9G18G25G09G27G22G14G12G15G17
  -1428863.80349  -1095218.34749  24847167.3704                   24847165.2194
       196.0004        119.0004
 -10997320.99549  -8555045.34249  22752669.2834   22752676.2894   22752669.0584
       226.0004        170.0004
 -25100764.07749 -19544854.84849  19899037.9014   19899041.2894   19899038.1204
       244.0004        205.0004
  -8246392.50949  -6417437.66149  21355711.7104   21355715.4044   21355712.2164
       241.0004        196.0004
  -2398878.39949  -1693938.49649  24249216.9614   24249218.4504   24249215.9424
       206.0004        141.0004
  -6413344.06249  -4974156.62049  22983132.3984   22983134.7184   22983132.2884
       218.0004        156.0004
 -21781475.25149 -16397907.97049  20585953.3124   20585955.5154   20585953.6484
       240.0004        202.0004
  -6854259.76249  -5327177.03649  23629268.7204   23629272.9094   23629270.7994
       219.0004        158.0004
  -4959433.96449  -3853446.21149  23237177.8284   23237180.7054   23237178.6574
       224.0004        167.0004
 11 10  9  6 36  0.0000000  0  9G18G25G09G27G22G14G12G15G17
  -1344244.54249  -1029281.28149  24863270.5574   24863273.5844   24863272.3194
       197.0004        123.0004
 -11088261.34649  -8625907.94149  22735364.4534   22735370.2424   22735364.9184
       225.0004        171.0004
 -25070772.86549 -19521485.10649  19904745.2394   19904748.0614   19904745.2544
       245.0004        205.0004
  -8200888.52049  -6381980.05449  21364370.7084   21364374.1554   21364370.5924
       241.0004        195.0004
  -2346901.71849  -1653437.21949  24259105.8464   24259109.3784   24259105.6864
       200.0004        142.0004
  -6495299.58249  -5038018.07349  22967535.7064   22967540.7094   22967537.1884
       217.0004        157.0004
 -21824055.78849 -16431087.61749  20577850.0894   20577852.5734   20577850.6704
       240.0004        201.0004
  -6744916.88049  -5241974.89849  23650078.1864   23650080.8624   23650077.5714
       218.0004        155.0004
  -4890141.61349  -3799452.21049  23250364.3574   23250367.0094   23250363.9494
       224.0004        167.0004
 11 10  9  6 36 30.0000000  0  9G18G25G09G27G22G14G12G15G17
  -1259522.93449   -963264.49649  24879394.2154   24879395.6274   24879393.2414
       197.0004        124.0004
 -11178970.40149  -8696590.31349  22718104.0214   22718109.5804   22718102.6944
       228.0004        171.0004
 -25040280.25149 -19497724.66449  19910548.7544   19910550.9544   19910548.2994
       245.0004        206.0004
  -8155092.26349  -6346294.68349  21373084.9504   21373088.5824   21373085.0214
       241.0004        195.0004
  -2294534.40249  -1612631.56449  24269073.9394   24269075.4794   24269071.2104
       202.0004        141.0004
  -6576887.51949  -5101593.10149  22952010.4414   22952013.8214   22952011.3074
       216.0004        157.0004
 -21866206.38749 -16463932.23749  20569829.5254   20569831.4794   20569829.9034
       241.0004        202.0004
  -6635423.30149  -5156655.34849  23670915.0564   23670917.9094   23670914.8074
       221.0004        159.0004
  -4820424.77249  -3745127.46149  23263630.4224   23263633.6494   23263630.0764
       223.0004        165.0004
 11 10  9  6 37  0.0000000  0  9G18G25G09G27G22G14G12G15G17
  -1174702.16649   -897170.42049  24895532.4064   24895533.6864   24895532.9984
       201.0004        128.0004
 -11269447.57749  -8767091.98349  22700885.3424   22700892.3134   22700884.6914
       227.0004        171.0004
 -25009286.95549 -19473574.06449  19916446.0474   19916449.3534   19916446.1404
       244.0004        206.0004
  -8109004.61349  -6310382.25749  21381854.9744   21381859.1664   21381855.6534
       241.0004        195.0004
  -2241779.24849  -1571523.76549  24279112.5224   24279114.8494   24279112.6394
       205.0004        146.0004
  -6658105.36849  -5164879.74349  22936556.3654   22936559.1284   22936555.3664
       219.0004        157.0004
 -21907927.56749 -16496442.24849  20561890.4774   20561892.0214   20561890.6014
       240.0004        202.0004
  -6525782.20649  -5071220.83549  23691777.8644   23691781.6054   23691778.0334
       221.0004        156.0004
  -4750286.17849  -3690474.05549  23276977.2294   23276980.0714   23276976.9724
       222.0004        164.0004
 11 10  9  6 37 30.0000000  0  9G18G25G09G27G22G14G12G15G17
  -1089784.41749   -831000.80149  24911695.1474   24911693.2284   24911691.4474
       202.0004        127.0004
 -11359690.90449  -8837411.46849  22683712.5804   22683719.0554   22683712.9894
       227.0004        172.0004
 -24977792.28549 -19449032.78049  19922438.9944   19922442.3564   19922439.0814
       245.0004        206.0004
  -8062624.86049  -6274242.22349  21390682.2234   21390684.8654   21390682.0784
       241.0004        196.0004
  -2188637.59849  -1530114.75249  24289227.3574   24289227.1574   24289225.0424
       212.0004        148.0004
  -6738950.04449  -5227875.59249  22921173.5054   22921175.0584   22921172.7744
       220.0004        159.0004
 -21949218.05349 -16528616.66049  20554032.6334   20554034.7754   20554033.4604
       240.0004        202.0004
  -6415994.64149  -4985672.19449  23712666.1334   23712672.0674   23712668.1014
       213.0004        151.0004
  -4679727.33049  -3635493.16349  23290404.7944   23290407.8574   23290405.4054
       224.0004        164.0004
 11 10  9  6 38  0.0000000  0  9G18G25G09G27G22G14G12G15G17
  -1004772.78049   -764758.00249  24927870.2344   24927869.4734   24927871.6044
       200.0004        126.0004
 -11449699.59449  -8907548.10049  22666584.9504   22666590.9294   22666584.3504
       227.0004        172.0004
 -24945797.06049 -19424101.45149  19928527.4584   19928530.5914   19928527.5444
       245.0004        206.0004
  -8015953.40149  -6237874.88049  21399562.8774   21399566.6694   21399562.6834
       240.0004        194.0004
  -2135112.23349  -1488406.65649  24299411.4114   24299412.6164   24299410.9964
       210.0004        146.0004
  -6819419.23849  -5290578.87249  22905858.8544   22905861.9764   22905858.4064
       220.0004        159.0004
 -21990077.61149 -16560455.28349  20546257.2764   20546259.7534   20546257.9944
       241.0004        202.0004
  -6306063.42649  -4900011.61549  23733585.6144   23733592.3414   23733588.1164
       215.0004        154.0004
  -4608750.36549  -3580186.48449  23303910.5624   23303914.7864   23303910.9834
       222.0004        168.0004
 11 10  9  6 38 30.0000000  0  9G18G25G09G27G22G14G12G15G17
   -919670.53149   -698444.59049  24944067.1204   24944067.3384   24944063.4684
       204.0004        128.0004
 -11539472.85149  -8977501.27649  22649502.1074   22649507.5834   22649502.5014
       228.0004        172.0004
 -24913301.97349 -19398780.62849  19934711.6354   19934714.2554   19934711.3884
       245.0004        206.0004
  -7968990.59749  -6201280.50549  21408499.5094   21408503.1364   21408499.8664
       241.0004        194.0004
  -2081205.75649  -1446401.66349  24309669.6664   24309671.1854   24309668.8844
       207.0004        144.0004
  -6899510.62649  -5352987.75549  22890618.1564   22890620.6284   22890618.2384
       220.0004        158.0004
 -22030506.24149 -16591958.11149  20538564.8294   20538566.2674   20538564.7504
       241.0004        202.0004
  -6195991.31749  -4814241.27649  23754533.9464   23754539.2274   23754535.3094
       217.0004        155.0004
  -4537358.08149  -3524556.20549  23317496.2834   23317500.8494   23317497.7184
       222.0004        168.0004
 11 10  9  6 39  0.0000000  0  9G18G25G09G27G22G14G12G15G17
   -834480.44849   -632062.74949  24960275.2114   24960275.0524   24960273.3654
       197.0004        125.0004
 -11629009.14549  -9047269.79949  22632462.7724   22632468.8264   22632463.5744
       227.0004        171.0004
 -24880306.80249 -19373070.12649  19940990.2734   19940993.1144   19940990.2704
       245.0004        206.0004
  -7921736.23849  -6164458.96049  21417491.1774   21417495.5324   21417491.6364
       239.0004        193.0004
  -2026920.15849  -1404101.24049  24319997.3634   24319999.6214   24319996.1614
       204.0004        136.0004
  -6979221.01749  -5415099.75449  22875450.8914   22875451.6044   22875449.8954
       221.0004        159.0004
 -22070503.10049 -16623124.49449  20530953.0394   20530955.3004   20530953.2854
       241.0004        202.0004
  -6085780.28949  -4728362.69049  23775505.5244   23775512.3994   23775507.5044
       216.0004        152.0004
  -4465551.92649  -3468603.40949  23331160.8804   23331162.9704   23331162.0164
       223.0004        166.0004
 11 10  9  6 39 30.0000000  0  9G18G25G09G27G22G14G12G15G17
   -749205.02149   -565614.39249  24976500.1404   24976504.2494   24976499.3954
       196.0004        123.0004
 -11718307.23549  -9116852.69649  22615470.2924   22615476.4294   22615469.8364
       228.0004        170.0004
 -24846811.66349 -19346970.03649  19947363.9474   19947366.9244   19947363.8874
       245.0004        206.0004
  -7874190.19549  -6127410.13849  21426539.6014   21426543.1944   21426539.1184
       239.0004        194.0004
  -1972257.45349  -1361506.92549  24330399.4724   24330401.5114   24330398.4944
       204.0004        138.0004
  -7058548.15749  -5476913.11149  22860355.3484   22860357.0994   22860355.6164
       221.0004        160.0004
 -22110068.12249 -16653954.38549  20523423.5354   20523426.3134   20523424.2944
       241.0004        203.0004
  -5975432.87749  -4642377.79349  23796503.6434   23796508.8274   23796504.9594
       215.0004        153.0004
  -4393334.25249  -3412329.92949  23344903.4524   23344905.3944   23344903.2314
       222.0004        163.0004
 11 10  9  6 40  0.0000000  0  9G18G25G09G27G22G14G12G15G17
   -663847.94949   -499102.41949  24992745.8624   24992744.6064   24992739.8694
       198.0004        121.0004
 -11807367.13849  -9186250.02749  22598522.9914   22598528.9744   22598522.2914
       229.0004        171.0004
 -24812817.86249 -19320481.37749  19953832.5734   19953836.0674   19953832.6134
       244.0004        206.0004
  -7826353.63349  -6090134.92449  21435642.5344   21435645.7584   21435642.2934
       239.0004        194.0004
  -1917221.34049  -1318621.70049  24340873.4914   24340875.5444   24340873.0034
       205.0004        146.0004
  -7137490.53749  -5538426.63849  22845332.1554   22845334.0314   22845332.3554
       220.0004        160.0004
 -22149201.80949 -16684448.16549  20515977.0654   20515979.3514   20515977.1174
       241.0004        203.0004
  -5864952.14449  -4556289.02549  23817527.6214   23817534.5334   23817529.6714
       215.0004        154.0004
  -4320708.33349  -3355738.34549  23358723.6774   23358726.3994   23358722.9974
       222.0004        164.0004
 11 10  9  6 40 30.0000000  0  9G18G25G09G27G22G14G12G15G17
   -578411.16449   -432528.31049  25009005.7124   25009009.7464   25009006.0384
       194.0004        122.0004
 -11896186.49949  -9255459.92549  22581621.6884   22581626.3764   22581620.3944
       227.0004        171.0004
 -24778324.58949 -19293603.52349  19960396.6674   19960400.0354   19960396.4324
       245.0004        206.0004
  -7778225.48549  -6052632.50649  21444800.8334   21444804.7724   21444801.0214
       238.0004        193.0004
  -1861812.83749  -1275446.33149  24351417.1384   24351421.0114   24351416.9924
       205.0004        148.0004
  -7216044.18149  -5599637.28349  22830383.9574   22830386.1784   22830384.6684
       221.0004        159.0004
 -22187903.05749 -16714604.98949  20508611.7594   20508614.6594   20508612.1984
       240.0004        202.0004
  -5754339.62149  -4470097.59349  23838579.1214   23838583.4074   23838578.1334
       217.0004        154.0004
  -4247675.39049  -3298829.63749  23372620.8464   23372625.4644   23372622.1384
       222.0004        164.0004
 11 10  9  6 41  0.0000000  0  9G18G25G09G27G22G14G12G15G17
   -492898.33749   -365894.96849  25025272.2794                   25025273.9564
       190.0004        121.0004
 -11984765.10649  -9324482.17849  22564764.8114   22564771.1884   22564765.1244
       227.0004        172.0004
 -24743332.84349 -19266337.24649  19967056.1534   19967058.1524   19967055.8204
       245.0004        206.0004
  -7729806.85149  -6014903.72149  21454014.5624   21454018.5464   21454014.7774
       239.0004        193.0004
  -1806035.41849  -1231983.46749  24362032.1334   24362033.4884   24362032.1574
       207.0004        148.0004
  -7294207.35749  -5660543.65449  22815510.6344   22815512.3074   22815510.0194
       221.0004        160.0004
 -22226172.20649 -16744425.10949  20501329.9914   20501332.3494   20501330.2244
       241.0004        203.0004
  -5643598.53049  -4383805.96549  23859654.5484   23859656.1684   23859652.1794
       221.0004        151.0004
  -4174238.60249  -3241606.21549  23386597.0924   23386599.0254   23386597.1124
       225.0004        162.0004
 11 10  9  6 41 30.0000000  0  9G18G25G09G27G22G14G12G15G17
   -407312.21549   -299204.54349  25041560.5154                   25041562.1114
       190.0004        118.0004
 -12073101.60349  -9393315.80449  22547955.5514   22547961.1544   22547954.9674
       230.0004        173.0004
 -24707843.16949 -19238682.96849  19973809.2374   19973811.8824   19973809.1024
       245.0004        206.0004
  -7681097.61649  -5976948.50049  21463284.1904   21463287.6274   21463284.3294
       239.0004        193.0004
  -1749891.09649  -1188234.68849  24372716.8614   24372718.9304   24372715.2164
       208.0004        143.0004
  -7371977.19449  -5721143.52349  22800710.2954   22800713.0224   22800710.5554
       220.0004        161.0004
 -22264008.78649 -16773908.16649  20494129.0814   20494132.3224   20494129.9684
       240.0004        203.0004
  -5532731.05149  -4297415.83249  23880750.1664   23880753.4924   23880748.6424
       215.0004        150.0004
  -4100399.72149  -3184069.46849  23400646.9014   23400650.2664   23400647.1344
       223.0004        162.0004
 11 10  9  6 42  0.0000000  0  9G18G25G09G27G22G14G12G15G17
   -321655.30749   -232458.91849  25057861.5564
       193.0004        119.0004
 -12161194.74549  -9461959.79349  22531191.7324   22531197.7444   22531191.4314
       229.0004        173.0004
 -24671855.88049 -19210640.93749  19980656.0114   19980660.0464   19980656.2944
       244.0004        205.0004
  -7632097.70549  -5938766.77549  21472608.2674   21472611.8214   21472607.9464
       239.0004        192.0004
  -1693382.03749  -1144201.69049  24383468.5024   24383468.2834   24383468.4544
       202.0004        135.0004
  -7449351.16849  -5781434.92749  22785988.5134   22785989.6244   22785987.8184
       223.0004        161.0004
 -22301412.24949 -16803053.72249  20487012.5024   20487014.7014   20487013.1724
       241.0004        204.0004
  -5421739.42649  -4210928.99549  23901871.0994   23901875.5754   23901869.1774
       216.0004        151.0004
  -4026161.01449  -3126221.18349  23414773.6814   23414777.6454   23414773.4964
       220.0004        161.0004
 11 10  9  6 42 30.0000000  0  9G18G25G09G27G22G14G12G15G17
   -235930.93049   -165660.75949  25074170.9574
       184.0004        119.0004
 -12249043.86749  -9530413.65249  22514474.8754   22514480.6634   22514475.0734
       231.0004        174.0004
 -24635371.45549 -19182211.52749  19987599.6734   19987602.8534   19987599.8024
       245.0004        205.0004
  -7582807.86149  -5900359.13449  21481987.6804   21481991.4604   21481987.8834
       238.0004        192.0004
  -1636511.32349  -1099886.87649  24394289.4594   24394293.0754   24394287.6194
       200.0004        136.0004
  -7526327.16749  -5841416.22649  22771340.1144   22771342.6314   22771340.2294
       219.0004        160.0004
 -22338383.09249 -16831862.17749  20479977.4994   20479979.7594   20479977.8274
       241.0004        204.0004
  -5310626.34049  -4124347.50449  23923016.0764   23923020.4874   23923014.5614
       217.0004        154.0004
  -3951525.17649  -3068063.44549  23428975.8844   23428980.8424   23428977.8254
       222.0004        162.0004
 11 10  9  6 43  0.0000000  0  9G18G25G09G27G22G14G12G15G17
   -150141.61049     54050.05749  25090498.9574
       181.0004         74.0004
 -12336647.56449  -9598676.24349  22497805.5334   22497810.5504   22497804.3884
       231.0004        175.0004
 -24598389.83549 -19153394.69549  19994638.0684   19994640.4684   19994637.4824
       246.0004        205.0004
  -7533227.87249  -5861725.39949  21491422.8514   21491426.0544   21491422.7804
       239.0004        192.0004
  -1579280.62649  -1055291.59149  24405184.2914   24405184.1184   24405181.8804
       211.0004        143.0004
  -7602902.43749  -5901085.25149  22756766.1334   22756769.7074   22756766.4324
       217.0004        160.0004
 -22374920.60249 -16860332.96349  20473025.1164   20473026.6104   20473024.8274
       242.0004        204.0004
  -5199393.95649  -4037673.05049  23944180.9784   23944185.0504   23944181.4684
       211.0004        147.0004
  -3876494.04149  -3009597.67749  23443255.5934   23443257.7964   23443256.0414
       223.0004        163.0004
 11 10  9  6 43 30.0000000  0  9G18G25G09G27G22G14G12G15G17
    -64290.41749    121052.22249  25106839.7214
       183.0004        108.0004
 -12424004.96849  -9666746.94549  22481181.0924   22481186.2494   22481181.1194
       231.0004        175.0004
 -24560912.05149 -19124191.24749  20001768.7114   20001772.0404   20001768.9784
       244.0004        204.0004
  -7483358.03649  -5822865.82749  21500912.7104   21500916.2554   21500912.3684
       238.0004        192.0004
  -1521693.06349  -1010418.21049  24416141.6144   24416141.4534   24416141.5514
       210.0004        144.0004
  -7679074.52749  -5960440.12749  22742273.2034   22742275.5024   22742272.6454
       220.0004        160.0004
 -22411024.80249 -16888466.11549  20466153.9644   20466156.1804   20466154.3964
       242.0004        204.0004
  -5088044.73049  -3950907.53949  23965368.8044   23965376.4244   23965370.4804
       212.0004        151.0004
  -3801070.18349  -2950825.86349  23457608.5674   23457612.4534   23457607.7524
       221.0004        163.0004
 11 10  9  6 44  0.0000000  0  9G18G25G09G27G22G14G12G15G17
     21620.00249    188104.26949  25123186.1754
       177.0004        110.0004
 -12511114.95149  -9734624.83549  22464603.2124   22464610.5444   22464604.3924
       230.0004        175.0004
 -24522938.23249 -19094601.28249  20008995.2974   20008998.1064   20008995.2944
       244.0004        205.0004
  -7433198.34349  -5783780.36749  21510457.4534   21510461.0894   21510457.2904
       238.0004        191.0004
  -1463750.85949   -965268.44349  24427166.8174   24427167.2104   24427165.8154
       206.0004        142.0004
  -7754840.64449  -6019478.64049  22727852.4454   22727857.2904   22727852.9844
       217.0004        160.0004
 -22446695.52849 -16916261.48349  20459365.7434   20459368.5054   20459366.4154
       242.0004        205.0004
  -4976580.98549  -3864052.81549  23986579.9894   23986587.2994   23986581.1674
       213.0004        153.0004
  -3725255.87549  -2891749.85649  23472033.5534   23472038.4084   23472034.5094
       219.0004        161.0004
 11 10  9  6 44 30.0000000  0  9G18G25G09G27G22G14G12G15G17
    107586.42349     48524.97449  25139544.9014
       178.0004         74.0004
 -12597976.84949  -9802309.41949  22448074.7144   22448081.1364   22448075.0164
       231.0004        176.0004
 -24484469.24049 -19064625.46549  20016315.2774   20016318.4314   20016315.2114
       244.0004        204.0004
  -7382749.40649  -5744469.53349  21520057.7134   21520061.6984   21520057.7324
       238.0004        193.0004
  -1405456.56149   -919844.38149  24438259.1034   24438262.8484   24438258.7134
       203.0004        142.0004
  -7830198.69549  -6078199.19749  22713513.9924   22713516.7594   22713513.6664
       219.0004        160.0004
 -22481932.80349 -16943719.09549  20452661.1624   20452662.7164   20452661.0164
       243.0004        205.0004
  -4865005.88049  -3777111.33349  24007812.1564   24007817.7324   24007813.7344
       207.0004        149.0004
  -3649053.67249  -2832371.58249  23486535.9184   23486538.7084   23486537.2354
       223.0004        163.0004
 11 10  9  6 45  0.0000000  0  9G18G25G09G27G22G14G12G15G17
    193606.59349    115599.01849  25155916.5384
       180.0004        108.0004
 -12684589.01949  -9869799.41849  22431593.3744   22431598.8974   22431593.5974
       233.0004        177.0004
 -24445504.84549 -19034263.62849  20023730.5804   20023733.5584   20023730.5734
       245.0004        205.0004
  -7332010.79149  -5704932.96949  21529712.9754   21529716.7024   21529712.9294
       238.0004        192.0004
  -1346812.51349   -874147.84049  24449417.7094   24449421.2754   24449419.1214
       203.0004        146.0004
  -7905146.01949  -6136599.72749  22699252.5944   22699254.4574   22699252.1204
       221.0004        161.0004
 -22516735.86849 -16970838.37149  20446037.5724   20446040.1324   20446038.0504
       242.0004        205.0004
  -4753321.21549  -3690084.44249  24029064.4884   24029070.4454   24029066.6024
       212.0004        149.0004
  -3572465.51349  -2772692.55749  23501110.2234   23501112.1764   23501110.0964
       221.0004        159.0004
 11 10  9  6 45 30.0000000  0  9G18G25G09G27G22G14G12G15G17
    279676.89049    182718.01449  25172296.0864
       176.0004        106.0004
 -12770950.78549  -9937094.27949  22415159.9044   22415165.0524   22415158.9404
       233.0004        177.0004
 -24406045.97549 -19003516.47249  20031239.2474   20031242.2704   20031238.9174
       244.0004        205.0004
  -7280983.14149  -5665171.17849  21539422.7604   21539427.0974   21539423.0284
       237.0004        192.0004
  -1287821.40749   -828180.80449  24460645.5404   24460645.3934   24460644.9734
       206.0004        142.0004
  -7979680.37349  -6194678.43149  22685067.6424   22685071.5484   22685067.9024
       220.0004        162.0004
 -22551104.92549 -16997619.44949  20439497.9884   20439499.6674   20439498.0924
       243.0004        205.0004
  -4641530.00949  -3602974.53349  24050338.1524   24050345.7074   24050340.3564
       213.0004        154.0004
  -3495494.15949  -2712714.91849  23515756.0614   23515759.9344   23515757.1684
       219.0004        156.0004
 11 10  9  6 46  0.0000000  0  9G18G25G09G27G22G14G12G15G17
    365795.07249     31901.98649  25188684.5474
       180.0004         74.0004
 -12857061.12449 -10004193.22749  22398772.2844   22398778.2034   22398772.0974
       233.0004        177.0004
 -24366093.17149 -18972384.43549  20038841.5714   20038845.0304   20038841.3974
       244.0004        205.0004
  -7229666.84649  -5625184.48549  21549189.0874   21549192.2064   21549188.7864
       238.0004        192.0004
  -1228485.89949   -781945.31349  24471935.0874   24471938.1974   24471935.5004
       203.0004        139.0004
  -8053799.05049  -6252433.24949  22670963.8814   22670967.0814   22670963.4094
       219.0004        160.0004
 -22585040.00249 -17024062.37449  20433039.9294   20433041.9544   20433040.2724
       242.0004        206.0004
  -4529633.90549  -3515782.95049  24071629.8984   24071639.3514   24071631.9784
       209.0004        151.0004
  -3418141.47449  -2652440.15549  23530476.7774   23530482.0714   23530476.9064
       219.0004        159.0004
 11 10  9  6 46 30.0000000  0  9G18G25G09G27G22G14G12G15G17
    451957.40059     99031.11559  25205076.8644
       172.0004        107.0004
 -12942919.26249 -10071095.68149  22382433.6064   22382440.7364   22382434.5374
       232.0004        178.0004
 -24325647.48849 -18940868.34749  20046538.0174   20046541.6714   20046538.0034
       244.0004        204.0004
  -7178062.35049  -5584973.21849  21559008.5114   21559012.4554   21559008.8154
       237.0004        192.0004
  -1168808.67449   -735443.63349  24483292.6534   24483294.1014   24483291.0524
       205.0004        137.0004
  -8127500.08849  -6309862.63149  22656940.3254   22656941.8784   22656940.0584
       221.0004        162.0004
 -22618541.22149 -17050167.22849  20426665.1634   20426667.1084   20426665.1034
       243.0004        205.0004
  -4417636.04449  -3428512.06549  24092944.8294   24092950.2764   24092946.5854
       214.0004        148.0004
  -3340410.71949  -2591870.78449  23545269.1954   23545272.9914   23545269.1754
       220.0004        162.0004
 11 10  9  6 47  0.0000000  0  8G25G09G27G22G14G12G15G17
 -13028523.67849 -10137800.40949  22366144.3314   22366151.0764   22366144.3004
       233.0004        180.0004
 -24284708.62649 -18908967.95849  20054329.0104   20054331.9174   20054328.7424
       244.0004        204.0004
  -7126169.18049  -5544537.01149  21568882.8384   21568887.5034   21568882.7234
       235.0004        190.0004
  -1108791.89549   -688677.33749  24494712.5614   24494714.8544   24494713.1904
       207.0004        141.0004
  -8200780.37249  -6366964.17049  22642994.4544   22642996.5864   22642995.2974
       220.0004        162.0004
 -22651607.74949 -17075933.35649  20420371.9704   20420374.9084   20420372.1874
       242.0004        205.0004
  -4305538.29049  -3341163.20849  24114278.9274   24114283.4864   24114277.1834
       212.0004        148.0004
  -3262303.34649  -2531007.96649  23560131.4094   23560135.7664   23560132.6034
       217.0004        157.0004
 11 10  9  6 47 30.0000000  0  8G25G09G27G22G14G12G15G17
 -13113873.45549 -10204306.71249  22349903.6434   22349909.1174   22349903.1424
       234.0004        179.0004
 -24243277.16349 -18876683.71849  20062213.5244   20062216.2034   20062212.9154
       243.0004        204.0004
  -7073987.73249  -5503876.17449  21578812.5854   21578817.0854   21578812.2264
       237.0004        190.0004
  -1048438.03149   -641648.38049  24506197.3204   24506199.2714   24506198.6494
       206.0004        143.0004
  -8273637.60449  -6423736.04549  22629131.0684   22629133.4644   22629131.3394
       224.0004        162.0004
 -22684239.85849 -17101360.97849  20414162.6374   20414165.2754   20414162.6994
       242.0004        206.0004
  -4193343.13849  -3253738.67149  24135627.1914   24135632.3814   24135627.9354
       214.0004        151.0004
  -3183822.06249  -2469853.77349  23575065.4964   23575070.7664   23575065.2064
       217.0004        155.0004
 11 10  9  6 48  0.0000000  0  8G25G09G27G22G14G12G15G17
 -13198968.01749 -10270614.16649  22333710.0164   22333715.9404   22333710.4294
       233.0004        179.0004
 -24201354.39949 -18844016.64349  20070190.2594   20070193.7904   20070190.1484
       243.0004        204.0004
  -7021518.71449  -5462991.25449  21588798.4154   21588801.4854   21588797.6634
       239.0004        190.0004
   -987750.27249   -594359.28549  24517745.9194   24517748.9754   24517745.3584
       202.0004        143.0004
  -8346069.74849  -6480176.67949  22615346.8344   22615349.8584   22615346.6014
       221.0004        163.0004
 -22716437.71149 -17126450.22449  20408035.9004   20408038.0084   20408036.0354
       243.0004        206.0004
  -4081053.71649  -3166240.55649  24156995.3134   24157001.8474   24156995.8534
       214.0004        150.0004
  -3104969.59749  -2408410.34049  23590070.4314   23590075.8444   23590072.0314
       216.0004        156.0004
 11 10  9  6 48 30.0000000  0  8G25G09G27G22G14G12G15G17
 -13283806.00549 -10336721.67349  22317565.6644   22317571.8634   22317565.0834
       232.0004        179.0004
 -24158940.27849 -18810966.70549  20078261.5694   20078265.1064   20078261.5164
       243.0004        203.0004
  -6968762.12249  -5421882.25449  21598837.4154   21598840.8894   21598836.7544
       239.0004        191.0004
   -926730.74249   -546811.68749  24529357.4564   24529358.7744   24529356.7874
       206.0004        143.0004
  -8418073.92149  -6536283.83649  22601644.6194   22601647.8514   22601644.9594
       222.0004        163.0004
 -22748200.97949 -17151200.82749  20401991.9404   20401993.9114   20401992.0684
       244.0004        206.0004
  -3968672.03749  -3078670.51049  24178379.3594   24178385.2364   24178380.5874
       208.0004        140.0004
  -3025748.01149  -2346679.28449  23605148.1024   23605150.4694   23605147.7704
       220.0004        158.0004
 11 10  9  6 49  0.0000000  0  8G25G09G27G22G14G12G15G17
 -13368386.49449 -10402628.53549  22301470.9254   22301476.9444   22301470.4594
       234.0004        179.0004
 -24116035.33049 -18777534.31049  20086426.5254   20086429.4984   20086426.4554
       243.0004        203.0004
  -6915717.99049  -5380549.19449  21608930.7424   21608934.8134   21608930.6994
       239.0004        190.0004
   -865382.09149   -499007.55349  24541034.3874   24541032.6304   24541033.6374
       209.0004        140.0004
  -8489647.76249  -6592055.68449  22588026.6504   22588027.6224   22588026.2254
       224.0004        163.0004
 -22779529.44949 -17175612.62749  20396029.8874   20396032.1894   20396029.8204
       243.0004        206.0004
  -3856200.37349  -2991030.42249  24199782.9724   24199790.3174   24199784.0134
       212.0004        148.0004
  -2946159.67649  -2284662.45149  23620292.2374   23620295.1244   23620292.9114
       220.0004        160.0004
 11 10  9  6 49 30.0000000  0  8G25G09G27G22G14G12G15G17
 -13452708.34749 -10468333.86149  22285425.4944   22285431.1604   22285424.7074
       233.0004        180.0004
 -24072640.07649 -18743719.85249  20094683.8304   20094687.4054   20094684.0664
       244.0004        203.0004
  -6862386.58649  -5338992.28549  21619079.6824   21619082.8214   21619080.0084
       240.0004        190.0004
   -803706.69349   -450948.78349  24552768.2174   24552770.7764   24552766.6374
       200.0004        137.0004
  -8560789.14349  -6647490.54249  22574487.8034   22574489.7704   22574487.5394
       223.0004        164.0004
 -22810423.12649 -17199685.63749  20390150.9414   20390153.2454   20390151.4314
       243.0004        206.0004
  -3743641.21749  -2903322.17449  24221205.2934   24221209.6534   24221205.7044
       217.0004        156.0004
  -2866206.59149  -2222361.40849  23635507.2914   23635510.2134   23635506.9444
       220.0004        160.0004
 11 10  9  6 50  0.0000000  0  8G25G09G27G22G14G12G15G17
 -13536770.81749 -10533837.07949  22269427.8364   22269434.2954   22269427.5854
       232.0004        179.0004
 -24028755.68849 -18709524.23549  20103035.1164   20103038.6854   20103035.1654
       245.0004        203.0004
  -6808768.40449  -5297211.90849  21629283.2054   21629286.2894   21629283.3834
       239.0004        191.0004
   -741707.64049   -402637.90149  24564569.0644   24564568.2804   24564565.6914
       201.0004        135.0004
  -8631495.50049  -6702586.41949  22561033.0104   22561035.1534   22561032.0184
       222.0004        165.0004
 -22840882.35649 -17223420.10949  20384354.8274   20384357.1424   20384354.9484
       241.0004        206.0004
  -3630997.33949  -2815547.90049  24242637.5284   24242642.2834   24242637.2454
       206.0004        138.0004
  -2785892.12849  -2159778.74649  23650790.5924   23650795.0204   23650791.7994
       219.0004        159.0004
 11 10  9  6 50 30.0000000  0  8G25G09G27G22G14G12G15G17
 -13620572.28949 -10599136.90349  22253481.7174   22253487.3904   22253481.8164
       233.0004        179.0004
 -23984381.70449 -18674947.13249  20111479.5174   20111482.5484   20111479.2814
       244.0004        202.0004
  -6754862.97749  -5255207.70949  21639541.6574   21639544.6804   21639541.0834
       240.0004        191.0004
   -679386.65449   -354076.16649  24576428.4284   24576429.6984   24576426.5094
       209.0004        141.0004
  -8701764.08249  -6757341.16649  22547662.3884   22547663.3494   22547661.5764
       225.0004        166.0004
 -22870906.17449 -17246815.29849  20378641.7174   20378643.4774   20378641.9974
       243.0004        206.0004
  -3518270.20549  -2727708.68649  24264089.4874   24264095.3654   24264089.6414
       210.0004        142.0004
  -2705217.60649  -2096915.54749  23666141.3194   23666146.0514   23666141.6334
       216.0004        159.0004
 11 10  9  6 51  0.0000000  0  8G25G09G27G22G14G12G15G17
 -13704112.92649 -10664233.49749  22237583.6244   22237589.6574   22237583.0724
       233.0004        179.0004
 -23939520.31149 -18639990.23149  20120015.5304   20120018.9844   20120016.0474
       243.0004        202.0004
  -6700671.78149  -5212980.83449  21649853.2504   21649856.9244   21649853.2144
       239.0004        190.0004
   -616747.79549   -305266.72049  24588348.9524   24588347.4984   24588346.9904
       211.0004        144.0004
  -8771593.18549  -6811753.48049  22534373.3404   22534375.7174   22534373.5534
       224.0004        166.0004
 -22900495.62549 -17269872.01949  20373010.2754   20373012.7574   20373010.6494
       241.0004        206.0004
  -3405463.38149  -2639807.42049  24285559.5504   24285563.4774   24285559.1094
       217.0004        152.0004
  -2624186.67249  -2033774.61649  23681561.5784   23681564.9084   23681561.8264
       218.0004        157.0004
 11 10  9  6 51 30.0000000  0  8G25G09G27G22G14G12G15G17
 -13787390.35249 -10729124.98449  22221738.0094   22221742.9354   22221737.1334
       234.0004        181.0004
 -23894170.64049 -18604652.86549  20128645.8104   20128648.8904   20128645.8504
       244.0004        202.0004
  -6646193.66049  -5170530.36749  21660220.1964   21660223.3114   21660219.8484
       239.0004        191.0004
   -553792.02749   -256210.28649  24600326.7484   24600325.5554   24600326.9794
       205.0004        140.0004
  -8840979.43849  -6865820.71449  22521168.2694   22521172.1704   22521169.5924
       223.0004        165.0004
 -22929649.36849 -17292589.22749  20367461.8794   20367464.9954   20367462.7274
       241.0004        206.0004
  -3292577.97749  -2551844.96649  24307038.7854   24307044.3174   24307038.8454
       206.0004        142.0004
  -2542800.25649  -1970356.70949  23697050.5344   23697052.2074   23697050.3184
       223.0004        157.0004
 11 10  9  6 52  0.0000000  0  8G25G09G27G22G14G12G15G17
 -13870404.28949 -10793811.15249  22205940.2134   22205945.5074   22205939.6594
       234.0004        180.0004
 -23848333.95949 -18568935.99849  20137367.8914   20137371.6204   20137367.9974
       243.0004        202.0004
  -6591429.57349  -5127857.07449  21670641.2334   21670644.4864   21670641.3044
       239.0004        189.0004
   -490522.57149   -206909.45049  24612366.1284   24612366.9404   24612365.4354
       203.0004        137.0004
  -8909921.27749  -6919541.63849  22508050.9464   22508052.3744   22508050.4014
       225.0004        166.0004
 -22958368.26449 -17314967.59449  20361997.5224   20361999.8744   20361997.7894
       241.0004        207.0004
  -3179617.21049  -2463823.81549  24328535.1474   24328535.5674   24328533.3384
       213.0004        139.0004
  -2461061.52149  -1906664.23349  23712603.6384   23712606.2654   23712604.0214
       220.0004        154.0004
 11 10  9  6 52 30.0000000  0  8G25G09G27G22G14G12G15G17
 -13953154.76449 -10858292.02049  22190192.9944   22190198.8754   22190192.6544
       234.0004        181.0004
 -23802011.90249 -18532840.87749  20146182.5424   20146186.1984   20146182.6314
       243.0004        201.0004
  -6536380.87849  -5084962.01849  21681116.4864   21681120.1244   21681116.7414
       238.0004        189.0004
   -426943.39249   -157367.31049  24624468.4314   24624466.0194   24624465.9504
       207.0004        139.0004
  -8978416.79349  -6972914.78149  22495015.2564   22495018.4884   22495015.0714
       224.0004        165.0004
 -22986653.32349 -17337007.90149  20356615.0624   20356617.5794   20356615.5434
       242.0004        207.0004
  -3066584.89849  -2375746.71549  24350042.7644   24350051.4024   24350043.5024
       207.0004        142.0004
  -2378973.97449  -1842699.95449  23728223.0514   23728228.4644   23728223.7044
       217.0004        155.0004
 11 10  9  6 53  0.0000000  0  8G25G09G27G22G14G12G15G17
 -14035638.68049 -10922565.20449  22174496.9594   22174502.7984   22174496.9154
       232.0004        181.0004
 -23755203.21649 -18496366.60649  20155090.3674   20155093.8774   20155090.4474
       243.0004        202.0004
  -6481045.63349  -5041843.67349  21691646.6744   21691650.3284   21691646.4984
       238.0004        189.0004
   -363054.85249   -107584.04049  24636621.6484   24636623.1134   24636621.3944
       201.0004        135.0004
  -9046461.73749  -7025936.84449  22482068.2214   22482069.3244   22482066.8614
       223.0004        165.0004
 -23014502.21649 -17358708.34849  20351315.9154   20351318.0824   20351316.3644
       242.0004        207.0004
  -2953480.71049  -2287613.83949  24371565.7494   24371572.6214   24371566.2924
       205.0004        146.0004
  -2296537.79549  -1778464.03449  23743910.6994   23743915.7044   23743912.4904
       218.0004        157.0004
 11 10  9  6 53 30.0000000  0  8G25G09G27G22G14G12G15G17
 -14117856.77049 -10986631.23549  22158850.8024   22158856.7204   22158850.7074
       231.0004        182.0004
 -23707910.15149 -18459514.91249  20164090.3924   20164093.4644   20164090.2134
       244.0004        203.0004
  -6425426.04149  -4998503.75349  21702230.5514   21702234.8384   21702230.7134
       238.0004        189.0004
   -298861.33049    -57563.13649  24648841.7594   24648839.3934   24648840.0094
       208.0004        138.0004
  -9114055.59649  -7078607.39149  22469203.3194   22469206.7914   22469203.8214
       220.0004        164.0004
 -23041916.92149 -17380070.45849  20346099.3694   20346101.4554   20346099.4454
       242.0004        208.0004
  -2840309.08649  -2199428.36449  24393101.9694   24393108.3164   24393102.7964
       211.0004        147.0004
  -2213757.29449  -1713959.84449  23759666.1714   23759667.9524   23759665.8554
       219.0004        158.0004
 11 10  9  6 54  0.0000000  0  8G25G09G27G22G14G12G15G17
 -14199807.17549 -11050488.67949  22143257.0084   22143262.0374   22143256.4684
       234.0004        182.0004
 -23660132.14049 -18422285.32049  20173181.9954   20173185.1794   20173181.5654
       243.0004        201.0004
  -6369521.45749  -4954941.76949  21712868.8374   21712872.7574   21712869.0654
       237.0004        188.0004
   -234364.38849     -7305.83149  24661114.3444   24661114.2624   24661111.9244
       210.0004        141.0004
  -9181195.32049  -7130924.08049  22456428.6354   22456432.4674   22456428.2864
       225.0004        167.0004
 -23068896.38449 -17401093.42249  20340964.6174   20340967.4454   20340965.0924
       242.0004        207.0004
  -2727071.39349  -2111191.30449  24414651.7134   24414655.7364   24414652.7844
       212.0004        141.0004
  -2130633.89949  -1649188.43949  23775481.9774   23775486.4544   23775483.5154
       216.0004        157.0004
 11 10  9  6 54 30.0000000  0  8G25G09G27G22G14G12G15G17
 -14281489.76449 -11114137.44149  22127713.1914   22127719.0464   22127712.8174
       234.0004        183.0004
 -23611871.26149 -18384679.46349  20182365.4124   20182369.2474   20182365.4944
       244.0004        202.0004
  -6313332.88249  -4911158.49049  21723561.0144   21723565.3954   21723560.9994
       235.0004        188.0004
   -169568.05449     43184.78349  24673445.0914   24673444.5734   24673443.1674
       212.0004        144.0004
  -9247879.07149  -7182885.46049  22443739.4994   22443742.2764   22443738.9344
       224.0004        167.0004
 -23095441.46449 -17421777.91349  20335913.4904   20335916.1224   20335913.8304
       242.0004        207.0004
  -2613770.66249  -2022905.17549  24436211.0284   24436219.8464   24436212.3894
       207.0004        146.0004
  -2047170.71349  -1584152.25249  23791363.8404   23791367.8274   23791363.8844
       213.0004        154.0004
 11 10  9  6 55  0.0000000  0  8G25G09G27G22G14G12G15G17
 -14362902.76949 -11177576.14349  22112220.9854   22112226.2714   22112221.0684
       234.0004        183.0004
 -23563127.13449 -18346697.04249  20191642.0914   20191644.9524   20191641.4934
       245.0004        202.0004
  -6256859.86949  -4867153.58749  21734307.6404   21734311.5004   21734307.7754
       236.0004        188.0004
   -104473.97049     93907.38949  24685830.6484   24685830.3484   24685828.4194
       200.0004        135.0004
  -9314103.52849  -7234488.95549  22431135.7274   22431139.5784   22431135.9874
       221.0004        164.0004
 -23121551.28749 -17442123.23649  20330945.3164   20330947.6484   20330945.7314
       243.0004        208.0004
  -2500408.94149  -1934571.58649  24457784.8994   24457789.0914   24457783.6444
       210.0004        146.0004
  -1963369.49549  -1518852.65849  23807311.4094   23807315.4104   23807311.9014
       217.0004        155.0004
 11 10  9  6 55 30.0000000  0  8G25G09G27G22G14G12G15G17
 -14444045.62449 -11240804.33849  22096779.1284   22096785.7644   22096779.7374
       236.0004        184.0004
 -23513900.88549 -18308338.96749  20201008.9824   20201011.9984   20201009.1174
       244.0004        201.0004
  -6200103.02749  -4822927.50549  21745108.3834   21745112.4534   21745108.4334
       236.0004        189.0004
    -39084.98949    144859.75949  24698270.5644   24698269.8984   24698267.1424
       197.0004        124.0004
  -9379867.10249  -7285733.31649  22418622.5214   22418626.1254   22418621.9484
       225.0004        166.0004
 -23147226.30949 -17462129.75949  20326058.8054   20326061.8114   20326059.0594
       242.0004        208.0004
  -2386988.93849  -1846192.55549  24479368.7014   24479372.7624   24479368.0614
       212.0004        146.0004
  -1879233.02249  -1453291.83049  23823323.0384   23823326.5554   23823323.2704
       220.0004        157.0004
 11 10  9  6 56  0.0000000  0  8G25G09G27G22G14G12G15G17
 -14524917.10949 -11303821.08549  22081390.9974   22081396.3004   22081391.0224
       235.0004        184.0004
 -23464193.50049 -18269605.96149  20210467.8774   20210471.1624   20210468.0744
       243.0004        201.0004
  -6143062.50649  -4778480.38249  21755962.5074   21755966.8704   21755962.3594
       235.0004        188.0004
     26596.56749    196040.23149  24710771.5034   24710772.1074   24710772.1444
       208.0004        136.0004
  -9445167.15749  -7336616.49649  22406197.6034   22406199.3174   22406196.5534
       225.0004        165.0004
 -23172466.77749 -17481797.67149  20321255.6514   20321258.8664   20321256.4854
       242.0004        208.0004
  -2273512.58849  -1757769.56049  24500960.5134   24500965.1554   24500961.1004
       207.0004        140.0004
  -1794763.74249  -1387471.67049  23839396.9884   23839401.2894   23839396.9984
       220.0004        158.0004
 11 10  9  6 56 30.0000000  0  8G25G09G27G22G14G12G15G17
 -14605516.85449 -11366626.06849  22066052.4554   22066058.6184   22066052.5574
       236.0004        185.0004
 -23414005.74649 -18230498.64149  20220018.7164   20220021.6304   20220018.5794
       244.0004        202.0004
  -6085739.28349  -4733812.96749  21766870.7674   21766875.3204   21766870.7594
       235.0004        188.0004
     92567.18949    247445.91749  24723327.1134   24723328.4804   24723325.4154
       208.0004        144.0004
  -9510001.94949  -7387137.11549  22393857.3914   22393860.2544   22393858.0804
       223.0004        166.0004
 -23197272.81649 -17501127.06049  20316534.7684   20316538.2004   20316535.3844
       241.0004        208.0004
  -2159983.02449  -1669305.16249  24522565.3264   24522571.1044   24522565.2134
       209.0004        144.0004
  -1709964.54049  -1321394.44549  23855533.3364   23855536.4924   23855532.6594
       216.0004        156.0004
 11 10  9  6 57  0.0000000  0  8G25G09G27G22G14G12G15G17
 -14685843.40749 -11429218.18849  22050767.0954   22050773.2924   22050767.2754
       236.0004        185.0004
 -23363337.80149 -18191017.14649  20229660.3164   20229663.6124   20229660.6774
       244.0004        202.0004
  -6028133.15749  -4688925.11149  21777833.3984   21777836.5364   21777833.2894
       236.0004        187.0004
    158824.55949    299074.96849  24735932.0064   24735934.8504   24735933.3354
       192.0004        138.0004
  -9574368.78749  -7437293.11449  22381610.4694   22381612.5714   22381610.2084
       224.0004        167.0004
 -23221644.17649 -17520117.74649  20311897.7414   20311900.1834   20311898.3634
       242.0004        208.0004
  -2046402.20749  -1580800.83849  24544179.5964   24544184.4444   24544179.2104
       210.0004        143.0004
  -1624837.22449  -1255061.56249  23871732.1754   23871736.0674   23871733.3964
       216.0004        155.0004
 11 10  9  6 57 30.0000000  0  8G25G09G27G22G14G12G15G17
 -14765895.52349 -11491596.44449  22035532.7804   22035540.2694   22035533.2654
       235.0004        186.0004
 -23312190.46249 -18151162.10349  20239393.4394   20239396.6934   20239393.3164
       244.0004        202.0004
  -5970244.07349  -4643816.75649  21788848.9314   21788853.7254   21788848.9564
       236.0004        187.0004
    225366.62849    350925.77349  24748595.6584   24748598.0794   24748591.6744
       193.0004        132.0004
  -9638264.92849  -7487082.32849  22369450.1364   22369453.8724   22369450.5034
       224.0004        167.0004
 -23245580.47149 -17538769.40649  20307342.7954   20307345.3504   20307343.1044
       242.0004        208.0004
  -1932772.09049  -1492258.03249  24565801.9834   24565808.9994   24565801.7214
       206.0004        140.0004
  -1539383.66349  -1188474.44949  23887993.7644   23887997.2634   23887994.3594
       217.0004        156.0004
 11 10  9  6 58  0.0000000  0  8G25G09G27G22G14G12G15G17
 -14845673.17049 -11553760.84849  22020352.2634   22020357.9244   22020352.4634
       237.0004        186.0004
 -23260565.47449 -18110934.86549  20249217.0074   20249220.6324   20249217.2824
       243.0004        202.0004
  -5912073.13649  -4598488.78549  21799919.3044   21799922.8394   21799918.5964
       236.0004        188.0004
    292189.30849    402995.24649  24761311.8594   24761314.4884   24761310.8194
       204.0004        137.0004
  -9701689.19649  -7536503.83149  22357382.5014   22357383.5354   22357381.4234
       225.0004        166.0004
 -23269082.96949 -17557083.05449  20302870.3604   20302873.0334   20302870.8824
       242.0004        208.0004
  -1819096.16449  -1403679.60149  24587434.2534   24587440.4194   24587434.8224
       206.0004        142.0004
  -1453608.12349  -1121636.43049  23904317.3274   23904319.4584   23904317.1834
       220.0004        156.0004
 11 10  9  6 58 30.0000000  0  8G25G09G27G22G14G12G15G17
 -14925175.25249 -11615710.51349  22005224.0344   22005230.0004   22005223.8634
       238.0004        185.0004
 -23208463.27449 -18070335.75949  20259131.8204   20259135.6004   20259132.2654
       244.0004        202.0004
  -5853620.63149  -4552941.41249  21811041.1514   21811046.3464   21811041.3394
       234.0004        188.0004
    359290.42749    455281.85749  24774083.8474   24774079.8244   24774082.5554
       211.0004        138.0004
  -9764638.93849  -7585555.59149  22345402.8664   22345404.5124   22345402.6774
       225.0004        167.0004
 -23292151.56249 -17575058.59049  20298481.1764   20298482.9214   20298481.4314
       242.0004        208.0004
  -1705376.43349  -1315067.01249  24609074.9514   24609081.8254   24609075.7434
       208.0004        142.0004
  -1367512.07649  -1054548.65149  23920699.3074   23920703.5904   23920700.5584
       216.0004        154.0004
 11 10  9  6 59  0.0000000  0  8G25G09G27G22G14G12G15G17
 -15004400.00749 -11677444.08049  21990147.9284   21990153.9274   21990147.9364
       236.0004        186.0004
 -23155883.89649 -18029364.85149  20269137.6744   20269140.7514   20269137.5744
       244.0004        202.0004
  -5794886.04249  -4507174.23249  21822218.5614   21822222.8174   21822218.2064
       234.0004        187.0004
    426667.90149    507783.89749  24786902.0024   24786902.8364   24786903.7524
       207.0004        134.0004
  -9827111.19649  -7634235.30649  22333515.5084   22333517.1804   22333516.0024
       226.0004        168.0004
 -23314785.49549 -17592695.42549  20294173.1824   20294175.8164   20294174.1024
       241.0004        208.0004
  -1591614.56049  -1226421.60349  24630725.1034   24630731.8714   24630723.6834
       213.0004        143.0004
  -1281097.41849   -987212.63749  23937143.5024   23937147.8654   23937143.5984
       214.0004        152.0004
 11 10  9  6 59 30.0000000  0  8G25G09G27G22G14G12G15G17
 -15083346.52649 -11738960.84149  21975123.4794   21975130.1654   21975124.2914
       236.0004        186.0004
 -23102828.00249 -17988022.62249  20279234.1704   20279236.8924   20279234.0164
       244.0004        202.0004
  -5735869.70649  -4461187.51549  21833448.8134   21833453.5884   21833449.1664
       235.0004        188.0004
    494319.14849    560499.16149  24799774.8824   24799780.3414   24799772.1344
       189.0004        131.0004
  -9889103.82349  -7682541.24949  22321718.0344   22321721.0684   22321718.0624
       227.0004        170.0004
 -23336984.77249 -17609993.56549  20289949.3684   20289951.3724   20289949.9204
       242.0004        208.0004
  -1477812.86149  -1137745.10449  24652378.1764   24652384.3174   24652378.7584
       204.0004        139.0004
  -1194366.69649   -919630.32649  23953649.0104   23953653.0004   23953649.1094
       215.0004        153.0004
 11 10  9  7  0  0.0000000  0  8G25G09G27G22G14G12G15G17
 -15162015.04549 -11800260.97449  21960154.7654   21960160.2924   21960154.4544
       236.0004        186.0004
 -23049297.90449 -17946310.87949  20289419.6234   20289423.6904   20289419.8214
       243.0004        201.0004
  -5676573.33949  -4414982.58649  21844732.6064   21844737.0444   21844733.0924
       235.0004        188.0004
    562240.39649    613424.59949  24812694.7724   24812703.7794   24812697.5094
       190.0004        130.0004
  -9950615.67249  -7730472.56949  22310012.1704   22310015.1534   22310012.6304
       226.0004        169.0004
 -23358750.77649 -17626954.09849  20285807.9954   20285809.5134   20285808.3284
       242.0004        209.0004
  -1363974.71849  -1049040.26349  24674040.9394   24674049.0664   24674041.8894
       204.0004        141.0004
  -1107323.51749   -851804.53149  23970211.6474   23970217.2914   23970212.2824
       217.0004        154.0004
 11 10  9  7  0 30.0000000  0  8G25G09G27G22G14G12G15G17
 -15240404.34549 -11861343.54649  21945237.7984   21945243.5264   21945238.1924
       237.0004        185.0004
 -22995294.02949 -17904229.96649  20299696.6934   20299699.9234   20299696.5874
       242.0004        200.0004
  -5616996.97049  -4368559.47649  21856069.8334   21856074.1904   21856069.7084
       234.0004        186.0004
    630428.89249    666558.34549  24825678.2744   24825678.1604   24825676.9564
       200.0004        137.0004
 -10011644.05949  -7778027.16149  22298400.7074   22298401.7084   22298399.0684
       227.0004        167.0004
 -23380083.31249 -17643576.85949  20281749.3904   20281750.3974   20281749.0604
       244.0004        209.0004
  -1250102.46849   -960308.85249  24695712.4344   24695716.2764   24695712.5674
       207.0004        141.0004
  -1019969.82549   -783736.77449  23986835.7714   23986839.7214   23986837.0554
       215.0004        152.0004
 11 10  9  7  1  0.0000000  0  8G25G09G27G22G14G12G15G17
 -15318512.95249 -11922207.39149  21930374.5434   21930380.1024   21930374.4494
       238.0004        186.0004
 -22940816.61749 -17861780.04749  20310063.1854   20310067.0324   20310063.3134
       243.0004        201.0004
  -5557140.25649  -4321917.91649  21867459.9574   21867464.1744   21867460.0064
       234.0004        186.0004
    698882.34249    719898.68749  24838703.1174   24838704.4104   24838701.7874
       207.0004        140.0004
 -10072186.49949  -7825203.10449  22286879.0754   22286880.1234   22286878.7284
       228.0004        169.0004
 -23400982.08449 -17659861.62749  20277771.2564   20277773.4494   20277771.4914
       243.0004        209.0004
  -1136198.02949   -871552.34149  24717388.6424   24717393.8194   24717389.8214
       208.0004        141.0004
   -932307.73249   -715428.69949  24003515.6564   24003520.7114   24003516.6984
       212.0004        151.0004
 11 10  9  7  1 30.0000000  0  8G25G09G27G22G14G12G15G17
 -15396339.94449 -11982851.79649  21915564.5014   21915569.8184   21915564.4234
       239.0004        186.0004
 -22885866.67249 -17818961.92849  20320520.0614   20320523.4124   20320519.8004
       242.0004        200.0004
  -5497003.50949  -4275058.15149  21878904.0394   21878908.2754   21878903.8664
       235.0004        187.0004
    767598.32049    773443.58649  24851779.3264   24851780.9554   24851779.3264
       205.0004        136.0004
 -10132240.60649  -7871998.50949  22275451.0064   22275453.2804   22275450.3984
       228.0004        170.0004
 -23421447.13949 -17675808.42649  20273876.7554   20273878.9464   20273877.6924
       243.0004        210.0004
  -1022263.74949   -782772.62049  24739071.4684   24739073.8864   24739068.9384
       209.0004        139.0004
   -844339.81249   -646882.34249  24020257.7964   24020260.0094   24020256.3194
       217.0004        150.0004
 11 10  9  7  2  0.0000000  0  8G25G09G27G22G14G12G15G17
 -15473885.14349 -12043276.62549  21900808.4034   21900813.3814   21900807.8204
       239.0004        186.0004
 -22830445.61749 -17775776.73149  20331066.3644   20331069.6784   20331066.2644
       242.0004        200.0004
  -5436587.92149  -4227981.10449  21890400.7824   21890404.8754   21890400.6884
       237.0004        186.0004
    836573.42949    827190.42949  24864905.2754   24864908.0584   24864903.7404
       197.0004        131.0004
 -10191804.75149  -7918412.14449  22264116.4464   22264118.7344   22264116.3494
       227.0004        169.0004
 -23441479.12649 -17691417.77649  20270065.6994   20270067.5654   20270065.7844
       244.0004        210.0004
   -908302.60549   -693971.91549  24760755.2004   24760759.9074   24760755.9774
       209.0004        142.0004
   -756069.03349   -578099.98449  24037054.2774   24037056.6614   24037054.0914
       214.0004        151.0004
 11 10  9  7  2 30.0000000  0  8G25G09G27G22G14G12G15G17
 -15551147.33149 -12103480.92049  21886104.9304   21886111.2374   21886105.6824
       238.0004        187.0004
 -22774553.93249 -17732224.78749  20341702.3384   20341705.7524   20341702.3204
       242.0004        201.0004
  -5375893.59649  -4180686.85549  21901950.4914   21901954.1514   21901950.3664
       236.0004        185.0004
    905805.10149    881137.17549  24878075.1794   24878082.9174   24878072.6554
       188.0004        127.0004
 -10250876.85849  -7964442.37149  22252874.5894   22252877.6084   22252874.5384
       227.0004        169.0004
 -23461078.15749 -17706689.75649  20266335.8214   20266337.6854   20266336.3354
       244.0004        211.0004
   -794316.69949   -605151.94649  24782445.2934   24782450.9124   24782446.2964
       207.0004        139.0004
   -667497.74649   -509083.47649  24053908.0154   24053912.1964   24053909.0854
       215.0004        152.0004
 11 10  9  7  3  0.0000000  0  8G25G09G27G22G14G12G15G17
 -15628125.19249 -12163463.66249  21871458.0754   21871462.6164   21871456.6724
       238.0004        186.0004
 -22718192.40049 -17688306.73049  20352427.0744   20352430.9044   20352427.2394
       242.0004        200.0004
  -5314920.42049  -4133175.31749  21913553.0514   21913557.6264   21913552.8114
       236.0004        185.0004
    975290.74849    935281.73549  24891299.5034   24891303.8984   24891299.3734
       196.0004        130.0004
 -10309454.53349  -8010087.32249  22241727.1124   22241730.8384   22241727.6024
       225.0004        169.0004
 -23480244.15149 -17721624.29749  20262688.6624   20262690.6154   20262688.9634
       244.0004        211.0004
   -680307.79749   -516314.01649  24804140.2864   24804145.7464   24804140.7984
       203.0004        134.0004
   -578627.86149   -439834.26749  24070819.8474   24070824.1834   24070818.9484
       213.0004        152.0004
 11 10  9  7  3 30.0000000  0  8G25G09G27G22G14G12G15G17
 -15704817.98749 -12223224.28849  21856863.1284   21856867.9244   21856862.8474
       237.0004        188.0004
 -22661361.95849 -17644023.30649  20363242.3594   20363245.4174   20363242.1144
       243.0004        200.0004
  -5253668.92349  -4085446.92749  21925209.1054   21925212.8664   21925209.0984
       235.0004        184.0004
   1045027.69949    989622.15349  24904570.4394   24904572.9484   24904571.4134
       198.0004        136.0004
 -10367535.28849  -8055345.04749  22230676.5664   22230677.7214   22230675.3954
       228.0004        170.0004
 -23498977.14549 -17736221.45049  20259123.6874   20259125.9764   20259124.3074
       244.0004        211.0004
   -566278.50049   -427460.22549  24825839.9184   24825845.3174   24825839.5084
       207.0004        138.0004
   -489461.90749   -370354.39749  24087786.2714   24087792.4984   24087788.1124
       214.0004        152.0004
 11 10  9  7  4  0.0000000  0  8G25G09G27G22G14G12G15G17
 -15781224.90249 -12282762.13749  21842322.4344   21842328.8674   21842323.1484
       236.0004        188.0004
 -22604063.60649 -17599375.27749  20374145.8744   20374148.8724   20374145.8964
       241.0004        199.0004
  -5192139.56249  -4037502.00949  21936918.0824   21936921.0744   21936918.5714
       236.0004        183.0004
   1115013.02949   1044156.14249  24917889.5884   24917892.0034   24917888.3344
       199.0004        137.0004
 -10425117.13749  -8100214.02849  22219719.1964   22219720.4684   22219718.4624
       229.0004        172.0004
 -23517277.73149 -17750481.65349  20255642.2054   20255643.3734   20255641.9634
       245.0004        211.0004
   -452231.43949   -338592.59949  24847541.3774   24847549.0364   24847542.3634
       200.0004        138.0004
   -400002.59349   -300645.91549  24104812.5944   24104815.5614   24104812.7674
       214.0004        153.0004
 11 10  9  7  4 30.0000000  0  8G25G09G27G22G14G12G15G17
 -15857345.53749 -12342076.91749  21827837.8384   21827843.6414   21827837.1944
       238.0004        188.0004
 -22546298.71449 -17554363.70549  20385137.2964   20385141.1754   20385137.4584
       241.0004        199.0004
  -5130333.25049  -3989341.28549  21948678.8754   21948682.7754   21948679.1424
       234.0004        184.0004
   1185243.59849   1098881.24549  24931251.9664   24931255.0134   24931252.0614
       197.0004        135.0004
 -10482198.36349  -8144692.91149  22208855.9474   22208858.5804   22208855.3424
       228.0004        171.0004
 -23535146.16849 -17764405.12449  20252241.1384   20252243.0434   20252241.6384
       245.0004        211.0004
   -338169.39949   -249713.37349  24869248.9184   24869254.2064   24869247.4294
       203.0004        138.0004
   -310252.96949   -230711.23349  24121890.8284   24121895.3454   24121891.1374
       215.0004        155.0004
 11 10  9  7  5  0.0000000  0  8G25G09G27G22G14G12G15G17
 -15933178.27849 -12401167.36849  21813407.8324   21813413.0034   21813407.4354
       239.0004        188.0004
 -22488067.42049 -17508988.70949  20396218.9044   20396222.2664   20396218.6404
       243.0004        198.0004
  -5068249.66549  -3940964.50649  21960493.4644   21960497.5464   21960493.0564
       235.0004        183.0004
   1255717.10849   1153795.61049  24944666.9894   24944667.1034   24944665.8384
       200.0004        131.0004
 -10538776.50849  -8188779.77149  22198088.9014   22198092.2064   22198088.8224
       228.0004        171.0004
 -23552582.52249 -17777991.90149  20248923.4064   20248925.1454   20248923.5764
       244.0004        211.0004
   -224093.72749   -160823.46849  24890956.5684   24890962.5604   24890956.0514
       209.0004        136.0004
   -220214.63849   -160551.56449  24139023.4814   24139029.3624   24139024.4694
       215.0004        154.0004
 11 10  9  7  5 30.0000000  0  8G25G09G27G22G14G12G15G17
 -16008721.98949 -12460032.59149  21799030.8994   21799037.2734   21799031.2604
       236.0004        189.0004
 -22429370.50649 -17463250.89649  20407388.2394   20407391.6364   20407388.4834
       242.0004        198.0004
  -5005889.01949  -3892371.83849  21972360.4664   21972364.7854   21972360.1874
       234.0004        183.0004
   1326430.92349   1208897.21649  24958118.9364   24958123.1604   24958121.9954
       192.0004        132.0004
 -10594849.13449  -8232472.73649  22187418.8864   22187422.3014   22187418.8324
       229.0004        172.0004
 -23569586.38649 -17791241.66249  20245687.5764   20245689.5224   20245687.0904
       244.0004        211.0004
   -110006.85749    -71924.77649  24912666.6344   24912672.6904   24912666.1354
       209.0004        141.0004
   -129889.80149    -90168.66649  24156212.2744   24156216.4414   24156213.2414
       216.0004        154.0004
 11 10  9  7  6  0.0000000  0  8G25G09G27G22G14G12G15G17
 -16083977.31249 -12518673.09849  21784710.8684   21784717.2674   21784710.8684
       238.0004        189.0004
 -22370210.70749 -17417152.36649  20418645.9314   20418650.1664   20418645.8244
       241.0004        198.0004
  -4943253.49549  -3843564.97549  21984280.8044   21984283.3194   21984280.1194
       235.0004        182.0004
   1397381.05649   1264183.01449  24971623.2834   24971623.6884   24971618.4824
       200.0004        129.0004
 -10650415.59849  -8275771.28049  22176844.9084   22176848.2894   22176844.5614
       225.0004        170.0004
 -23586159.36649 -17804155.67849  20242532.4564   20242535.7404   20242533.5874
       244.0004        211.0004
      4087.50249     16979.66349  24934378.4004   24934384.2454   24934377.1734
       206.0004        140.0004
    -39282.38649    -19565.57149  24173454.0114   24173458.6204   24173455.0254
       217.0004        152.0004
 11 10  9  7  6 30.0000000  0  8G25G09G27G22G14G12G15G17
 -16158941.80449 -12577086.98749  21770446.0044   21770451.8564   21770445.8584
       238.0004        190.0004
 -22310587.03149 -17370692.39249  20429992.0514   20429995.9624   20429992.4324
       242.0004        199.0004
  -4880341.72549  -3794542.85849  21996249.8284   21996255.3244   21996250.7744
       233.0004        182.0004
   1468566.45649   1319652.14849  24985170.8104   24985173.6104   24985168.2624
       203.0004        133.0004
 -10705472.08849  -8318672.44149  22166368.1904   22166371.0784   22166368.0084
       226.0004        171.0004
 -23602300.41149 -17816733.12449  20239462.2664   20239464.1454   20239462.5354
       244.0004        211.0004
    118188.20449    105889.02849  24956089.6994   24956097.1884   24956090.0444
       208.0004        139.0004
     51606.43749     51256.84049  24190751.1514   24190753.6814   24190750.6054
       217.0004        151.0004
 11 10  9  7  7  0.0000000  0  8G25G09G27G22G14G12G15G17
 -16233615.71649 -12635274.44649  21756235.7884   21756241.7074   21756236.2214
       238.0004        190.0004
 -22250501.77349 -17323872.73249  20441426.6474   20441429.4884   20441426.5694
       243.0004        198.0004
  -4817155.23649  -3745306.67149  22008275.3224   22008279.2054   22008275.3964
       234.0004        182.0004
   1539983.00249   1375301.35749  24998762.5054   24998763.1954   24998756.8444
       201.0004        131.0004
 -10760017.82149  -8361175.61549  22155989.0274   22155991.2264   22155989.1244
       227.0004        173.0004
 -23618010.60649 -17828974.84149  20236472.5304   20236474.6654   20236472.7204
       245.0004        211.0004
    232292.25449    194801.09049  24977802.6294   24977812.3744   24977803.2044
       200.0004        131.0004
    142773.19549    122295.77849  24208099.2974   24208102.8974   24208100.1794
       217.0004        151.0004
 11 10  9  7  7 30.0000000  0  8G25G09G27G22G14G12G15G17
 -16307997.38149 -12693234.17649  21742080.9474   21742087.3084   21742080.8254
       237.0004        189.0004
 -22189955.39549 -17276693.76549  20452947.7534   20452951.2624   20452947.9284
       243.0004        198.0004
  -4753693.72949  -3695856.19249  22020352.2794   22020354.8904   22020351.7144
       234.0004        181.0004
   1611628.76349   1431129.16749  25012392.0434   25012394.2474   25012390.5464
       198.0004        130.0004
 -10814050.16249  -8403278.74549  22145706.1314   22145709.2994   22145706.5084
       225.0004        171.0004
 -23633289.60849 -17840880.56449  20233564.4004   20233567.0984   20233564.6674
       244.0004        211.0004
    346398.11249    283714.52649  24999515.8294   24999525.7874   24999517.0314
       198.0004        132.0004
    234216.34849    193550.11249  24225499.8734   24225504.1124   24225499.9124
       214.0004        151.0004
 11 10  9  7  8  0.0000000  0  8G25G09G27G22G14G12G15G17
 -16382086.59149 -12750966.02749  21727982.6254   21727988.1404   21727982.3264
       238.0004        189.0004
 -22128949.32149 -17229156.60649  20464557.4034   20464560.1374   20464557.1654
       243.0004        198.0004
  -4689958.25049  -3646192.21949  22032479.1704   22032484.3334   22032479.5864
       233.0004        181.0004
   1683499.89349   1487132.62749  25026070.6634   25026072.0714   25026069.8784
       197.0004        130.0004
 -10867567.45949  -8444980.53749  22135522.3514   22135524.9794   22135523.0814
       225.0004        171.0004
 -23648138.40449 -17852451.06049  20230738.5684   20230741.4334   20230739.3224
       244.0004        212.0004
    460502.54249    372626.82749  25021232.5044   25021236.8194   25021231.7484
       200.0004        132.0004
    325932.68149    265017.30249  24242953.3044   24242956.7064   24242953.6694
       213.0004        150.0004
 11 10  9  7  8 30.0000000  0  8G25G09G27G22G14G12G15G17
 -16455882.10749 -12808469.02549  21713940.4634   21713945.4364   21713939.5674
       238.0004        189.0004
 -22067484.16049 -17181261.71649  20476253.7564   20476256.9984   20476253.8434
       243.0004        199.0004
  -4625948.88249  -3596314.84049  22044660.8664   22044665.1074   22044660.9264
       233.0004        182.0004
   1755594.45349   1543310.18149  25039787.5474   25039792.3534   25039788.5044
       195.0004        132.0004
 -10920567.29149  -8486279.11449  22125437.2474   22125440.7314   22125436.3944
       226.0004        171.0004
 -23662556.69049 -17863686.10549  20227995.6944   20227998.2304   20227996.0454
       245.0004        212.0004
    574603.76849    461536.66049  25042941.0344   25042951.3074   25042941.7034
       188.0004        126.0004
    417920.02349    336695.64449  24260457.6914   24260462.2624   24260459.2104
       213.0004        149.0004
 11 10  9  7  9  0.0000000  0  8G25G09G27G22G14G12G15G17
 -16529383.17949 -12865742.58049  21699952.9144   21699958.9524   21699952.4364
       237.0004        189.0004
 -22005561.08649 -17133009.99749  20488036.9024   20488041.0244   20488037.2334
       242.0004        199.0004
  -4561666.07749  -3546224.39149  22056893.3234   22056897.4224   22056893.8514
       233.0004        181.0004
   1827909.38449   1599659.40149  25053552.2194   25053552.5994   25053550.1394
       201.0004        135.0004
 -10973047.76149  -8527172.98549  22115450.8074   22115453.7424   22115449.6344
       227.0004        172.0004
 -23676545.11749 -17874586.18449  20225333.8214   20225336.0684   20225333.7884
       245.0004        212.0004
    688699.70649    550442.30649  25064653.4174   25064662.3004   25064658.2204
       190.0004        124.0004
    510175.79349    408583.17849  24278013.8284   24278018.3414   24278013.9184
       212.0004        148.0004
 11 10  9  7  9 30.0000000  0  8G25G09G27G22G14G12G15G17
 -16602588.74849 -12922785.86849  21686022.1304   21686027.8714   21686021.9494
       238.0004        190.0004
 -21943180.95849 -17084402.12949  20499907.4134   20499911.2194   20499907.6084
       242.0004        199.0004
  -4497110.06349  -3495921.04549  22069178.0234   22069182.3384   22069177.9884
       233.0004        181.0004
   1900441.96049   1656178.24749  25067352.2824   25067355.4654   25067353.1934
       201.0004        136.0004
 -11025006.81849  -8567660.56849  22105564.3834   22105566.2444   22105563.7014
       227.0004        172.0004
 -23690103.63449 -17885151.28049  20222752.7884   20222755.9174   20222753.4854
       244.0004        212.0004
    802787.44849    639341.56249  25086364.0974   25086370.4724   25086366.5964
       191.0004        124.0004
    602698.02949    480678.34849  24295620.3934   24295623.9264   24295620.9304
       211.0004        145.0004
 11 10  9  7 10  0.0000000  0  8G25G09G27G22G14G12G15G17
 -16675498.40849 -12979598.58649  21672146.4994   21672153.7454   21672147.6674
       236.0004        190.0004
 -21880345.10649 -17035439.16249  20511865.3424   20511868.4824   20511865.2834
       243.0004        198.0004
  -4432281.77849  -3445405.54449  22081514.4094   22081518.7504   22081514.3044
       234.0004        181.0004
   1973189.28149   1712864.45649  25081198.4664   25081198.4764   25081194.9354
       198.0004        133.0004
 -11076443.08649  -8607740.79149  22095775.1914   22095778.1654   22095774.2864
       226.0004        171.0004
 -23703232.76049 -17895381.77649  20220255.2564   20220257.4724   20220255.4124
       244.0004        212.0004
    916864.19649    728232.37549  25108072.7934   25108081.6664   25108071.4274
       190.0004        121.0004
    695483.40249    552978.57049  24313275.4204   24313281.1244   24313275.9954
       208.0004        144.0004
 11 10  9  7 10 30.0000000  0  8G25G09G27G22G14G12G15G17
 -16748110.88549 -13036179.73249  21658330.1094   21658336.0344   21658330.7444
       238.0004        191.0004
 -21817054.25749 -16986121.66649  20523908.6484   20523912.2564   20523908.9514
       242.0004        198.0004
  -4367181.32449  -3394677.96349  22093902.0834   22093906.6614   22093902.6404
       233.0004        182.0004
   2046148.44949   1769715.72549  25095081.5634   25095081.8444   25095079.1054
       200.0004        130.0004
 -11127353.83649  -8647411.50649  22086086.3194   22086089.4994   22086086.9354
       225.0004        172.0004
 -23715932.57249 -17905277.74449  20217838.6174   20217840.8434   20217838.9124
       245.0004        212.0004
   1030928.80559    817113.70659  25129777.7674                   25129774.2634
       176.0004        121.0004
    788530.05549    625482.36149  24330982.0924   24330987.2024   24330981.7284
       208.0004        141.0004
 11 10  9  7 11  0.0000000  0  8G25G09G27G22G14G12G15G17
 -16820425.40149 -13092528.69249  21644569.4264   21644575.3604   21644568.9694
       239.0004        190.0004
 -21753309.60649 -16936450.52749  20536038.6704   20536042.4094   20536038.8704
       241.0004        198.0004
  -4301809.16149  -3343738.65749  22106342.9064   22106346.0204   22106341.8144
       233.0004        179.0004
   2119316.93249   1826730.08349  25109005.2644   25109003.5164   25109004.8464
       202.0004        130.0004
 -11177737.43749  -8686671.45449  22076498.8974   22076502.0634   22076498.7454
       226.0004        172.0004
 -23728203.55849 -17914839.55149  20215504.2314   20215505.5044   20215503.9024
       246.0004        213.0004
   1144978.71549    905983.53249  25151482.0444
       183.0004        110.0004
    881835.59849    698187.91349  24348738.5184   24348742.9324   24348740.8534
       206.0004        139.0004
 11 10  9  7 11 30.0000000  0  8G25G09G27G22G14G12G15G17
 -16892441.74749 -13148645.32449  21630865.4804   21630871.2714   21630864.7554
       240.0004        191.0004
 -21689112.86849 -16886427.13149  20548256.1494   20548258.7084   20548255.5344
       243.0004        198.0004
  -4236166.35149  -3292588.47249  22118834.5304   22118838.1684   22118834.7924
       232.0004        181.0004
   2192690.94949   1883904.64649  25122967.7324   25122969.4934   25122966.8914
       201.0004        132.0004
 -11227592.52949  -8725519.58749  22067011.5474   22067014.2694   22067010.8584
       225.0004        169.0004
 -23740046.39949 -17924067.75049  20213249.6074   20213251.9294   20213250.0424
       246.0004        213.0004
   1259010.63449    994839.29849  25173184.7924
       187.0004        111.0004
    975396.53449    771092.45749  24366544.4584   24366545.5194   24366543.6374
       206.0004        138.0004
 11 10  9  7 12  0.0000000  0  8G25G09G27G22G14G12G15G17
 -16964158.90849 -13204528.81949  21617218.2254   21617223.9194   21617218.0744
       240.0004        191.0004
 -21624464.97049 -16836052.18049  20560557.5224   20560560.7864   20560557.5884
       242.0004        197.0004
  -4170253.33549  -3241227.72149  22131376.3174   22131381.0444   22131376.7964
       232.0004        181.0004
   2266268.24249   1941237.57449  25136969.9794   25136969.9094   25136967.7154
       198.0004        130.0004
 -11276916.98349  -8763954.22649  22057625.9664   22057628.2574   22057625.5824
       226.0004        170.0004
 -23751461.35449 -17932962.53149  20211077.3844   20211080.0994   20211077.7354
       245.0004        213.0004
   1373022.86959     48193.69959  25194877.0154
       178.0004         74.0004
   1069210.76849    844194.37649  24384394.1164   24384396.8274   24384396.8104
       205.0004        135.0004
 11 10  9  7 12 30.0000000  0  8G25G09G27G22G14G12G15G17
 -17035575.67149 -13260178.23949  21603627.3474   21603633.6194   21603627.4044
       240.0004        192.0004
 -21559366.63449 -16785326.23749  20572944.9394   20572948.4284   20572945.2434
       241.0004        197.0004
  -4104070.14449  -3189656.44249  22143971.3814   22143974.8024   22143971.4014
       234.0004        182.0004
   2340046.13049   1998726.78349  25151008.9834   25151007.7854   25151006.0824
       195.0004        129.0004
 -11325708.58849  -8801973.67749  22048341.4454   22048344.3644   22048340.9504
       226.0004        172.0004
 -23762448.56949 -17941524.01149  20208986.7884   20208989.1634   20208987.3204
       245.0004        213.0004
   1487013.03649    137046.87749  25216571.4244
       190.0004        105.0004
   1163276.44949    917492.22149  24402295.3274   24402296.4104   24402294.7954
       205.0004        134.0004
 11 10  9  7 13  0.0000000  0  8G25G09G27G22G14G12G15G17
 -17106690.78649 -13315592.61249  21590094.8174   21590100.6684   21590094.4794
       239.0004        192.0004
 -21493818.47349 -16734249.77649  20585418.2904   20585422.0634   20585418.6744
       242.0004        197.0004
  -4037616.85949  -3137874.72649  22156617.8454   22156621.0404   22156617.1864
       233.0004        182.0004
   2414022.50049   2056370.68449  25165082.2904   25165086.3624   25165082.1684
       193.0004        127.0004
 -11373964.91849  -8839576.01249  22039158.0944   22039161.5654   22039157.1514
       226.0004        172.0004
 -23773007.57749 -17949751.82749  20206978.1554   20206979.3844   20206978.4104
       246.0004        213.0004
   1600979.45049    225894.09049  25238254.7724
       188.0004        110.0004
   1257591.58949    990984.45949  24420241.0284   24420247.9514   24420241.4994
       200.0004        132.0004
 11 10  9  7 13 30.0000000  0  8G25G09G27G22G14G12G15G17
 -17177504.03249 -13370771.75849  21576618.5044   21576625.4304   21576619.1004
       238.0004        192.0004
 -21427822.30549 -16682824.20349  20597977.5354   20597980.9424   20597977.4064
       242.0004        197.0004
  -3970894.56949  -3085883.36649  22169314.1044   22169318.2684   22169313.5984
       233.0004        181.0004
   2488193.75149   2114166.43549  25179201.4164   25179199.2084   25179198.3914
       200.0004        128.0004
 -11421684.85449  -8876760.37149  22030077.9844   22030079.7374   22030076.6554
       227.0004        170.0004
 -23783139.63749 -17957646.94149  20205049.4624   20205051.4694   20205049.9864
       246.0004        213.0004
   1714919.39359     40675.20659  25259933.7534
       169.0004         74.0004
   1352152.63249   1064668.28349  24438234.6134   24438242.5294   24438233.8544
       199.0004        131.0004
 11 10  9  7 14  0.0000000  0  9G25G09G27G22G14G12G15G17G29
 -17248014.84449 -13425715.25149  21563202.6424   21563207.6904   21563202.3654
       240.0004        193.0004
 -21361379.28049 -16631050.45449  20610621.4384   20610624.8464   20610621.4824
       242.0004        197.0004
  -3903904.08049  -3033683.03349  22182061.5744   22182065.7384   22182061.3134
       232.0004        180.0004
   2562557.02549   2172111.75149  25193351.1104   25193351.7984   25193349.4504
       203.0004        132.0004
 -11468867.02049  -8913525.71049  22021099.1624   22021101.5154   22021098.3974
       227.0004        171.0004
 -23792845.08049 -17965209.63649  20203202.5664   20203204.6284   20203202.7444
       245.0004        213.0004
   1828827.53459    129430.54259  25281610.5864
       165.0004        108.0004
   1446956.77349   1138541.56149  24456277.2024   24456282.9804   24456274.2674
       198.0004        129.0004
   -107810.70049    -61701.55149  25098059.9714
       204.0004         74.0004
 11 10  9  7 14 30.0000000  0  9G25G09G27G22G14G12G15G17G29
 -17318222.04349 -13480422.15649  21549841.6074   21549847.8194   21549841.9304
       239.0004        192.0004
 -21294490.29749 -16578929.19449  20623350.2054   20623353.5444   20623350.1204
       241.0004        197.0004
  -3836645.40049  -2981273.72949  22194860.8844   22194864.5174   22194860.9954
       234.0004        179.0004
   2637109.31949   2230204.42449  25207537.1134   25207534.3244   25207536.4534
       200.0004        131.0004
 -11515508.75649  -8949869.94049  22012223.7474   22012225.9114   22012224.0314
       228.0004        172.0004
 -23802124.05049 -17972440.01749  20201437.0384   20201438.8774   20201437.3854
       246.0004        213.0004
   1942707.34059    218161.13559  25303289.9364
       180.0004        109.0004
   1542002.60349   1212603.12649  24474365.1754   24474369.1094   24474365.0304
       199.0004        129.0004
   -224969.87749   -152995.62049  25075763.6434
       204.0004        102.0004
 11 10  9  7 15  0.0000000  0  8G25G09G27G22G14G12G15G17
 -17388124.83149 -13534891.87049  21536539.1394   21536545.0874   21536539.9094
       239.0004        193.0004
 -21227156.76449 -16526461.53049  20636162.0094   20636166.0834   20636162.3154
       240.0004        196.0004
  -3769119.19649  -2928655.94449  22207709.5654   22207714.7314   22207710.1974
       232.0004        179.0004
   2711848.40649   2288442.66849  25221760.1114   25221760.3654   25221760.4464
       205.0004        131.0004
 -11561608.47449  -8985791.82049  22003451.0954   22003453.3694   22003450.8424
       228.0004        170.0004
 -23810976.95349 -17979338.39049  20199753.1234   20199754.2704   20199753.0324
       246.0004        213.0004
   2056553.84159     34727.35859  25324957.6434
       171.0004         74.0004
   1637287.30749   1286850.85849  24492495.9814   24492496.9144   24492494.1534
       196.0004        129.0004
 11 10  9  7 15 30.0000000  0  7G25G09G27G22G14G12G17
 -17457722.32349 -13589123.67849  21523296.1664   21523302.0114   21523295.3264
       241.0004        194.0004
 -21159379.44649 -16473648.07349  20649060.6824   20649063.8324   20649060.1244
       240.0004        196.0004
  -3701325.85349  -2875830.01449  22220611.3264   22220615.9364   22220611.1504
       233.0004        179.0004
   2786771.32749   2346824.11049  25236020.1014   25236017.2884   25236019.1804
       200.0004        127.0004
 -11607164.32349  -9021289.89449  21994781.4114   21994785.0434   21994781.3014
       226.0004        172.0004
 -23819404.07349 -17985904.98649  20198149.0684   20198150.4994   20198148.9924
       247.0004        213.0004
   1732808.71549   1361283.00449  24510672.8574   24510677.6644   24510671.0564
       195.0004        128.0004
 11 10  9  7 16  0.0000000  0  7G25G09G27G22G14G12G17
 -17527014.03649 -13643117.21349  21510110.9394   21510116.4414   21510110.5904
       242.0004        195.0004
 -21091160.14149 -16420490.20749  20662042.6824   20662045.5614   20662042.0124
       240.0004        196.0004
  -3633266.20949  -2822796.56549  22233562.4634   22233566.7014   22233561.9404
       231.0004        178.0004
   2861874.56149   2405346.08249  25250309.5294   25250311.0034   25250306.6454
       200.0004        130.0004
 -11652174.74249  -9056362.95449  21986216.7844   21986220.1334   21986216.7904
       228.0004        174.0004
 -23827405.75949 -17992140.07249  20196625.3614   20196627.6504   20196625.8804
       246.0004        212.0004
   1828563.49149   1435897.04349  24528894.5534   24528899.3614   24528895.5264
       198.0004        128.0004
 11 10  9  7 16 30.0000000  0  7G25G09G27G22G14G12G17
 -17595999.62149 -13696872.21449  21496983.6704   21496988.6144   21496983.1944
       242.0004        195.0004
 -21022500.43349 -16366989.16149  20675107.9384   20675111.4634   20675107.3024
       240.0004        196.0004
  -3564941.33349  -2769556.45049  22246564.9074   22246568.5934   22246564.2334
       233.0004        177.0004
   2937155.13949   2464006.24549  25264635.2944   25264635.3344   25264633.7084
       200.0004        129.0004
 -11696638.38249  -9091009.97849  21977756.4954   21977758.4714   21977755.4614
       229.0004        172.0004
 -23834983.25249 -17998044.62349  20195183.2284   20195185.9944   20195184.3844
       245.0004        213.0004
   1924549.12449   1510690.94249  24547158.3944   24547164.6924   24547158.7314
       194.0004        125.0004
 11 10  9  7 17  0.0000000  0  7G25G09G27G22G14G12G17
 -17664677.52849 -13750387.46849  21483913.8274   21483919.4034   21483913.7494
       241.0004        194.0004
 -20953400.50449 -16313145.09849  20688256.7914   20688260.2544   20688256.3334
       243.0004        194.0004
  -3496350.94649  -2716109.44349  22259616.3044   22259620.7274   22259616.5894
       232.0004        177.0004
   3012611.08849   2522803.05949  25278991.2764   25278994.4614   25278990.2934
       202.0004        131.0004
 -11740552.84749  -9125229.06049  21969398.2954   21969401.1924   21969399.3604
       228.0004        173.0004
 -23842136.16449 -18003618.33149  20193822.8794   20193824.9974   20193823.1104
       246.0004        213.0004
   2020763.93649   1585663.46049  24565467.3604   24565475.9554   24565468.9344
       198.0004        126.0004
 11 10  9  7 17 30.0000000  0  7G25G09G27G22G14G12G17
 -17733046.67149 -13803662.12449  21470903.3404   21470908.5994   21470903.3934
       240.0004        194.0004
 -20883861.44049 -16258958.84549  20701490.0754   20701493.0244   20701489.7694
       243.0004        194.0004
  -3427495.37149  -2662455.77749  22272718.9214   22272723.4794   22272719.2144
       232.0004        176.0004
   3088239.63149   2581734.35749  25293384.5974   25293386.4734   25293381.5394
       199.0004        131.0004
 -11783916.34649  -9159018.81549  21961147.7394   21961150.0924   21961147.5504
       230.0004        174.0004
 -23848864.63549 -18008861.29749  20192542.5434   20192544.4104   20192542.6954
       246.0004        213.0004
   2117205.64449   1660812.75449  24583821.6784   24583827.6704   24583818.1974
       195.0004        128.0004
 11 10  9  7 18  0.0000000  0  7G25G09G27G22G14G12G17
 -17801107.04749 -13856696.17249  21457953.2094   21457957.4164   21457952.2024
       242.0004        194.0004
 -20813885.24849 -16204431.97749  20714806.4434   20714809.1884   20714806.3624
       243.0004        195.0004
  -3358376.07449  -2608596.62249  22285872.9344   22285876.5964   22285871.9854
       231.0004        177.0004
   3164037.62149   2640797.68049  25307807.1064   25307808.5184   25307805.1914
       194.0004        130.0004
 -11826727.34749  -9192378.05449  21953000.5114   21953004.1894   21953000.4104
       228.0004        174.0004
 -23855170.24249 -18013774.76649  20191342.9744   20191344.4974   20191342.7314
       246.0004        213.0004
   2213871.11849   1736136.39849  24602216.2914   24602221.9854   24602215.6844
       194.0004        127.0004
 11 10  9  7 18 30.0000000  0  7G25G09G27G22G14G12G17
 -17868858.24949 -13909489.31149  21445059.5624   21445064.8074   21445059.5164
       241.0004        194.0004
 -20743473.56149 -16149565.76349  20728204.8904   20728207.9644   20728204.7844
       242.0004        194.0004
  -3288993.77949  -2554532.54749  22299074.3434   22299079.6414   22299074.9754
       231.0004        176.0004
   3240001.40649   2699990.20049  25322263.8664   25322263.8944   25322261.8114
       199.0004        128.0004
 -11868984.95049  -9225306.09249  21944959.4514   21944961.6604   21944959.5134
       230.0004        175.0004
 -23861052.87249 -18018358.64949  20190222.2964   20190225.2924   20190223.3524
       245.0004        213.0004
   2310757.42749   1811632.07449  24620653.2764   24620656.3654   24620652.2384
       194.0004        124.0004
 11 10  9  7 19  0.0000000  0  7G25G09G27G22G14G12G17
 -17936298.17049 -13962039.90449  21432226.7364   21432231.9744   21432225.9964
       241.0004        194.0004
 -20672626.31249 -16094360.14449  20741686.1584   20741690.4614   20741686.6054
       242.0004        193.0004
  -3219347.72249  -2500262.94649  22312328.5584   22312334.0594   22312328.1874
       230.0004        176.0004
   3316129.51649   2759310.78049  25336749.4344   25336753.5174   25336748.7054
       193.0004        126.0004
 -11910686.27549  -9257800.65849  21937024.4854   21937026.2884   21937023.6874
       229.0004        174.0004
 -23866512.19349 -18022612.67749  20189184.2364   20189186.6854   20189184.4374
       246.0004        214.0004
   2407863.60349   1887299.10949  24639132.5034   24639138.4454   24639131.4564
       193.0004        126.0004
 11 10  9  7 19 30.0000000  0  8G25G09G27G22G04G14G12G17
 -18003426.96549 -14014348.04149  21419451.7134   21419457.6464   21419451.5604
       240.0004        194.0004
 -20601345.37749 -16038816.59149  20755250.1384   20755254.4694   20755250.9344
       241.0004        193.0004
  -3149439.63149  -2445789.15349  22325632.3634   22325635.2904   22325631.5454
       232.0004        176.0004
   3392418.53449   2818756.75649  25351270.9504   25351268.4664   25351267.5644
       192.0004        125.0004
    -20245.91749     -9126.19649  23629751.8754
       206.0004         74.0004
 -11951830.69349  -9289861.25849  21929194.7814   21929197.3294   21929193.7714
       231.0004        174.0004
 -23871549.38249 -18026537.76549  20188225.5474   20188228.0004   20188226.0174
       246.0004        214.0004
   2505186.23149   1963134.81049  24657653.6774   24657655.9194   24657652.4984
       193.0004        127.0004
 11 10  9  7 20  0.0000000  0  8G25G09G27G22G04G14G12G17
 -18070243.57749 -14066412.92049  21406736.5854   21406742.5574   21406736.2664
       240.0004        194.0004
 -20529631.84649 -15982935.95649  20768897.8464   20768901.1204   20768897.7644
       241.0004        193.0004
  -3079269.64249  -2391111.28549  22338984.6894   22338989.2614   22338984.5394
       231.0004        176.0004
   3468865.45549   2878325.72049  25365811.5104   25365817.9664   25365808.7214
       188.0004        122.0004
    -62321.26449    -41912.16349  23621743.6294
       207.0004        126.0004
 -11992415.74149  -9321486.01449  21921471.7494   21921473.7024   21921471.6694
       231.0004        176.0004
 -23876164.53049 -18030133.99249  20187347.4324   20187349.7974   20187347.9214
       245.0004        214.0004
   2602723.06849   2039137.45549  24676215.1454   24676217.2894   24676214.5114
       196.0004        128.0004
 11 10  9  7 20 30.0000000  0  8G25G09G27G22G04G14G12G17
 -18136747.32049 -14118234.01949  21394081.0584   21394087.0674   21394081.2284
       240.0004        195.0004
 -20457487.30249 -15926719.47849  20782625.3634   20782629.8394   20782626.1694
       240.0004        193.0004
  -3008838.31649  -2336229.77649  22352386.9194   22352392.0724   22352387.1274
       231.0004        177.0004
   3545467.51349   2938015.60249  25380390.2964                   25380391.3694
       185.0004        120.0004
   -103877.68149    -74293.85249  23613835.5104   23613839.1314
       204.0004        133.0004
 -12032440.19149  -9352673.91249  21913854.5414   21913858.0664   21913854.7524
       228.0004        175.0004
 -23880358.47249 -18033402.00449  20186549.5334   20186551.7464   20186549.7264
       246.0004        214.0004
   2700471.97149   2115305.30949  24694813.4924   24694820.4544   24694815.9854
       195.0004        128.0004
 11 10  9  7 21  0.0000000  0  8G25G09G27G22G04G14G12G17
 -18202937.91149 -14169811.08749  21381485.1094   21381492.1234   21381485.3824
       240.0004        195.0004
 -20384913.32749 -15870168.37249  20796436.4754   20796440.3784   20796436.2444
       241.0004        193.0004
  -2938146.67349  -2281145.41249  22365839.9074   22365843.4584   22365839.2234
       231.0004        176.0004
   3622221.56649   2997823.97349  25394994.1294
       177.0004        117.0004
   -144913.77749   -106269.92749  23606025.6574   23606033.0404   23606024.1844
       204.0004        135.0004
 -12071902.76149  -9383423.97049  21906345.0514   21906348.1604   21906344.7704
       230.0004        176.0004
 -23884131.72349 -18036342.20149  20185831.4314   20185833.6704   20185831.5684
       246.0004        214.0004
   2798429.36549   2191635.60949  24713457.0714   24713458.5184   24713460.9244
       195.0004        127.0004
 11 10  9  7 21 30.0000000  0  8G25G09G27G22G04G14G12G17
 -18268813.63649 -14221142.81849  21368949.7254   21368956.2434   21368949.4114
       241.0004        195.0004
 -20311910.35749 -15813282.97749  20810328.5834   20810332.0794   20810328.3484
       241.0004        192.0004
  -2867194.36649  -2225857.94949  22379340.7474   22379345.1404   22379340.9434
       229.0004        174.0004
   3699125.93449   3057749.44849  25409628.0644
       179.0004        117.0004
   -185426.09249   -137837.91449  23598315.5974   23598320.8244   23598314.8404
       204.0004        135.0004
 -12110801.19449  -9413734.48149  21898943.7354   21898944.9064   21898944.0614
       231.0004        176.0004
 -23887484.30649 -18038954.61049  20185193.1204   20185195.5124   20185193.3684
       246.0004        214.0004
   2896594.00249   2268127.48649  24732137.7494   24732140.2824   24732134.5024
       197.0004        127.0004
 11 10  9  7 22  0.0000000  0  8G25G09G27G22G04G14G12G17
 -18334374.85149 -14272229.47149  21356473.9494   21356479.9104   21356474.3174
       241.0004        196.0004
 -20238480.75049 -15756065.14549  20824301.9924   20824305.7644   20824301.7684
       241.0004        193.0004
  -2795983.15049  -2170368.74749  22392892.4214   22392897.2184   22392891.5044
       230.0004        174.0004
   3776176.22749     55507.42449  25424291.8744
       175.0004         93.0004
   -225414.02349   -168997.31149  23590705.5364   23590710.9764   23590706.9994
       202.0004        132.0004
 -12149134.75349  -9443604.80249  21891648.3644   21891651.3614   21891648.4214
       230.0004        176.0004
 -23890417.54149 -18041240.26049  20184634.3404   20184637.3554   20184635.2874
       245.0004        214.0004
   2994962.59949   2344778.20249  24750856.1584   24750860.6904   24750856.1934
       196.0004        127.0004
 11 10  9  7 22 30.0000000  0  9G25G09G27G22G04G14G12G17G29
 -18399619.87049 -14323069.74249  21344058.7284   21344063.9934   21344058.6844
       241.0004        195.0004
 -20164624.76749 -15698515.05449  20838356.2994   20838359.8254   20838356.1424
       242.0004        193.0004
  -2724512.84649  -2114677.64049  22406492.1294   22406497.0674   22406492.2204
       229.0004        174.0004
   3853370.85959    115510.80859  25438983.2154
       178.0004        108.0004
   -264874.40949   -199745.61249  23583198.2624   23583205.0634   23583198.8344
       199.0004        128.0004
 -12186901.15549  -9473033.18149  21884462.3924   21884464.4304   21884462.5014
       229.0004        176.0004
 -23892930.80249 -18043198.64549  20184157.6034   20184159.3474   20184157.3924
       246.0004        214.0004
   3093533.58049   2421586.64049  24769611.6694   24769613.2634   24769612.3454
       194.0004        127.0004
   -321371.12649   -225315.87949  24719532.8444
       208.0004        110.0004
 11 10  9  7 23  0.0000000  0  9G25G09G27G22G04G14G12G17G29
 -18464549.14649 -14373663.97349  21331703.4484   21331708.6084   21331702.7764
       242.0004        196.0004
 -20090344.93949 -15640634.70949  20852491.1184   20852495.2704   20852491.5654
       240.0004        193.0004
  -2652785.17249  -2058786.00549  22420141.4744   22420147.5424   22420141.8594
       230.0004        176.0004
   3930705.38249    175623.12449  25453702.0604
       179.0004        111.0004
   -303806.51449   -230082.24649  23575788.8234   23575796.1194   23575791.0174
       204.0004        132.0004
 -12224099.87449  -9502019.20949  21877383.4304   21877386.4414   21877383.2024
       228.0004        175.0004
 -23895025.92749 -18044831.21349  20183758.1494   20183760.7094   20183758.3404
       246.0004        214.0004
   3192303.31049   2498549.96849  24788405.1884   24788413.0874   24788405.6614
       192.0004        127.0004
   -438097.94149    -37182.18449  24697319.1344
       205.0004         74.0004
 11 10  9  7 23 30.0000000  0  8G25G09G27G22G04G14G12G17
 -18529160.61149 -14424010.55949  21319406.8874   21319413.8154   21319407.5584
       241.0004        196.0004
 -20015641.18949 -15582424.04449  20866706.6964   20866710.3654   20866707.3124
       241.0004        192.0004
  -2580799.43349  -2002693.26749  22433842.1524   22433845.6654   22433842.1204
       231.0004        175.0004
   4008178.97359     51792.52859  25468441.7094
       176.0004         79.0004
   -342207.02049   -260004.66849  23568480.6844   23568487.6084   23568481.3834
       198.0004        133.0004
 -12260728.31849  -9530560.87349  21870413.5484   21870415.4574   21870413.5694
       229.0004        175.0004
 -23896702.27249 -18046137.46549  20183439.0874   20183441.5394   20183439.5804
       246.0004        214.0004
   3291270.78149   2575667.37049  24807239.1414   24807248.4284   24807241.2214
       191.0004        126.0004
 11 10  9  7 24  0.0000000  0  9G25G09G27G22G04G14G12G17G29
 -18593453.87449 -14474109.21149  21307173.3784   21307179.1124   21307173.4804
       243.0004        196.0004
 -19940515.22249 -15523884.37949  20881002.6684   20881007.1404   20881002.9734
       241.0004        192.0004
  -2508556.48549  -1946400.11549  22447588.4484   22447592.0484   22447589.0954
       230.0004        174.0004
   4085788.10149    112284.05649  25483214.7734
       180.0004        109.0004
   -380074.14549   -289511.44849  23561274.9284   23561278.8184   23561275.6894
       200.0004        132.0004
 -12296785.53149  -9558657.42449  21863551.4584   21863554.1294   21863551.4064
       229.0004        176.0004
 -23897960.43449 -18047117.85449  20183199.9754   20183202.4144   20183200.0754
       246.0004        214.0004
   3390433.09849   2652936.59649  24826111.9214   24826115.1684   24826111.5904
       194.0004        125.0004
   -671410.21849   -218984.98549  24652922.2544   24652916.9934
       207.0004        128.0004
 11 10  9  7 24 30.0000000  0  8G25G09G27G04G14G12G17G29
 -18657428.61649 -14523959.65249  21295000.0734   21295005.0164   21294999.3604
       244.0004        197.0004
 -19864968.98949 -15465017.22149  20895378.2324   20895382.3364   20895378.3504
       239.0004        190.0004
  -2436057.43949  -1889907.39149  22461384.5914   22461389.0094   22461384.6424
       230.0004        173.0004
   -417406.49249   -318601.57749  23554172.8774   23554178.2284   23554172.0644
       207.0004        136.0004
 -12332269.90949  -9586307.58549  21856799.3124   21856801.5234   21856797.8914
       228.0004        175.0004
 -23898801.36949 -18047773.13349  20183040.3444   20183042.2654   20183040.4194
       247.0004        215.0004
   3489787.23849   2730355.28749  24845016.8024   24845024.2014   24845016.1754
       192.0004        125.0004
   -787991.95149   -309827.75649  24630734.8614
       202.0004        121.0004
 11 10  9  7 25  0.0000000  0  8G25G09G27G04G14G12G17G29
 -18721083.85149 -14573561.13249  21282886.4534   21282892.3124   21282886.0724
       242.0004        197.0004
 -19789003.63449 -15405823.47449  20909834.9244   20909838.3184   20909834.4304
       241.0004        191.0004
  -2363302.74049  -1833215.46549  22475229.1964   22475233.3064   22475229.5024
       229.0004        173.0004
   -454201.71149   -347273.17949  23547168.7134   23547172.5584   23547171.5324
       205.0004        135.0004
 -12367179.95649  -9613510.24049  21850156.2934   21850159.2334   21850155.8104
       229.0004        177.0004
 -23899225.35949 -18048103.50849  20182960.1514   20182961.6034   20182959.9164
       248.0004        214.0004
   3589331.17549   2807921.87749  24863961.3304   24863963.1474   24863963.9174
       194.0004        124.0004
   -904520.84249   -400629.23849  24608561.4354   24608571.6074   24608561.2544
       206.0004        140.0004
 11 10  9  7 25 30.0000000  0  8G25G09G27G04G14G12G17G29
 -18784419.31349 -14622913.44349  21270834.7194   21270839.5934   21270833.9984
       243.0004        197.0004
 -19712620.91349 -15346304.51249  20924370.4084   20924373.2964   20924370.2094
       241.0004        192.0004
  -2290293.54549  -1776325.22449  22489123.0204   22489126.2284   22489122.1874
       230.0004        173.0004
   -490458.58849   -375525.24749  23540270.2084   23540275.6574   23540272.7074
       204.0004        135.0004
 -12401514.76449  -9640264.62949  21843621.3134   21843625.3984   21843622.7274
       229.0004        178.0004
 -23899233.18749 -18048109.61649  20182957.8254   20182960.0084   20182957.7724
       246.0004        214.0004
   3689061.99149   2885634.08549  24882937.2574   24882943.9444   24882934.7734
       185.0004        123.0004
  -1020994.91549   -491388.12149  24586398.8434   24586405.3054   24586397.8734
       209.0004        142.0004
 11 10  9  7 26  0.0000000  0  8G25G09G27G04G14G12G17G29
 -18847433.72649 -14672015.58049  21258843.1404   21258848.8234   21258842.6124
       243.0004        198.0004
 -19635821.52449 -15286460.86749  20938984.0084   20938988.1624   20938983.9744
       239.0004        192.0004
  -2217029.92449  -1719236.74249  22503065.0004   22503068.3344   22503064.6584
       231.0004        172.0004
   -526174.28549   -403355.60249  23533473.4154   23533477.0574   23533471.3934
       207.0004        135.0004
 -12435272.41349  -9666569.29849  21837198.5514   21837200.9454   21837198.6304
       228.0004        177.0004
 -23898824.82649 -18047791.42149  20183035.1604   20183037.6304   20183035.6674
       246.0004        214.0004
   3788978.07449   2963490.66649  24901948.8014                   24901949.5604
       181.0004        119.0004
  -1137411.42449   -582102.24349  24564244.2654   24564244.9994   24564243.3814
       201.0004        134.0004
 11 10  9  7 26 30.0000000  0  8G25G09G27G04G14G12G17G29
 -18910126.02049 -14720866.71849  21246913.7414   21246918.5614   21246912.8544
       242.0004        197.0004
 -19558606.48449 -15226293.34949  20953678.1024   20953681.9744   20953677.8954
       240.0004        191.0004
  -2143512.09849  -1661950.18349  22517054.0054   22517058.5794   22517053.9874
       230.0004        174.0004
   -561346.93449   -430762.82349  23526782.0324   23526786.3944   23526782.4904
       208.0004        137.0004
 -12468451.21049  -9692422.92149  21830885.0454   21830887.7444   21830884.5604
       229.0004        176.0004
 -23898000.81449 -18047149.34449  20183192.0334   20183194.3804   20183192.3974
       246.0004        214.0004
   3889077.37049   3041490.04149  24920998.5344                   24920994.2544
       182.0004        119.0004
  -1253767.90149   -672769.57649  24542100.3004   24542107.9414   24542100.4804
       201.0004        135.0004
 11 10  9  7 27  0.0000000  0  8G25G09G27G04G14G12G17G29
 -18972497.05849 -14769467.52849  21235044.2374   21235049.4564   21235043.4384
       243.0004        197.0004
 -19480978.78249 -15165804.27549  20968450.1714   20968453.9984   20968450.4924
       240.0004        191.0004
  -2069742.45349  -1604467.39949  22531091.6914   22531096.4674   22531091.6624
       229.0004        174.0004
   -595975.97749   -457746.52349  23520189.9654   23520195.8934   23520189.6744
       204.0004        134.0004
 -12501051.28049  -9717825.58149  21824682.5694   21824684.3274   21824682.1234
       230.0004        178.0004
 -23896763.26449 -18046185.02849  20183427.8324   20183430.1044   20183428.1444
       246.0004        215.0004
   3989355.72559   3119628.91859  24940080.4374
       172.0004        116.0004
  -1370063.45549   -763389.32749  24519970.9544   24519977.9954   24519971.2994
       203.0004        145.0004
 11 10  9  7 27 30.0000000  0  8G25G09G27G04G14G12G17G29
 -19034543.96849 -14817815.76649  21223236.3634   21223242.4874   21223236.6504
       241.0004        197.0004
 -19402937.59249 -15104992.99949  20983300.4234   20983304.4134   20983300.8314
       239.0004        190.0004
  -1995719.35249  -1546787.11349  22545177.4074   22545182.8264   22545178.3334
       229.0004        173.0004
   -630057.43249   -484303.45949  23513705.0924   23513709.9794   23513705.6954
       208.0004        137.0004
 -12533069.11449  -9742774.54849  21818588.7874   21818591.0564   21818588.2434
       229.0004        177.0004
 -23895110.24749 -18044896.97249  20183742.6384   20183744.3964   20183742.9484
       247.0004        215.0004
   4089813.05759     30675.33459  24959202.7874
       169.0004         74.0004
  -1486293.81749   -853958.26349  24497851.1864   24497859.0354   24497851.4274
       198.0004        136.0004
 11 10  9  7 28  0.0000000  0  8G25G09G27G04G14G12G17G29
 -19096267.71049 -14865912.18849  21211491.5134   21211495.9024   21211491.1934
       242.0004        197.0004
 -19324485.83549 -15043861.80149  20998229.7184   20998233.6084   20998229.6574
       239.0004        191.0004
  -1921445.27849  -1488911.27149  22559312.0414   22559316.0174   22559311.6884
       228.0004        172.0004
   -663591.10049   -510433.54449  23507323.9544   23507328.5984   23507324.8304
       212.0004        140.0004
 -12564504.93149  -9767270.00049  21812606.2514   21812609.1274   21812604.7724
       228.0004        175.0004
 -23893044.10749 -18043286.99949  20184135.4944   20184137.6184   20184135.6044
       246.0004        214.0004
   4190445.28459    109059.64859  24978353.1654
       164.0004        111.0004
  -1602457.88249   -944475.63549  24475750.8464   24475754.1474   24475751.1554
       209.0004        135.0004
 11 10  9  7 28 30.0000000  0  8G25G09G27G04G14G12G17G29
 -19157666.88449 -14913755.69749  21199807.0484   21199812.6254   21199807.4994
       242.0004        197.0004
 -19245624.62549 -14982411.55649  21013236.6474   21013240.4584   21013236.2354
       239.0004        190.0004
  -1846920.27549  -1430839.90349  22573493.4484   22573498.1174   22573493.8764
       227.0004        172.0004
   -696574.67849   -536135.03449  23501046.7554   23501050.7014   23501048.3794
       211.0004        142.0004
 -12595356.94549  -9791310.54449  21806735.6734   21806738.5424   21806735.8704
       230.0004        178.0004
 -23890564.67049 -18041354.98249  20184606.9294   20184609.5164   20184607.6274
       246.0004        214.0004
   4291250.67259    187553.85759  24997533.9484
       165.0004        112.0004
  -1718553.01749  -1034939.32549  24453655.6104   24453661.4764   24453656.7794
       204.0004        144.0004
 11 10  9  7 29  0.0000000  0  8G25G09G27G04G14G12G17G29
 -19218741.35249 -14961346.18349  21188185.6274   21188190.6224   21188185.2974
       243.0004        198.0004
 -19166355.78549 -14920643.66249  21028321.0604   21028324.8024   21028321.1084
       239.0004        189.0004
  -1772145.25649  -1372573.70449  22587723.4734   22587727.8974   22587723.2894
       228.0004        172.0004
   -729006.85749   -561406.80749  23494875.5434   23494881.4134   23494875.5954
       214.0004        145.0004
 -12625624.37649  -9814895.55849  21800975.3414   21800979.1694   21800975.7584
       227.0004        177.0004
 -23887672.91949 -18039101.67749  20185157.4974   20185159.7934   20185157.9554
       246.0004        214.0004
   4392226.34559     24339.81459  25016746.6814
       171.0004         74.0004
  -1834577.48349  -1125347.73249  24431575.8144   24431582.5444   24431576.1194
       203.0004        140.0004
 11 10  9  7 29 30.0000000  0  8G25G09G27G04G14G12G17G29
 -19279489.80049 -15008682.63549  21176624.9704   21176630.4014   21176624.8514
       242.0004        198.0004
 -19086680.15449 -14858558.78749  21043482.6774   21043486.2504   21043482.7724
       238.0004        188.0004
  -1697120.16649  -1314112.68149  22601999.5324   22602004.3034   22601999.2344
       226.0004        170.0004
   -760885.28449   -586247.12549  23488809.9404   23488814.9674   23488810.3394
       216.0004        146.0004
 -12655305.42449  -9838023.65749  21795327.8774   21795330.1014   21795328.1034
       230.0004        177.0004
 -23884368.92849 -18036527.15049  20185786.7444   20185788.3024   20185786.9424
       247.0004        215.0004
   4493370.46959    103092.54859  25035999.6694
       170.0004        107.0004
  -1950528.10849  -1215698.68649  24409512.5734   24409520.8154   24409513.5034
       213.0004        138.0004
 11 10  9  7 30  0.0000000  0  8G25G09G27G04G14G12G17G29
 -19339912.08549 -15055764.93149  21165126.9944   21165132.5254   21165127.1174
       242.0004        198.0004
 -19006599.72949 -14796158.49649  21058721.5204   21058725.3254   21058721.8534
       239.0004        189.0004
  -1621846.62049  -1255458.01649  22616322.9404   22616328.0064   22616323.0914
       226.0004        172.0004
   -792208.79849   -610655.05649  23482848.9604   23482853.0534   23482849.1424
       215.0004        145.0004
 -12684399.30749  -9860694.23049  21789791.8084   21789794.0724   21789790.9664
       229.0004        178.0004
 -23880653.78949 -18033632.24049  20186493.6754   20186495.3174   20186493.6614
       247.0004        214.0004
   4594680.61559    181905.70859  25055278.9204
       163.0004        109.0004
  -2066403.27849  -1305991.14949  24387463.5034   24387466.5364   24387463.3844
       202.0004        138.0004
 11 10  9  7 30 30.0000000  0  7G25G09G27G04G14G12G29
 -19400007.40849 -15102592.44749  21153690.7724   21153697.1314   21153690.8734
       242.0004        198.0004
 -18926115.86249 -14733443.83549  21074037.2044   21074040.2664   21074036.9824
       237.0004        187.0004
  -1546325.19949  -1196610.22549  22630696.1554   22630699.1594   22630695.2544
       227.0004        169.0004
   -822975.54549   -634629.11449  23476993.4154   23476999.6594   23476993.2564
       213.0004        145.0004
 -12712904.65149  -9882906.18049  21784366.4394   21784370.1054   21784366.3054
       228.0004        178.0004
 -23876528.18749 -18030417.48649  20187278.2954   20187280.5634   20187278.7044
       246.0004        214.0004
  -2182200.77449  -1396222.64049  24365427.3964   24365433.5134   24365426.5104
       209.0004        145.0004
 11 10  9  7 31  0.0000000  0  7G25G09G27G04G14G12G29
 -19459775.10549 -15149164.68749  21142317.1744   21142323.5414   21142317.1204
       242.0004        199.0004
 -18845229.85249 -14670415.82049  21089429.8364   21089433.1224   21089428.5514
       237.0004        187.0004
  -1470556.42849  -1137569.67849  22645112.8614   22645119.0034   22645113.0724
       224.0004        168.0004
   -853183.77649   -658167.97549  23471245.5694   23471250.0524   23471245.8994
       216.0004        145.0004
 -12740820.42149  -9904658.75249  21779055.1334   21779057.2344   21779055.7644
       230.0004        178.0004
 -23871992.48049 -18026883.18749  20188141.8124   20188143.6454   20188141.6314
       246.0004        214.0004
  -2297917.92949  -1486391.65449  24343409.5884   24343414.7284   24343406.8534
       215.0004        147.0004
 11 10  9  7 31 30.0000000  0  7G25G09G27G04G14G12G29
 -19519214.15849 -15195480.83349  21131005.7524   21131012.4364   21131006.0874
       241.0004        199.0004
 -18763942.97049 -14607075.43849  21104897.4724   21104901.5964   21104897.8194
       236.0004        187.0004
  -1394540.73249  -1078336.74949  22659578.0574   22659583.8824   22659578.5624
       223.0004        167.0004
   -882831.53049   -681270.10749  23465605.0774   23465608.9944   23465604.4354
       218.0004        149.0004
 -12768145.07749  -9925950.70449  21773855.5854   21773857.7274   21773855.5944
       230.0004        178.0004
 -23867046.98849 -18023029.56449  20189082.9164   20189084.8334   20189082.9344
       247.0004        214.0004
  -2413552.29349  -1576496.40049  24321402.9104   24321404.5974   24321403.1774
       204.0004        134.0004
 11 10  9  7 32  0.0000000  0  7G25G09G27G04G14G12G29
 -19578323.78749 -15241540.28549  21119758.0414   21119764.6524   21119758.1894
       242.0004        200.0004
 -18682256.23049 -14543423.48049  21120441.9934   21120446.4154   21120442.2404
       236.0004        188.0004
  -1318278.85649  -1018911.96949  22674091.4034   22674095.2864   22674091.0664
       224.0004        167.0004
   -911917.18149   -703934.25549  23460067.9184   23460074.4454   23460069.1584
       214.0004        148.0004
 -12794876.98049  -9946780.75449  21768768.6454   21768771.7494   21768768.0134
       229.0004        178.0004
 -23861692.20249 -18018857.01449  20190101.5494   20190103.4674   20190101.9074
       247.0004        214.0004
  -2529101.51349  -1666534.57849  24299413.1394   24299420.1034   24299413.4654
       210.0004        146.0004
 11 10  9  7 32 30.0000000  0  8G02G25G09G27G04G14G12G29
   -150487.39049   -106603.36049  24293891.1174   24293923.7274
       203.0004        122.0004
 -19637103.84949 -15287342.93149  21108573.7344   21108579.2314   21108573.2544
       244.0004        201.0004
 -18600171.88549 -14479461.70049  21136061.5414   21136066.0094   21136062.1814
       235.0004        188.0004
  -1241772.10349   -959296.39849  22688650.1894   22688655.0534   22688650.2274
       225.0004        168.0004
   -940439.42549   -726159.35849  23454640.6084   23454646.5014   23454641.1414
       214.0004        147.0004
 -12821015.94749  -9967148.79349  21763793.6134   21763796.5184   21763793.6164
       229.0004        177.0004
 -23855929.25049 -18014366.41549  20191198.1364   20191200.2934   20191198.3794
       246.0004        214.0004
  -2644563.55649  -1756504.81949  24277441.8884   24277447.7854   24277440.4274
       210.0004        149.0004
 11 10  9  7 33  0.0000000  0  8G02G25G09G27G04G14G12G29
   -231841.76749   -169995.77249  24278411.9164
       206.0004        107.0004
 -19695553.67349 -15332888.24849  21097450.3674   21097456.7324   21097450.3324
       244.0004        201.0004
 -18517691.68649 -14415191.46849  21151758.1164   21151761.5874   21151758.1644
       236.0004        187.0004
  -1165021.10349   -899490.48749  22703255.2104   22703260.1954   22703255.1834
       225.0004        169.0004
   -968396.68149   -747944.17749  23449321.4074   23449327.4774   23449320.8444
       214.0004        148.0004
 -12846560.70749  -9987053.81849  21758933.6374   21758936.4244   21758933.5324
       231.0004        178.0004
 -23849758.71849 -18009558.22449  20192371.8484   20192374.5424   20192372.5254
       246.0004        214.0004
  -2759936.24549  -1846405.50649  24255484.5514   24255490.4144   24255483.3574
       202.0004        136.0004
 11 10  9  7 33 30.0000000  0  8G02G25G09G27G04G14G12G29
   -312987.69249   -233225.72649  24262967.6364
       203.0004        108.0004
 -19753672.29849 -15378175.49049  21086390.7224   21086396.7764   21086390.8804
       244.0004        201.0004
 -18434816.53749 -14350613.46649  21167528.7574   21167532.4814   21167528.5124
       236.0004        188.0004
  -1088026.41449   -839494.69249  22717905.7564   22717910.5754   22717906.2144
       223.0004        166.0004
   -995787.14949   -769287.36449  23444108.6834   23444113.4994   23444110.3464
       217.0004        149.0004
 -12871510.03349 -10006494.86549  21754185.4814   21754188.6114   21754185.4044
       228.0004        178.0004
 -23843180.77249 -18004432.55149  20193624.1804   20193626.4234   20193624.2574
       246.0004        214.0004
  -2875217.17449  -1936234.73049  24233550.5454   24233555.4094   24233549.5854
       215.0004        146.0004
 11 10  9  7 34  0.0000000  0  8G02G25G09G27G04G14G12G29
   -393922.22949   -296290.98349  24247569.5174
       206.0004        110.0004
 -19811459.02549 -15423204.11249  21075394.6774   21075400.3894   21075394.9374
       245.0004        202.0004
 -18351548.03149 -14285728.96549  21183374.2274   21183377.6664   21183373.9154
       235.0004        186.0004
  -1010788.62949   -779309.48249  22732605.2774   22732609.4814   22732605.5414
       225.0004        167.0004
  -1022609.32149   -790187.75049  23439004.3944   23439010.2754   23439003.7274
       215.0004        148.0004
 -12895862.73449 -10025471.01349  21749550.3974   21749553.6894   21749550.6364
       228.0004        176.0004
 -23836196.24949 -17998990.07049  20194953.4184   20194955.7814   20194953.9234
       246.0004        215.0004
  -2990403.63449  -2025990.32749  24211627.8474   24211636.3384   24211629.6994
       207.0004        150.0004
 11 10  9  7 34 30.0000000  0  8G02G25G09G27G04G14G12G29
   -474643.35849    -55059.39049  24232207.6484
       199.0004         96.0004
 -19868913.77849 -15467974.04249  21064461.9564   21064467.0334   21064461.5294
       246.0004        202.0004
 -18267888.51449 -14220539.78249  21199293.1994   21199297.5824   21199293.6354
       234.0004        186.0004
   -933309.19149   -718935.95949  22747348.9154   22747351.5244   22747348.4254
       224.0004        165.0004
  -1048862.17249   -810644.47649  23434008.5414   23434014.9744   23434009.6644
       218.0004        152.0004
 -12919618.39949 -10043981.92949  21745030.6764   21745033.8364   21745030.2224
       229.0004        177.0004
 -23828805.97349 -17993231.40949  20196360.0914   20196362.1084   20196359.9134
       247.0004        215.0004
  -3105494.18249  -2115671.04849  24189725.0174   24189733.5314   24189727.3814
       204.0004        142.0004
 11 10  9  7 35  0.0000000  0  8G02G25G09G27G04G14G12G29
   -555147.89049   -117790.22449  24216880.7214   24216886.0284
       187.0004        128.0004
 -19926035.72549 -15512484.65249  21053591.3984   21053597.4114   21053591.5904
       245.0004        202.0004
 -18183838.89949 -14155046.62249  21215288.3994   21215292.3764   21215288.3444
       235.0004        186.0004
   -855588.68449   -658374.58649  22762137.6524   22762142.8594   22762137.6854
       224.0004        166.0004
  -1074544.04749   -830656.26449  23429122.6404   23429127.4974   23429123.3034
       220.0004        156.0004
 -12942775.76249 -10062026.64249  21740624.0294   21740626.5404   21740623.4994
       229.0004        178.0004
 -23821010.67449 -17987157.15649  20197843.4294   20197845.5104   20197843.6464
       248.0004        215.0004
  -3220486.10249  -2205275.06449  24167847.2274   24167850.2504   24167846.8304
       215.0004        144.0004
 11 10  9  7 35 30.0000000  0  8G02G25G09G27G04G14G12G29
   -635432.41149   -180349.42049  24201612.6574   24201614.2594
       198.0004        130.0004
 -19982823.74649 -15556735.05549  21042785.5734   21042791.0384   21042784.8254
       245.0004        202.0004
 -18099400.24549 -14089250.32349  21231357.7084   21231360.0234   21231356.5394
       238.0004        187.0004
   -777627.30549   -597625.54149  22776974.9524   22776978.7564   22776974.9054
       226.0004        167.0004
  -1099652.98049   -850221.64349  23424343.8054   23424349.1694   23424345.1104
       219.0004        156.0004
 -12965333.39549 -10079604.04549  21736331.0954   21736334.7624   21736331.1984
       229.0004        177.0004
 -23812810.47449 -17980767.40349  20199403.6364   20199406.0194   20199403.7864
       246.0004        214.0004
  -3335376.53449  -2294800.01549  24145983.2524   24145989.4294   24145983.4644
       208.0004        147.0004
 11 10  9  7 36  0.0000000  0  8G02G25G09G27G04G14G12G29
   -715494.78949   -242735.59749  24186374.7194   24186380.3234   24186372.5434
       191.0004        129.0004
 -20039277.79049 -15600725.22149  21032042.0874   21032048.0614   21032041.9464
       245.0004        202.0004
 -18014574.90449 -14023152.70449  21247498.4234   21247502.4234   21247498.3384
       236.0004        188.0004
   -699426.52149   -536689.92949  22791855.0314   22791860.3204   22791854.7114
       226.0004        164.0004
  -1124188.04549   -869339.85249  23419675.1484   23419680.2694   23419675.0764
       218.0004        154.0004
 -12987290.92949 -10096713.82949  21732152.7684   21732155.6454   21732151.8564
       229.0004        177.0004
 -23804206.91849 -17974063.34349  20201040.6644   20201042.9944   20201041.1174
       246.0004        215.0004
  -3450164.19349  -2384244.67749  24124137.5574   24124146.2034   24124138.3464
       207.0004        144.0004
 11 10  9  7 36 30.0000000  0  8G02G25G09G27G04G14G12G29
   -795331.94149   -304946.29149  24171180.5384   24171182.9244   24171181.8194
       200.0004        131.0004
 -20095396.85049 -15644454.35149  21021363.1334   21021369.2554   21021363.0614
       245.0004        202.0004
 -17929364.04649 -13956754.68849  21263713.2024   21263717.1884   21263713.0844
       237.0004        187.0004
   -620986.58049   -475567.95949  22806781.6844   22806785.6794   22806782.4834
       226.0004        166.0004
  -1148147.61549   -888009.62149  23415115.4554   23415120.5944   23415115.3264
       220.0004        155.0004
 -13008647.06149 -10113354.98549  21728089.4794   21728091.7444   21728089.2174
       228.0004        178.0004
 -23795199.82349 -17967044.82949  20202755.2444   20202757.1964   20202755.5384
       247.0004        215.0004
  -3564845.98549  -2473607.08349  24102314.7874   24102322.0304   24102317.1834
       210.0004        146.0004
 11 10  9  7 37  0.0000000  0  8G02G25G09G27G04G14G12G29
   -874940.63549   -366978.99849  24156031.3824   24156036.1234   24156033.4524
       203.0004        133.0004
 -20151180.08449 -15687921.80349  21010748.3864   21010754.1334   21010747.9644
       245.0004        202.0004
 -17843768.69549 -13890057.05949  21280001.5154   21280005.1774   21280001.2744
       235.0004        186.0004
   -542308.10649   -414260.14049  22821754.7974   22821759.6564   22821755.0824
       226.0004        166.0004
  -1171529.77749   -906229.49049  23410665.8404   23410671.1904   23410665.0704
       217.0004        152.0004
 -13029400.50149 -10129526.53349  21724140.2544   21724142.7434   21724139.6974
       231.0004        178.0004
 -23785789.54549 -17959712.15449  20204545.7994   20204547.6254   20204545.7834
       247.0004        214.0004
  -3679419.71849  -2562885.29849  24080509.7674   24080518.7784   24080512.6754
       197.0004        141.0004
 11 10  9  7 37 30.0000000  0  8G02G25G09G27G04G14G12G29
   -954318.98649   -428832.18149  24140928.1594   24140931.5064   24140926.8564
       205.0004        134.0004
 -20206627.58649 -15731127.65049  21000196.7594   21000202.7504   21000196.8184
       245.0004        202.0004
 -17757791.58449 -13823061.95249  21296362.5494   21296366.2754   21296362.4564
       238.0004        186.0004
   -463392.83349   -352767.78549  22836770.6394   22836777.0654   22836771.4774
       224.0004        166.0004
  -1194334.07149   -923999.08049  23406326.8354   23406330.2214   23406326.0624
       215.0004        148.0004
 -13049551.15749 -10145228.36249  21720304.0924   21720308.1014   21720305.3754
       228.0004        178.0004
 -23775977.92049 -17952066.74749  20206411.9544   20206414.5764   20206412.5384
       246.0004        214.0004
  -3793883.28049  -2652077.46749  24058728.3224   24058738.6414   24058731.2104
       205.0004        148.0004
 11 10  9  7 38  0.0000000  0  8G02G25G09G27G04G14G12G29
  -1033463.63749   -490503.29549  24125868.5264   24125871.0714   24125866.2584
       208.0004        135.0004
 -20261738.39349 -15774071.13149  20989709.5274   20989715.4874   20989709.3994
       245.0004        202.0004
 -17671433.67949 -13755770.11149  21312795.6644   21312799.7644   21312795.4754
       237.0004        186.0004
   -384240.92449   -291091.04649  22851833.1924   22851838.0134   22851832.8034
       223.0004        164.0004
  -1216558.61349   -941316.90049  23402097.1434   23402102.5624   23402097.9054
       214.0004        150.0004
 -13069097.76049 -10160459.49649  21716585.8194   21716588.4814   21716586.2254
       230.0004        178.0004
 -23765764.81849 -17944108.49549  20208355.4514   20208357.9384   20208356.4694
       245.0004        215.0004
  -3908234.34549  -2741182.09849  24036972.6064   24036977.4954   24036972.3094
       208.0004        148.0004
 11 10  9  7 38 30.0000000  0  8G02G25G09G27G04G14G12G29
  -1112371.66749   -551990.03349  24110848.9914   24110854.5594   24110849.5004
       205.0004        133.0004
 -20316511.75449 -15816751.66949  20979286.0824   20979292.0624   20979286.3244
       246.0004        202.0004
 -17584696.45149 -13688182.71749  21329302.3374   21329305.3284   21329301.7584
       238.0004        186.0004
   -304853.32449   -229230.64649  22866940.0974   22866944.9424   22866941.0524
       223.0004        163.0004
  -1238202.13649   -958181.96449  23397979.2624   23397984.2794   23397977.3044
       212.0004        147.0004
 -13088039.41349 -10175219.24049  21712981.2814   21712984.1884   21712981.4134
       230.0004        177.0004
 -23755151.19149 -17935838.14249  20210376.2774   20210377.9054   20210375.9744
       247.0004        214.0004
  -4022470.78849  -2830197.49149  24015230.1324   24015237.5934   24015231.8924
       202.0004        138.0004
 11 10  9  7 39  0.0000000  0  8G02G25G09G27G04G14G12G29
  -1191040.84949   -613290.61049  24095880.7574   24095882.8444   24095880.4394
       203.0004        130.0004
 -20370947.53849 -15859169.17149  20968927.3984   20968933.4104   20968927.5144
       245.0004        202.0004
 -17497582.16149 -13620301.49949  21345878.5154   21345882.7314   21345878.7624
       236.0004        185.0004
   -225231.12949   -167187.46049  22882090.5394   22882096.9714   22882092.2244
       221.0004        163.0004
  -1259263.69949   -974593.57149  23393970.2634   23393974.7734   23393970.4384
       213.0004        145.0004
 -13106375.76249 -10189507.32649  21709492.0094   21709494.8454   21709492.1344
       230.0004        179.0004
 -23744138.00549 -17927256.45649  20212471.2934   20212473.7914   20212471.6344
       246.0004        215.0004
  -4136590.33349  -2919121.68649  23993517.1814   23993523.4634   23993516.3544
       214.0004        149.0004
 11 10  9  7 39 30.0000000  0  8G02G25G09G27G04G14G12G29
  -1269467.61349   -674402.28849  24080953.8284   24080956.8234   24080954.4704
       199.0004        127.0004
 -20425044.47949 -15901322.64049  20958633.2814   20958639.1924   20958633.0644
       246.0004        202.0004
 -17410091.55549 -13552127.05449  21362527.5034   21362531.7114   21362527.6764
       235.0004        184.0004
   -145374.45949   -104961.56349  22897288.0794   22897292.2854   22897287.1214
       222.0004        162.0004
  -1279741.55049   -990550.32149  23390073.4014   23390079.5174   23390073.7944
       211.0004        147.0004
 -13124105.34549 -10203322.60849  21706118.0694   21706121.3634   21706118.0214
       230.0004        178.0004
 -23732725.06749 -17918363.27049  20214643.4624   20214645.5104   20214643.7254
       247.0004        214.0004
  -4250589.97849  -3007952.47149  23971823.5984   23971828.8864   23971823.5874
       210.0004        151.0004
 11 10  9  7 40  0.0000000  0  9G02G25G09G27G04G14G12G30G29
  -1347649.65049   -735323.30049  24066078.0354   24066083.7224   24066079.0244
       199.0004        129.0004
 -20478802.13849 -15943211.73149  20948403.6374   20948408.9984   20948403.3274
       246.0004        202.0004
 -17322226.31449 -13483660.67649  21379247.8384   21379251.1274   21379248.1424
       236.0004        184.0004
    -65284.40749    -42553.81249  22912527.8224   22912534.6014   22912528.0664
       220.0004        163.0004
  -1299634.48149  -1006051.30949  23386286.9124   23386293.5854   23386289.4764
       210.0004        147.0004
 -13141227.55149 -10216664.59849  21702859.8114   21702862.4114   21702859.8524
       230.0004        179.0004
 -23720913.26149 -17909159.28149  20216890.1104   20216893.2884   20216890.9264
       246.0004        214.0004
   -274274.86649   -203186.22649  24370366.9774
       204.0004        109.0004
  -4364467.93249  -3096688.43849  23950153.8274   23950156.3214   23950151.5434
       212.0004        142.0004
 11 10  9  7 40 30.0000000  0  8G02G25G09G27G04G14G12G29
  -1425584.39849   -796051.64249  24051247.9074   24051250.8594   24051247.9244
       201.0004        132.0004
 -20532220.39449 -15984836.34349  20938237.6874   20938244.0254   20938237.8384
       245.0004        201.0004
 -17233988.62449 -13414904.06749  21396038.6154   21396042.8824   21396038.7374
       235.0004        184.0004
     15037.66949     20034.76849  22927814.0674   22927818.9724   22927813.6544
       224.0004        164.0004
  -1318941.71049  -1021095.89649  23382614.3034   23382619.9194   23382614.8834
       212.0004        148.0004
 -13157742.08549 -10229533.08349  21699718.1534   21699720.3844   21699717.8014
       231.0004        179.0004
 -23708703.99549 -17899645.58349  20219213.9824   20219216.5654   20219214.7854
       246.0004        214.0004
  -4478222.13749  -3185328.07449  23928507.0044   23928511.0474   23928507.6224
       217.0004        150.0004
 11 10  9  7 41  0.0000000  0  8G02G25G09G27G04G14G12G29
  -1503268.65649   -856584.74449  24036465.6224   24036467.1494   24036466.7454
       207.0004        136.0004
 -20585298.12049 -16026195.61949  20928137.3554   20928143.7154   20928137.4084
       245.0004        202.0004
 -17145379.71749 -13345858.21349  21412900.3484   21412904.6644   21412900.8994
       234.0004        182.0004
     95591.49049     82803.89749  22943142.3274   22943147.7434   22943142.0954
       220.0004        163.0004
  -1337661.35949  -1035682.62149  23379051.8624   23379058.3164   23379052.2784
       212.0004        147.0004
 -13173647.85249 -10241927.20649  21696691.2874   21696693.0954   21696691.2484
       232.0004        179.0004
 -23696097.74349 -17889822.54549  20221613.9034   20221615.5674   20221613.9814
       247.0004        214.0004
  -4591850.06849  -3273869.24949  23906881.8124   23906888.0074   23906883.3344
       207.0004        151.0004
 11 10  9  7 41 30.0000000  0  8G02G25G09G27G04G14G12G29
  -1580699.47249   -916920.34749  24021727.9944   24021735.5044   24021729.6754
       206.0004        135.0004
 -20638034.84849 -16067289.17849  20918102.5934   20918107.9824   20918102.3994
       247.0004        202.0004
 -17056401.12649 -13276524.29049  21429833.2144   21429837.1214   21429832.8714
       235.0004        182.0004
    176376.03149    145752.80949  22958513.2134   22958521.0514   22958515.7654
       220.0004        164.0004
  -1355792.61249  -1049810.85349  23375602.0114   23375607.2704   23375601.5444
       212.0004        150.0004
 -13188943.97549 -10253846.27949  21693781.4934   21693783.0934   21693780.4344
       232.0004        178.0004
 -23683094.55649 -17879690.19749  20224088.1754   20224090.2384   20224088.4384
       247.0004        215.0004
  -4705349.12249  -3362309.93449  23885284.6884   23885289.6214   23885284.7234
       214.0004        149.0004
 11 10  9  7 42  0.0000000  0  9G02G25G09G27G04G14G12G30G29
  -1657874.39849   -977056.57449  24007043.3494   24007048.2014   24007043.5124
       200.0004        136.0004
 -20690430.12449 -16108116.66949  20908131.7824   20908137.6994   20908131.6874
       247.0004        203.0004
 -16967054.54449 -13206903.62649  21446834.7284   21446838.5804   21446834.4404
       232.0004        181.0004
    257390.41749    208880.83149  22973933.3664   22973937.0084   22973931.8544
       222.0004        164.0004
  -1373334.23649  -1063479.64549  23372262.8544   23372268.9754   23372265.0064
       215.0004        149.0004
 -13203630.12049 -10265290.04449  21690985.0134   21690988.5704   21690984.5584
       231.0004        179.0004
 -23669695.79649 -17869249.61349  20226637.1994   20226639.8294   20226637.6374
       247.0004        214.0004
   -359194.76849    -17058.88649  24290394.1554
       209.0004         74.0004
  -4818717.16749  -3450648.70149  23863710.3514   23863716.0604   23863711.1094
       213.0004        147.0004
 11 10  9  7 42 30.0000000  0  8G02G25G09G27G04G14G12G29
  -1734790.48449  -1036991.13649  23992407.3684   23992412.3724   23992407.4154
       203.0004        134.0004
 -20742483.24349 -16148677.54449  20898225.8394   20898232.4074   20898226.3254
       245.0004        203.0004
 -16877341.57749 -13136997.47249  21463906.2544   21463910.4894   21463906.8054
       233.0004        181.0004
    338633.94949    272187.40749  22989391.5144   22989397.2754   22989391.8104
       219.0004        164.0004
  -1390285.20949  -1076688.15849  23369037.5074   23369044.4444   23369037.6014
       214.0004        151.0004
 -13217705.39349 -10276257.80449  21688307.7444   21688309.6344   21688307.1944
       232.0004        179.0004
 -23655901.76049 -17858501.03049  20229262.5684   20229264.6724   20229262.6474
       246.0004        214.0004
  -4931951.96549  -3538883.53049  23842161.5014   23842169.9584   23842162.9964
       210.0004        151.0004
 11 10  9  7 43  0.0000000  0  8G02G25G09G27G04G14G12G29
  -1811445.23049  -1096722.07349  23977820.9944   23977822.8054   23977819.7924
       200.0004        131.0004
 -20794193.68849 -16188971.39549  20888386.1494   20888392.2074   20888386.3434
       246.0004        204.0004
 -16787264.19649 -13066807.35749  21481047.9764   21481052.2144   21481047.5574
       232.0004        181.0004
    420105.58249    335671.70449  23004896.1674   23004902.3774   23004895.0504
       222.0004        164.0004
  -1406644.31949  -1089435.52349  23365925.2424   23365929.9334   23365925.4114
       215.0004        150.0004
 -13231169.27349 -10286749.16049  21685745.1804   21685747.5164   21685744.3834
       230.0004        179.0004
 -23641713.40049 -17847445.17149  20231962.4594   20231964.5334   20231962.7384
       246.0004        214.0004
  -5045051.17649  -3627012.65849  23820640.8474   23820648.3994   23820643.6174
       214.0004        155.0004
 11 10  9  7 43 30.0000000  0  9G02G25G09G27G04G14G12G30G29
  -1887836.09749  -1156247.34149  23963283.5144   23963289.2964   23963285.1914
       200.0004        131.0004
 -20845561.16149 -16228998.00149  20878611.4294   20878617.3894   20878611.6464
       247.0004        204.0004
 -16696824.13249 -12996334.63749  21498257.7244   21498262.6024   21498257.5764
       233.0004        182.0004
    501804.18549    399332.85849  23020443.5174   23020448.1974   23020443.3214
       223.0004        164.0004
  -1422410.81649  -1101721.11149  23362925.0734   23362929.2834   23362925.6074
       217.0004        151.0004
 -13244021.55649 -10296763.94349  21683298.6924   21683301.5864   21683299.6524
       230.0004        179.0004
 -23627131.61549 -17836082.75649  20234736.9994   20234739.6814   20234737.6484
       246.0004        214.0004
   -673528.35449   -261994.17249  24230577.4014   24230583.5354   24230576.3554
       204.0004        134.0004
  -5158012.62549  -3715034.53849  23799145.7134   23799151.9114   23799147.8394
       214.0004        150.0004
 11 10  9  7 44  0.0000000  0  9G02G25G09G27G04G14G12G30G29
  -1963960.23049  -1215564.80149  23948797.8884   23948803.7404   23948796.7934
       203.0004        134.0004
 -20896584.92849 -16268756.77249  20868902.1974   20868908.0494   20868901.7144
       248.0004        204.0004
 -16606023.05149 -12925580.60349  21515537.2264   21515541.8204   21515537.2744
       233.0004        182.0004
    583728.88549    463170.22049  23036031.4554   23036036.9984   23036031.9334
       219.0004        163.0004
  -1437583.52749  -1113543.98749  23360038.5344   23360043.0394   23360037.7534
       220.0004        153.0004
 -13256261.33649 -10306301.45049  21680970.6424   21680972.7314   21680969.8744
       230.0004        179.0004
 -23612157.06449 -17824414.28149  20237586.4924   20237589.0724   20237587.1854
       246.0004        214.0004
   -778136.16249   -343506.81049  24210672.0894   24210676.1084   24210670.4544
       208.0004        139.0004
  -5270834.25549  -3802947.44849  23777675.5024   23777681.2934   23777676.3084
       210.0004        148.0004
 11 10  9  7 44 30.0000000  0  9G02G25G09G27G04G14G12G30G29
  -2039814.23049  -1274671.81249  23934362.5104   23934368.4804   23934363.5774
       204.0004        134.0004
 -20947264.06849 -16308247.02149  20859258.2474   20859263.8434   20859258.0614
       247.0004        204.0004
 -16514862.12049 -12854546.16049  21532884.3904   21532889.5924   21532883.9124
       233.0004        183.0004
    665879.30449    527183.43849  23051665.9524   23051670.3084   23051665.8304
       221.0004        162.0004
  -1452161.07049  -1124903.10749  23357263.3274   23357268.7414   23357263.7284
       217.0004        151.0004
 -13267887.75649 -10315361.01949  21678757.8074   21678761.0454   21678757.7144
       231.0004        179.0004
 -23596790.00849 -17812439.96949  20240511.4744   20240513.6134   20240511.5154
       246.0004        214.0004
   -882656.97449   -424951.54049  24190782.3504   24190785.2674   24190781.1964
       206.0004        141.0004
  -5383513.17049  -3890749.05449  23756236.6744   23756241.2624   23756235.9034
       217.0004        155.0004
 11 10  9  7 45  0.0000000  0  9G02G25G09G27G04G14G12G30G29
  -2115395.39549  -1333566.17849  23919983.5044   23919985.4004   23919980.8924
       209.0004        135.0004
 -20997598.02549 -16347468.27849  20849679.2464   20849685.7254   20849679.3934
       247.0004        204.0004
 -16423342.99649 -12783232.60949  21550300.7034   21550304.3584   21550299.4304
       232.0004        181.0004
    748254.48049    591371.81149  23067341.5284   23067346.7044   23067342.2184
       221.0004        163.0004
  -1466142.35649  -1135797.62649  23354604.0244   23354608.7994   23354603.4734
       217.0004        150.0004
 -13278900.32349 -10323942.24449  21676662.5224   21676665.6484   21676662.4454
       231.0004        180.0004
 -23581031.27949 -17800160.45349  20243509.6324   20243512.1444   20243510.0224
       246.0004        213.0004
   -987089.67549   -506327.59549  24170908.6894   24170914.9534   24170908.8344
       200.0004        132.0004
  -5496047.05049  -3978437.74749  23734821.8904   23734825.2954   23734820.3254
       213.0004        151.0004
 11 10  9  7 45 30.0000000  0  9G02G25G09G27G04G14G12G30G29
  -2190701.68949  -1392246.33649  23905648.5784   23905654.6074   23905649.8694
       207.0004        139.0004
 -21047586.76349 -16386420.53749  20840167.9554   20840173.1344   20840167.4424
       248.0004        205.0004
 -16331467.84649 -12711641.64549  21567782.7614   21567788.1214   21567782.9544
       231.0004        180.0004
    830852.95549    655734.15149  23083058.4734   23083062.8464   23083058.2894
       219.0004        162.0004
  -1479527.11349  -1146227.31949  23352054.7284   23352061.2354   23352056.0264
       214.0004        150.0004
 -13289299.01949 -10332045.14949  21674682.7994   21674686.3814   21674683.0884
       230.0004        179.0004
 -23564882.05049 -17787576.64649  20246583.1544   20246585.1174   20246583.3364
       246.0004        214.0004
  -1091433.75149   -587634.71849  24151050.8114   24151059.6124   24151051.3144
       206.0004        132.0004
  -5608434.31349  -4066012.19049  23713432.3144   23713437.2544   23713432.0634
       210.0004        147.0004
 11 10  9  7 46  0.0000000  0  9G02G25G09G27G04G14G12G30G29
  -2265730.47349  -1450710.28149  23891374.1974   23891376.8244   23891373.2264
       209.0004        137.0004
 -21097229.96649 -16425103.55249  20830720.4524   20830726.2494   20830720.7824
       248.0004        205.0004
 -16239238.74649 -12639774.88649  21585334.5394   21585338.2834   21585333.8884
       231.0004        179.0004
    913673.65849    720269.66949  23098819.5474   23098822.8394   23098819.2434
       221.0004        160.0004
  -1492314.41249  -1156191.42349  23349623.8264   23349628.9974   23349622.4354
       218.0004        151.0004
 -13299083.39249 -10339669.35849  21672821.1104   21672823.9614   21672820.7234
       230.0004        179.0004
 -23548343.10849 -17774689.17749  20249730.1454   20249732.6154   20249730.6504
       246.0004        214.0004
  -1195688.39649   -668872.18849  24131215.0754   24131216.8434   24131214.3584
       210.0004        138.0004
  -5720672.82249  -4153470.73349  23692073.5304   23692080.8324   23692075.8174
       213.0004        154.0004
 11 10  9  7 46 30.0000000  0  9G02G25G09G27G04G14G12G30G29
  -2340478.25149  -1508955.23349  23877148.8464   23877152.4454   23877147.9854
       210.0004        138.0004
 -21146526.49649 -16463516.43449  20821339.6594   20821345.4304   20821340.0454
       249.0004        205.0004
 -16146656.85549 -12567633.20549  21602951.6744   21602956.3134   21602952.0914
       233.0004        180.0004
    996716.38649    784978.20649  23114621.9894   23114627.2664   23114621.9304
       222.0004        161.0004
  -1504502.86649  -1165688.95549  23347302.7014   23347309.3994   23347304.1184
       218.0004        153.0004
 -13308252.82249 -10346814.38849  21671076.5064   21671080.2894   21671075.8714
       229.0004        179.0004
 -23531415.09449 -17761498.53749  20252951.8574   20252953.9354   20252952.0604
       246.0004        214.0004
  -1299852.15749   -750038.66049  24111392.3774   24111393.9274   24111388.7024
       200.0004        137.0004
  -5832759.54449  -4240810.93149  23670745.2824   23670751.6374   23670746.2614
       208.0004        153.0004
 11 10  9  7 47  0.0000000  0  9G02G25G09G27G04G14G12G30G29
  -2414942.42349  -1566979.17249  23862978.1674   23862982.4544   23862979.6364
       208.0004        140.0004
 -21195475.62749 -16501658.60549  20812026.1994   20812030.6884   20812025.4524
       250.0004        205.0004
 -16053723.69049 -12495217.80249  21620636.2234   21620641.3554   21620636.7584
       233.0004        181.0004
   1079980.41849    849859.17749  23130466.7074   23130471.8174   23130465.9844
       221.0004        160.0004
  -1516091.31349  -1174718.89749  23345098.1734   23345104.0724   23345098.6784
       215.0004        152.0004
 -13316806.30249 -10353479.45249  21669448.5394   21669451.4754   21669448.3504
       229.0004        180.0004
 -23514098.32449 -17748004.95649  20256247.0024   20256249.1644   20256247.2064
       245.0004        213.0004
  -1403923.67949   -831133.23049  24091588.9264   24091595.3014   24091587.7394
       211.0004        138.0004
  -5944692.05449  -4328030.98449  23649445.0724   23649449.2414   23649445.7064
       211.0004        150.0004
 11 10  9  7 47 30.0000000  0  9G02G25G09G27G04G14G12G30G29
  -2489120.52649  -1624780.27249  23848864.4444   23848867.7824   23848863.9634
       214.0004        141.0004
 -21244077.22449 -16539529.98149  20802776.5884   20802782.2484   20802776.8774
       249.0004        206.0004
 -15960441.16449 -12422530.19049  21638388.2174   21638391.8264   21638388.1204
       234.0004        181.0004
   1163464.31749    914911.47449  23146354.0344   23146359.2184   23146352.2244
       223.0004        160.0004
  -1527079.45049  -1183281.04149  23343006.6584   23343012.3634   23343007.0614
       216.0004        151.0004
 -13324744.06349 -10359664.73649  21667938.1514   21667941.2414   21667938.0764
       230.0004        179.0004
 -23496393.93949 -17734209.34849  20259615.7344   20259618.3484   20259616.1384
       245.0004        213.0004
  -1507902.33449   -912155.64549  24071800.8004   24071807.2084   24071801.6714
       203.0004        136.0004
  -6056468.44049  -4415129.47549  23628175.4874   23628179.5454   23628176.8284
       214.0004        154.0004
 11 10  9  7 48  0.0000000  0  9G02G25G09G27G04G14G12G30G29
  -2563009.06349  -1682355.71749  23834802.6054   23834806.0834   23834803.3934
       213.0004        143.0004
 -21292330.27249 -16577129.75349  20793595.4244   20793599.6184   20793594.8194
       250.0004        206.0004
 -15866810.64349 -12349571.39849  21656203.9784   21656208.9604   21656204.6114
       231.0004        180.0004
   1247167.73349    980134.82049  23162282.0074   23162284.9224   23162281.2344
       222.0004        159.0004
  -1537465.87149  -1191374.35949  23341030.4474   23341034.3124   23341030.2664
       214.0004        147.0004
 -13332065.12749 -10365369.46649  21666545.2344   21666548.1294   21666545.1234
       232.0004        180.0004
 -23478302.19049 -17720111.89649  20263058.1274   20263060.7614   20263058.7304
       245.0004        213.0004
  -1611786.81349   -993104.57649  24052033.6604   24052036.6164   24052032.8254
       205.0004        134.0004
  -6168086.02249  -4502104.11649  23606932.4944   23606939.6054   23606934.1304
       207.0004        153.0004
 11 10  9  7 48 30.0000000  0  9G02G25G09G27G04G14G12G30G29
  -2636606.70949  -1739704.47749  23820796.5634   23820801.5234   23820795.9944
       214.0004        142.0004
 -21340235.12249 -16614458.20749  20784478.9934   20784484.1184   20784478.4324
       250.0004        206.0004
 -15772834.58349 -12276343.36149  21674087.9254   21674092.7844   21674087.9834
       233.0004        180.0004
   1331088.84149   1045527.80549  23178250.4554   23178255.6804   23178250.5654
       220.0004        158.0004
  -1547250.48749  -1198998.74049  23339168.1974   23339175.3144   23339170.2694
       215.0004        151.0004
 -13338770.21349 -10370594.22349  21665268.6504   21665272.2254   21665268.1324
       229.0004        179.0004
 -23459824.72749 -17705713.89549  20266574.3544   20266577.1724   20266574.7574
       244.0004        213.0004
  -1715576.71649  -1073979.76349  24032283.2874   24032288.8694   24032281.8744
       212.0004        143.0004
  -6279543.23049  -4588953.79449  23585722.5514   23585730.1274   23585725.2954
       212.0004        152.0004
 11 10  9  7 49  0.0000000  0  9G02G25G09G27G04G14G12G30G29
  -2709909.74749  -1796823.69849  23806849.1314   23806852.0784   23806848.4634
       214.0004        145.0004
 -21387790.29449 -16651514.18049  20775429.3984   20775434.4834   20775428.9564
       250.0004        206.0004
 -15678513.77049 -12202846.67949  21692037.6414   21692040.9654   21692036.7554
       233.0004        180.0004
   1415227.47449   1111090.28349  23194262.3704   23194267.7454   23194262.4414
       222.0004        158.0004
  -1556431.68849  -1206152.89649  23337421.9934   23337426.7774   23337422.4554
       216.0004        151.0004
 -13344857.78149 -10375337.79949  21664111.0384   21664113.9244   21664110.4604
       231.0004        179.0004
 -23440961.21149 -17691015.06449  20270164.3194   20270166.7704   20270164.8194
       245.0004        213.0004
  -1819270.21449  -1154779.88249  24012550.4294   24012555.0004   24012549.6964
       205.0004        141.0004
  -6390836.96749  -4675676.19649  23564547.6514   23564551.1174   23564547.6204
       213.0004        154.0004
 11 10  9  7 49 30.0000000  0  9G02G25G09G27G04G14G12G30G29
  -2782916.36249  -1853711.88749  23792955.6344   23792958.1934   23792954.9494
       215.0004        146.0004
 -21434995.95349 -16688297.80349  20766446.1614   20766451.6654   20766445.8744
       249.0004        206.0004
 -15583850.96449 -12129083.51449  21710049.7004   21710055.3534   21710050.0324
       232.0004        180.0004
   1499581.90849   1176820.92249  23210315.5614   23210318.1514   23210314.8834
       222.0004        158.0004
  -1565009.19149  -1212836.66749  23335789.0354   23335794.2394   23335789.4654
       214.0004        147.0004
 -13350328.42049 -10379600.63949  21663069.4414   21663072.7394   21663068.9384
       230.0004        180.0004
 -23421713.39649 -17676016.78549  20273826.5724   20273829.3724   20273827.4034
       244.0004        213.0004
  -1922866.89749  -1235504.55549  23992834.9754   23992839.4694   23992834.9554
       203.0004        134.0004
  -6501966.04749  -4762270.18149  23543398.6814   23543403.4584   23543397.4414
       214.0004        153.0004
 11 10  9  7 50  0.0000000  0  9G02G25G09G27G04G14G12G30G29
  -2855622.89649  -1910366.28149  23779119.6424   23779123.0964   23779118.7524
       211.0004        145.0004
 -21481851.27349 -16724808.43849  20757529.5024   20757535.3924   20757529.4784
       249.0004        205.0004
 -15488847.47649 -12055054.88549  21728129.3254   21728133.4674   21728130.0494
       232.0004        179.0004
   1584151.52949   1242719.22349  23226408.6364   23226413.9134   23226407.0374
       221.0004        159.0004
  -1572982.28149  -1219049.44749  23334271.6614   23334278.0154   23334272.1554
       213.0004        147.0004
 -13355181.40449 -10383382.20549  21662145.9314   21662149.7154   21662146.2104
       230.0004        179.0004
 -23402081.48849 -17660719.21649  20277563.3064   20277565.2554   20277563.3034
       245.0004        212.0004
  -2026365.49249  -1316152.83049  23973141.0644   23973144.2144   23973140.2574
       209.0004        138.0004
  -6612927.41549  -4848733.51949  23522284.4684   23522288.8894   23522284.5054
       217.0004        155.0004
 11 10  9  7 50 30.0000000  0  9G02G25G09G27G04G14G12G30G29
  -2928027.29649  -1966785.22849  23765342.1824   23765344.7634   23765341.2454
       215.0004        144.0004
 -21528356.20949 -16761046.05149  20748679.3564   20748685.5374   20748679.7354
       248.0004        206.0004
 -15393505.25349 -11980762.30049  21746271.4834   21746275.4844   21746272.6044
       230.0004        178.0004
   1668935.04549   1308784.21349  23242540.2704   23242546.5184   23242540.3794
       218.0004        157.0004
  -1580350.52149  -1224790.94149  23332871.6754   23332873.8394   23332871.1864
       217.0004        149.0004
 -13359416.99949 -10386682.69049  21661340.4484   21661342.9984   21661340.3544
       231.0004        180.0004
 -23382066.79749 -17645123.36649  20281371.4704   20281373.9474   20281371.6784
       244.0004        212.0004
  -2129765.26149  -1396724.03549  23953465.4514   23953469.9064   23953464.5454
       209.0004        143.0004
  -6723719.01249  -4935064.59849  23501203.9004   23501205.2384   23501202.4534
       220.0004        155.0004
 11 10  9  7 51  0.0000000  0  9G02G25G09G27G04G14G12G30G29
  -3000126.69449  -2022966.55149  23751620.8594   23751625.1274   23751622.1364
       214.0004        144.0004
 -21574509.38449 -16797009.56249  20739897.2984   20739902.9044   20739897.4254
       248.0004        206.0004
 -15297825.33149 -11906206.58549  21764480.4584   21764483.6154   21764480.3194
       232.0004        178.0004
   1753932.14949   1375015.62949  23258714.2734   23258720.3034   23258714.9234
       217.0004        157.0004
  -1587112.49249  -1230059.99549  23331582.5914   23331586.0394   23331583.8624
       215.0004        148.0004
 -13363034.17749 -10389501.27749  21660652.0664   21660654.8294   21660651.1284
       231.0004        180.0004
 -23361669.65049 -17629229.49749  20285252.3774   20285255.7414   20285253.0224
       243.0004        212.0004
  -2233064.63449  -1477216.99149  23933809.2174   23933810.9274   23933807.0464
       206.0004        138.0004
  -6834338.16549  -5021261.26349  23480152.3994   23480155.5434   23480151.5744
       220.0004        154.0004
 11 10  9  7 51 30.0000000  0  9G02G25G09G27G04G14G12G30G29
  -3071917.74649  -2078907.59449  23737960.6614   23737962.3914   23737959.4844
       216.0004        143.0004
 -21620310.50649 -16832698.74649  20731181.9924   20731187.1234   20731181.8064
       249.0004        206.0004
 -15201809.69549 -11831389.25749  21782750.8094   21782755.4584   21782751.3384
       231.0004        178.0004
   1839141.86949   1441412.69149  23274929.9934   23274936.3024   23274929.7814
       217.0004        158.0004
  -1593267.58449  -1234856.14449  23330412.8854   23330417.3714   23330413.0164
       216.0004        148.0004
 -13366032.87649 -10391837.94849  21660081.4794   21660084.3674   21660081.1644
       231.0004        180.0004
 -23340890.48949 -17613037.96249  20289207.1244   20289209.5284   20289207.6644
       244.0004        212.0004
  -2336262.47949  -1557630.91049  23914169.8124   23914173.1444   23914169.5854
       210.0004        139.0004
  -6944782.66649  -5107321.86549  23459136.2754   23459140.5254   23459135.3934
       220.0004        158.0004
 11 10  9  7 52  0.0000000  0  9G02G25G09G27G04G14G12G30G29
  -3143398.88649  -2134607.15749  23724357.4864   23724361.8064   23724356.4394
       214.0004        144.0004
 -21665759.68849 -16868113.69249  20722533.2454   20722538.8024   20722532.8824
       249.0004        206.0004
 -15105460.71949 -11756312.19649  21801085.7544   21801090.0974   21801085.6934
       232.0004        176.0004
   1924562.55849   1507974.14849  23291186.8444   23291191.4694   23291185.5854
       219.0004        157.0004
  -1598816.11349  -1239179.68449  23329354.8244   23329361.6044   23329355.7374
       215.0004        146.0004
 -13368413.88249 -10393693.29049  21659628.8604   21659630.7244   21659628.0734
       230.0004        180.0004
 -23319730.98549 -17596550.04649  20293234.5004   20293235.9384   20293234.4884
       245.0004        212.0004
  -2439358.55149  -1637965.50049  23894550.2154   23894554.3794   23894551.4154
       208.0004        139.0004
  -7055050.77449  -5193245.00549  23438150.9024   23438155.0644   23438149.9844
       215.0004        156.0004
 11 10  9  7 52 30.0000000  0  9G02G25G09G27G04G14G12G30G29
  -3214566.71649  -2190062.56849  23710815.4244   23710819.0334   23710816.2614
       216.0004        146.0004
 -21710855.85649 -16903253.55849  20713951.5124   20713957.1344   20713951.3894
       249.0004        206.0004
 -15008779.61549 -11680976.32949  21819484.0574   21819487.9044   21819483.5154
       230.0004        175.0004
   2010193.66549   1574699.59549  23307481.2074   23307486.6494   23307480.6804
       218.0004        158.0004
  -1603756.40249  -1243029.27949  23328416.5104   23328423.0024   23328417.0684
       215.0004        148.0004
 -13370175.95149 -10395066.34349  21659293.5914   21659295.9034   21659293.3934
       232.0004        180.0004
 -23298191.09549 -17579765.72149  20297332.4924   20297335.2564   20297332.6454
       244.0004        212.0004
  -2542351.10949  -1718219.39949  23874951.6604   23874955.8384   23874951.6404
       209.0004        141.0004
  -7165139.84649  -5279028.63449  23417202.7464   23417206.4094   23417202.3344
       218.0004        155.0004
 11 10  9  7 53  0.0000000  0  9G02G25G09G27G04G14G12G30G29
  -3285418.78749  -2245271.90449  23697330.7444   23697334.8714   23697332.3834
       216.0004        146.0004
 -21755598.84149 -16938118.21849  20705437.4534   20705442.8394   20705437.2724
       249.0004        206.0004
 -14911768.86749 -11605383.58049  21837943.0184   21837947.9444   21837943.4484
       230.0004        174.0004
   2096033.93249   1641588.01849  23323815.0784   23323821.4984   23323815.8794
       217.0004        157.0004
  -1608088.51549  -1246404.95049  23327589.3094   23327597.1684   23327591.1424
       211.0004        146.0004
 -13371319.29549 -10395957.28649  21659075.7184   21659078.2344   21659076.1214
       231.0004        180.0004
 -23276272.29049 -17562686.13949  20301503.4964   20301505.7454   20301503.6754
       244.0004        211.0004
  -2645239.55149  -1798392.17749  23855371.7594   23855376.7454   23855372.4014
       207.0004        143.0004
  -7275048.05249  -5364671.31849  23396288.9524   23396293.3284   23396288.0054
       221.0004        160.0004
 11 10  9  7 53 30.0000000  0  9G02G25G09G27G04G14G12G30G29
  -3355952.17749  -2300232.95249  23683910.8774   23683912.7514   23683909.9204
       217.0004        150.0004
 -21799987.68049 -16972706.92249  20696990.2804   20696996.1254   20696990.3514
       249.0004        206.0004
 -14814429.38449 -11529534.69349  21856467.1294   21856470.9264   21856466.8574
       228.0004        173.0004
   2182082.94249   1708639.08049  23340189.7594   23340196.0864   23340189.7594
       217.0004        157.0004
  -1611811.33249  -1249305.84149  23326883.9674   23326888.8344   23326884.0254
       215.0004        149.0004
 -13371843.61449 -10396365.86049  21658975.7914   21658979.3754   21658976.2724
       231.0004        181.0004
 -23253974.67649 -17545311.38449  20305746.6894   20305749.0304   20305747.2024
       244.0004        212.0004
  -2748022.29849  -1878482.58149  23835813.4464   23835818.4514   23835813.7844
       210.0004        141.0004
  -7384772.38549  -5450170.72349  23375408.7644   23375412.2754   23375407.1894
       218.0004        157.0004
 11 10  9  7 54  0.0000000  0  9G02G25G09G27G04G14G12G30G29
  -3426164.96549  -2354944.16049  23670548.0374   23670552.6784   23670547.4204
       216.0004        152.0004
 -21844022.68849 -17007019.90849  20688611.0504   20688616.3894   20688610.5644
       249.0004        206.0004
 -14716763.57249 -11453431.51249  21875050.2884   21875056.8914   21875051.9534
       227.0004        172.0004
   2268338.82649   1775851.34649  23356606.5654   23356609.6984   23356605.3784
       219.0004        158.0004
  -1614925.12049  -1251732.16149  23326290.3434   23326294.6724   23326290.5964
       215.0004        148.0004
 -13371749.47849 -10396292.51949  21658993.0614   21658996.5594   21658993.0104
       230.0004        180.0004
 -23231300.00149 -17527642.81449  20310061.8504   20310064.1684   20310062.2964
       244.0004        212.0004
  -2850699.09749  -1958490.48749  23816274.9604   23816278.4994   23816275.7424
       210.0004        139.0004
  -7494311.14849  -5535525.52549  23354562.8784   23354567.9224   23354562.7234
       218.0004        157.0004
 11 10  9  7 54 30.0000000  0  9G02G25G09G27G04G14G12G30G29
  -3496053.65649  -2409402.84649  23657250.9474   23657252.6014   23657249.8284
       219.0004        154.0004
 -21887702.45149 -17041056.08249  20680298.3974   20680304.6854   20680298.4554
       245.0004        206.0004
 -14618772.55549 -11377074.93149  21893699.1374   21893704.4164   21893699.1274
       230.0004        174.0004
   2354801.42649   1843224.70849  23373056.1394   23373063.2484   23373056.9544
       215.0004        156.0004
  -1617428.65649  -1253682.96149  23325814.8754   23325818.5434   23325815.0164
       217.0004        149.0004
 -13371036.01049 -10395736.58449  21659129.5364   21659132.4474   21659129.3414
       230.0004        180.0004
 -23208247.95749 -17509680.19149  20314448.3884   20314450.8044   20314448.9204
       245.0004        212.0004
  -2953268.04849  -2038414.31049  23796757.0854   23796761.5414   23796757.1674
       210.0004        142.0004
  -7603661.32249  -5620733.39749  23333751.9784   23333759.2084   23333753.4464
       214.0004        157.0004
 11 10  9  7 55  0.0000000  0 10G02G25G09G27G31G04G14G12G30G29
  -3565616.02449  -2463607.24849  23644010.9034   23644015.4294   23644011.7034
       218.0004        155.0004
 -21931027.05249 -17074815.51849  20672054.2154   20672060.2714   20672053.9004
       246.0004        206.0004
 -14520458.75249 -11300466.83049  21912407.5524   21912412.3374   21912408.3464
       231.0004        176.0004
   2441469.20949   1910757.92649  23389550.3974   23389556.4604   23389549.9854
       217.0004        157.0004
   -335940.40849   -227690.61249  24753093.4174   24753094.0654
       205.0004        142.0004
  -1619321.68249  -1255158.08549  23325454.7204   23325458.6144   23325455.2904
       217.0004        151.0004
 -13369703.96649 -10394698.65649  21659383.3354   21659385.9324   21659382.6524
       231.0004        180.0004
 -23184819.92749 -17491424.59749  20318906.3154   20318908.8884   20318906.3954
       244.0004        211.0004
  -3055728.55849  -2118253.65149  23777259.5074   23777263.8034   23777258.4874
       209.0004        142.0004
  -7712821.55849  -5705793.23549  23312977.0424   23312985.9854   23312979.6364
       211.0004        156.0004
 11 10  9  7 55 30.0000000  0 10G02G25G09G27G31G04G14G12G30G29
  -3634849.30849  -2517555.20749  23630837.7124   23630841.4784   23630838.0124
       218.0004        155.0004
 -21973995.83949 -17108297.68649  20663877.7974   20663883.1784   20663877.9554
       247.0004        206.0004
 -14421823.55349 -11223608.28849  21931178.4194   21931181.8674   21931177.7474
       231.0004        175.0004
   2528341.33149   1978450.36449  23406082.7074   23406087.3094   23406082.3994
       218.0004        157.0004
   -437490.76949   -306820.78849  24733766.4674   24733767.9614   24733766.3504
       201.0004        139.0004
  -1620603.96149  -1256157.25349  23325209.8274   23325214.3844   23325210.0894
       215.0004        148.0004
 -13367752.72549 -10393178.21149  21659754.1924   21659756.8344   21659753.2824
       230.0004        179.0004
 -23161016.78349 -17472876.69949  20323435.6614   20323438.4324   20323436.1044
       244.0004        211.0004
  -3158079.47249  -2198007.53849  23757783.2674   23757786.6884   23757782.7844
       209.0004        143.0004
  -7821789.26549  -5790703.06349  23292241.5364   23292250.9734   23292244.4324
       211.0004        158.0004
 11 10  9  7 56  0.0000000  0 10G02G25G09G27G31G04G14G12G30G29
  -3703751.04549  -2571244.80749  23617726.5494   23617728.6024   23617725.9094
       219.0004        155.0004
 -22016608.38549 -17141502.27049  20655768.9174   20655774.3524   20655768.6474
       246.0004        206.0004
 -14322868.99349 -11146500.89749  21950007.0654   21950011.9694   21950007.8264
       230.0004        174.0004
   2615416.87649   2046301.33249  23422651.2884   23422657.4714   23422651.5294
       216.0004        155.0004
   -538991.98649   -385912.65049  24714451.8224   24714454.4114   24714451.7144
       199.0004        138.0004
  -1621274.64949  -1256679.87449  23325082.2804   23325086.6794   23325082.5214
       216.0004        151.0004
 -13365182.74749 -10391175.65349  21660242.5684   21660246.0894   21660243.2474
       230.0004        179.0004
 -23136839.15649 -17454037.00949  20328036.8694   20328039.2434   20328037.1104
       243.0004        211.0004
  -3260319.72349  -2277675.27249  23738329.0974   23738330.8034   23738328.1874
       213.0004        142.0004
  -7930561.75249  -5875460.81649  23271544.4334   23271550.8074   23271547.2274
       213.0004        156.0004
 11 10  9  7 56 30.0000000  0 10G02G25G09G27G31G04G14G12G30G29
  -3772318.51449  -2624673.94449  23604677.9714   23604681.2804   23604678.0754
       220.0004        155.0004
 -22058864.18949 -17174428.86449  20647727.8244   20647733.2824   20647727.6454
       246.0004        206.0004
 -14223596.80249 -11069145.99249  21968899.4904   21968903.6044   21968898.9284
       230.0004        173.0004
   2702694.81149   2114309.96349  23439259.6114   23439265.7994   23439259.3374
       215.0004        154.0004
   -640442.29749   -464964.84849  24695144.0844   24695149.9104   24695143.7264
       199.0004        139.0004
  -1621333.66449  -1256725.85149  23325070.6264   23325076.4334   23325070.9284
       213.0004        150.0004
 -13361993.85649 -10388690.80949  21660848.9884   21660852.9584   21660849.9024
       230.0004        180.0004
 -23112287.73049 -17434906.03049  20332709.4354   20332711.5874   20332709.3154
       244.0004        211.0004
  -3362448.21549  -2357255.95149  23718891.2354   23718896.6334   23718890.8224
       206.0004        141.0004
  -8039137.43849  -5960065.15949  23250883.0924   23250890.2404   23250885.1964
       214.0004        159.0004
 11 10  9  7 57  0.0000000  0 10G02G25G09G27G31G04G14G12G30G29
  -3840549.14849  -2677840.63049  23591694.4204   23591697.1484   23591694.0054
       218.0004        154.0004
 -22100762.76549 -17207077.11049  20639754.6644   20639760.4524   20639754.4934
       246.0004        207.0004
 -14124008.85449 -10991545.06549  21987850.1394   21987854.8364   21987849.6074
       230.0004        174.0004
   2790174.02149   2182475.46749  23455908.8954   23455912.3474   23455907.3724
       219.0004        156.0004
   -741839.86349   -543975.95349  24675850.0324   24675854.6594   24675851.3444
       204.0004        142.0004
  -1620780.40749  -1256294.77649  23325177.8324   23325181.2044   23325177.8504
       218.0004        151.0004
 -13358186.19149 -10385723.82849  21661574.1234   21661577.0434   21661573.9934
       231.0004        179.0004
 -23087363.38249 -17415484.47349  20337451.8824   20337454.4174   20337452.0874
       244.0004        211.0004
  -3464463.95149  -2436748.67249  23699479.2644   23699483.3484   23699477.8054
       212.0004        142.0004
  -8147513.81749  -6044514.22649  23230265.2724   23230265.8434   23230262.9544
       220.0004        160.0004
 11 10  9  7 57 30.0000000  0 10G02G25G09G27G31G04G14G12G30G29
  -3908440.62749  -2730743.00649  23578774.2014   23578776.0254   23578774.5474
       217.0004        154.0004
 -22142303.94049 -17239446.85949  20631849.4384   20631855.0974   20631849.4134
       246.0004        207.0004
 -14024107.29549 -10913699.76349  22006859.5624   22006864.6984   22006859.8234
       228.0004        174.0004
   2877853.12249   2250796.75749  23472592.5214   23472597.4914   23472593.5524
       221.0004        157.0004
   -843184.05449   -622945.46849  24656566.0814   24656570.3614   24656565.4874
       207.0004        144.0004
  -1619614.94949  -1255386.63449  23325398.5454   23325402.4424   23325398.0594
       216.0004        152.0004
 -13353760.05449 -10382274.91249  21662416.1994   21662420.6194   21662416.4954
       230.0004        179.0004
 -23062067.26649 -17395773.23549  20342264.8344   20342268.2924   20342265.5294
       242.0004        211.0004
  -3566366.02449  -2516152.90049  23680091.0804   23680093.1734   23680088.7734
       210.0004        145.0004
  -8255688.67349  -6128806.26749  23209679.5064   23209680.6524   23209676.4404
       219.0004        157.0004
 11 10  9  7 58  0.0000000  0 10G02G25G09G27G31G04G14G12G30G29
  -3975989.62049  -2783378.52949  23565920.6984   23565923.5584   23565920.0124
       221.0004        157.0004
 -22183486.52449 -17271537.17749  20624012.7794   20624018.3164   20624012.5594
       247.0004        207.0004
 -13923892.89849 -10835610.68149  22025931.6974   22025935.2324   22025930.3644
       231.0004        173.0004
   2965731.85149   2319273.55549  23489314.2854   23489320.7444   23489314.5764
       217.0004        156.0004
   -944471.68749   -701870.90149  24637289.6214   24637293.9664   24637291.8544
       203.0004        141.0004
  -1617836.30249  -1254000.67149  23325736.9834   23325742.9344   23325736.2044
       214.0004        149.0004
 -13348714.71149 -10378343.50249  21663377.7194   21663380.1454   21663377.8114
       231.0004        179.0004
 -23036399.61849 -17375772.48549  20347149.9364   20347152.2344   20347150.4954
       244.0004        211.0004
  -3668152.78549  -2595467.20849  23660718.6214   23660721.4234   23660718.0054
       204.0004        142.0004
  -8363659.33249  -6212939.17349  23189132.3324   23189135.5644   23189130.9694
       221.0004        160.0004
 11 10  9  7 58 30.0000000  0 10G02G25G09G27G31G04G14G12G30G29
  -4043194.40449  -2835745.83049  23553131.9374   23553134.2754   23553131.7894
       219.0004        158.0004
 -22224310.94249 -17303348.40549  20616244.0324   20616249.6684   20616243.6724
       246.0004        207.0004
 -13823368.66249 -10757280.16149  22045058.9544   22045064.8544   22045059.8974
       228.0004        174.0004
   3053808.18249   2387904.35449  23506076.3134   23506080.8314   23506075.3314
       219.0004        156.0004
  -1045702.31949   -780751.92149  24618027.4604   24618030.1184   24618028.1024
       204.0004        139.0004
  -1615444.93149  -1252137.27149  23326191.3044   23326197.4894   23326191.7924
       216.0004        152.0004
 -13343051.46149 -10373930.60649  21664455.1064   21664457.3644   21664454.5014
       231.0004        179.0004
 -23010362.12149 -17355483.54749  20352103.9964   20352107.0774   20352105.0624
       242.0004        210.0004
  -3769823.94849  -2674691.48449  23641369.3214   23641373.1464   23641368.9944
       207.0004        139.0004
  -8471424.21549  -6296911.73949  23168624.6024   23168627.7854   23168623.9814
       223.0004        163.0004
 11 10  9  7 59  0.0000000  0 10G02G25G09G27G31G04G14G12G30G29
  -4110052.41449  -2887842.92149  23540409.3224   23540412.5124   23540408.2234
       209.0004        146.0004
 -22264776.88449 -17334880.31749  20608543.3664   20608549.7984   20608543.6944
       249.0004        209.0004
 -13722536.56549 -10678709.76149  22064247.4474   22064251.8974   22064246.9184
       224.0004        167.0004
   3142081.24149   2456688.46049  23522873.0424   23522877.0414   23522873.3944
       209.0004        139.0004
  -1146874.73149   -859587.51049  24598775.9804   24598778.7504   24598775.1964
       206.0004        140.0004
  -1612440.83049  -1249796.47549  23326763.9834   23326768.4214   23326764.1744
       222.0004        149.0004
 -13336770.63249 -10369036.51349  21665649.8054   21665652.3704   21665650.0284
       231.0004        183.0004
 -22983955.69049 -17334907.10849  20357130.7244   20357132.3664   20357130.9264
       239.0004        204.0004
  -3871378.56949  -2753824.97349  23622046.8614   23622050.7674   23622045.7254
       209.0004        145.0004
  -8578981.40549  -6380722.50349  23148154.8774   23148159.4924   23148154.2074
       217.0004        160.0004
 11 10  9  7 59 30.0000000  0 10G02G25G09G27G31G04G14G12G30G29
  -4176560.68049  -2939667.50949  23527752.1774   23527755.6424   23527751.9714
       220.0004        160.0004
 -22304882.97249 -17366131.79949  20600911.9044   20600917.5814   20600911.5504
       247.0004        207.0004
 -13621397.50849 -10599900.15249  22083493.3594   22083498.3184   22083493.3244
       227.0004        173.0004
   3230550.34649   2525625.26149  23539709.1344   23539714.1844   23539709.4874
       218.0004        153.0004
  -1247985.98949   -938375.54449  24579531.4664   24579539.7854   24579532.7994
       202.0004        141.0004
  -1608822.60449  -1246977.00649  23327451.8924   23327457.0824   23327452.9714
       217.0004        152.0004
 -13329871.49749 -10363660.55349  21666962.4514   21666965.4794   21666961.9914
       230.0004        180.0004
 -22957180.05749 -17314043.00149  20362224.9604   20362227.3124   20362225.1324
       243.0004        210.0004
  -3972814.61849  -2832865.99349  23602743.0234   23602748.6144   23602743.3054
       206.0004        146.0004
  -8686327.70349  -6464368.90649  23127730.4504   23127731.8484   23127729.6804
       224.0004        162.0004
 11 10  9  8  0  0.0000000  0 10G02G25G09G27G31G04G14G12G30G29
  -4242716.19949  -2991217.22349  23515164.3694   23515167.2014   23515164.3494
       223.0004        161.0004
 -22344628.85849 -17397102.61649  20593348.0524   20593354.1034   20593347.9674
       247.0004        207.0004
 -13519953.22349 -10520852.72549  22102798.4504   22102802.6734   22102798.1044
       229.0004        171.0004
   3319214.54949   2594714.13249  23556580.5784   23556586.9104   23556579.5334
       216.0004        151.0004
  -1349034.80849  -1017114.91649  24560303.3114   24560309.4684   24560304.6074
       199.0004        140.0004
  -1604590.31349  -1243679.10149  23328257.2374   23328261.3874   23328258.0154
       217.0004        149.0004
 -13322354.24449 -10357802.98049  21668393.9904   21668396.2764   21668393.2854
       231.0004        180.0004
 -22930036.23049 -17292891.98249  20367390.1674   20367392.8334   20367390.5784
       243.0004        210.0004
  -4074131.19049  -2911813.91449  23583462.4944   23583467.4074   23583462.1394
       207.0004        144.0004
  -8793460.74549  -6547849.13949  23107340.7864   23107346.8734   23107340.9664
       220.0004        165.0004
 11 10  9  8  0 30.0000000  0 10G02G25G09G27G31G04G14G12G30G29
  -4308516.76349  -3042490.34249  23502642.0834   23502645.9024   23502642.0114
       221.0004        160.0004
 -22384014.36049 -17427792.60749  20585853.5964   20585859.2454   20585853.1394
       247.0004        207.0004
 -13418206.09849 -10441569.31549  22122160.0064   22122165.1064   22122160.6794
       226.0004        173.0004
   3408072.50449   2663953.96849  23573490.1184   23573495.7024   23573490.2624
       217.0004        152.0004
  -1450019.86649  -1095804.57949  24541088.3424   24541093.1404   24541089.8424
       200.0004        140.0004
  -1599744.11149  -1239902.87449  23329179.3424   23329185.1934   23329179.9234
       217.0004        151.0004
 -13314219.43049 -10351464.18449  21669940.9124   21669944.6594   21669941.2074
       230.0004        179.0004
 -22902525.39449 -17271454.98149  20372625.4154   20372628.0594   20372625.8284
       243.0004        210.0004
  -4175327.39949  -2990668.08849  23564206.3044   23564211.9754   23564206.6884
       209.0004        140.0004
  -8900378.87749  -6631161.87849  23086993.1054   23086999.6684   23086994.9294
       217.0004        161.0004
 11 10  9  8  1  0.0000000  0 10G02G25G09G27G31G04G14G12G30G29
  -4373960.45549  -3093485.38349  23490188.1554   23490191.7534   23490188.1624
       219.0004        160.0004
 -22423039.50249 -17458201.80949  20578426.7934   20578433.2074   20578427.0724
       247.0004        207.0004
 -13316158.40549 -10362051.69949  22141578.1864   22141582.4134   22141578.5074
       227.0004        171.0004
   3497122.61849   2733343.53649  23590435.9434   23590440.8014   23590435.0754
       217.0004        153.0004
  -1550940.19749  -1174443.80749  24521884.1914   24521888.2914   24521884.6664
       206.0004        143.0004
  -1594284.19349  -1235648.39849  23330217.7344   23330222.4764   23330218.8384
       216.0004        148.0004
 -13305467.85949 -10344644.81449  21671607.4264   21671610.4124   21671606.9804
       232.0004        180.0004
 -22874648.76949 -17249732.96049  20377930.4194   20377932.6484   20377930.9634
       244.0004        210.0004
  -4276402.70749  -3069428.10549  23544973.6714   23544975.3294   23544971.7074
       207.0004        143.0004
  -9007080.28749  -6714305.79849  23066690.5024   23066695.2544   23066692.2574
       218.0004        163.0004
 11 10  9  8  1 30.0000000  0 10G02G25G09G27G31G04G14G12G30G29
  -4439044.28049  -3144200.01449  23477804.2324   23477806.5504   23477803.8744
       221.0004        159.0004
 -22461703.60449 -17488329.67049  20571069.3404   20571075.5614   20571069.3194
       247.0004        208.0004
 -13213811.57649 -10282301.00449  22161054.3164   22161059.7074   22161054.1684
       223.0004        168.0004
   3586364.17849   2802882.26449  23607417.6284   23607424.2034   23607418.3084
       215.0004        152.0004
  -1651793.58449  -1253030.84749  24502692.0844   24502696.5904   24502691.8184
       207.0004        144.0004
  -1588210.26049  -1230915.46749  23331374.8504   23331379.2624   23331375.3734
       218.0004        151.0004
 -13296099.61849 -10337344.91349  21673389.9234   21673393.1664   21673389.2974
       230.0004        179.0004
 -22846406.98349 -17227726.38349  20383304.7674   20383306.7554   20383305.2174
       243.0004        210.0004
  -4377355.72149  -3148092.68849  23525761.4564   23525765.8794   23525760.3304
       209.0004        145.0004
  -9113562.25349  -6797278.70049  23046427.5534   23046434.0184   23046429.7304
       217.0004        164.0004
 11 10  9  8  2  0.0000000  0 10G02G25G09G27G31G04G14G12G30G29
  -4503765.61549  -3194632.17849  23465486.4074   23465491.0964   23465486.6044
       218.0004        159.0004
 -22500005.87149 -17518175.59349  20563780.8264   20563786.7684   20563780.7404
       247.0004        208.0004
 -13111167.27249 -10202318.49349  22180586.6744   22180592.3154   22180588.0424
       225.0004        169.0004
   3675796.46649   2872569.61449  23624436.3044   23624442.4274   23624436.5744
       214.0004        148.0004
  -1752578.14449  -1331564.27249  24483511.3084   24483517.2854   24483513.6414
       203.0004        143.0004
  -1581521.79449  -1225703.67649  23332647.3504   23332651.6874   23332647.3764
       217.0004        152.0004
 -13286114.63949 -10329564.42749  21675290.3364   21675292.7414   21675289.3124
       231.0004        180.0004
 -22817800.42949 -17205435.57249  20388748.9354   20388750.5274   20388748.7214
       246.0004        210.0004
  -4478184.91549  -3226660.87249  23506572.2094   23506578.8714   23506573.9544
       206.0004        142.0004
  -9219822.39249  -6880078.71849  23026209.2094   23026212.8064   23026208.3384
       220.0004        165.0004
 11 10  9  8  2 30.0000000  0 10G02G25G09G27G31G04G14G12G30G29
  -4568121.90849  -3244779.89449  23453242.1664   23453243.3844   23453240.9744
       221.0004        159.0004
 -22537946.07349 -17547739.39049  20556561.0634   20556567.0644   20556561.3944
       247.0004        208.0004
 -13008227.53249 -10122105.76949  22200177.2494   22200180.8734   22200176.3134
       229.0004        170.0004
   3765418.20949   2942404.62049  23641491.2354   23641496.6804   23641489.4064
       214.0004        149.0004
  -1853292.30449  -1410042.84749  24464348.4834   24464351.7204   24464347.5674
       205.0004        142.0004
  -1574218.84949  -1220013.08049  23334036.6414   23334039.7784   23334037.2464
       216.0004        151.0004
 -13275513.32549 -10321303.69549  21677306.3954   21677309.9004   21677306.6024
       230.0004        179.0004
 -22788830.10549 -17182861.31349  20394260.2424   20394263.7784   20394260.9054
       244.0004        210.0004
  -4578889.53849  -3305132.00849  23487410.2394   23487414.3864   23487409.5104
       205.0004        141.0004
  -9325858.61949  -6962704.28849  23006032.3564   23006033.5204   23006030.4274
       222.0004        162.0004
 11 10  9  8  3  0.0000000  0 10G02G25G09G27G31G04G14G12G30G29
  -4632110.75149  -3294641.27749  23441064.2244   23441066.9044   23441064.8984
       221.0004        159.0004
 -22575523.58449 -17577020.55949  20549410.9974   20549416.2004   20549410.7684
       248.0004        209.0004
 -12904994.16749 -10041664.25949  22219820.7834   22219825.8544   22219821.6284
       226.0004        170.0004
   3855228.36149   3012386.42749  23658581.2394   23658586.9404   23658581.3434
       214.0004        149.0004
  -1953934.30649  -1488465.20049  24445196.8334   24445199.7704   24445197.9864
       205.0004        142.0004
  -1566301.26449  -1213843.54149  23335543.9984   23335548.1104   23335543.6344
       215.0004        148.0004
 -13264295.90349 -10312562.85549  21679441.5704   21679444.7544   21679441.1154
       230.0004        179.0004
 -22759496.83749 -17160004.23649  20399842.9424   20399845.3814   20399843.4744
       245.0004        210.0004
  -4679468.23749  -3383505.00149  23468271.5114   23468275.4754   23468271.2534
       211.0004        143.0004
  -9431668.58249  -7045153.56749  22985898.4114   22985899.0564   22985894.6094
       223.0004        162.0004
 11 10  9  8  3 30.0000000  0 10G02G25G09G27G31G04G14G12G30G29
  -4695729.93149  -3344214.63649  23428958.1514   23428960.5514   23428958.2344
       221.0004        160.0004
 -22612738.49149 -17606019.19049  20542328.6614   20542334.7354   20542328.7444
       248.0004        208.0004
 -12801469.42749  -9960995.69049  22239520.6914   22239526.0974   22239521.0164
       227.0004        168.0004
   3945225.34449   3082513.80549  23675708.2214   23675712.9264   23675707.1764
       214.0004        150.0004
  -2054503.03549  -1566830.44549  24426060.9054   24426062.3404   24426060.1264
       208.0004        144.0004
  -1557769.53349  -1207195.43749  23337166.5354   23337173.2784   23337167.0854
       213.0004        148.0004
 -13252463.73749 -10303343.01349  21681694.2024   21681696.4944   21681692.9894
       231.0004        180.0004
 -22729801.83549 -17136865.29249  20405494.5674   20405496.5524   20405494.5444
       246.0004        210.0004
  -4779920.37849  -3461779.35249  23449156.1484   23449160.3874   23449155.8674
       210.0004        145.0004
  -9537250.54449  -7127425.15349  22965805.0364   22965808.3614   22965803.9544
       223.0004        164.0004
 11 10  9  8  4  0.0000000  0 10G02G25G09G27G31G04G14G12G30G29
  -4758976.95649  -3393497.97649  23416923.2064   23416925.7294   23416922.3174
       219.0004        158.0004
 -22649590.32949 -17634734.91149  20535315.8104   20535322.0714   20535316.1244
       247.0004        209.0004
 -12697655.15749  -9880101.53949  22259277.7444   22259281.8104   22259277.2364
       228.0004        170.0004
   4035408.12249   3152785.97049  23692867.4204   23692874.1034   23692867.0484
       210.0004        147.0004
  -2154996.63149  -1645137.12849  24406934.9054   24406940.2834   24406936.3714
       208.0004        146.0004
  -1548623.56149  -1200068.74749  23338906.5634   23338913.0994   23338907.7764
       215.0004        149.0004
 -13240016.70949 -10293644.05249  21684061.7494   21684065.3044   21684061.7064
       231.0004        180.0004
 -22699745.86249 -17113445.06549  20411213.3544   20411216.2564   20411213.7394
       246.0004        210.0004
  -4880244.81849  -3539954.21949  23430065.5504   23430068.8694   23430065.0484
       213.0004        148.0004
  -9642602.02449  -7209517.13349  22945755.3784   22945759.4784   22945754.6754
       221.0004        164.0004
 11 10  9  8  4 30.0000000  0 10G02G25G09G27G31G04G14G12G30G29
  -4821848.37749  -3442488.67249  23404956.2224   23404961.0474   23404957.9464
       213.0004        156.0004
 -22686077.89449 -17663166.77549  20528372.2874   20528378.7304   20528372.8054
       247.0004        209.0004
 -12593552.63649  -9798982.76049  22279086.5524   22279091.0894   22279086.6264
       226.0004        170.0004
   4125776.49849   3223202.73349  23710065.5794   23710071.3474   23710066.1334
       217.0004        148.0004
  -2255412.44549  -1723383.21249  24387826.6254   24387831.6654   24387827.2044
       206.0004        144.0004
  -1538862.52649  -1192462.75649  23340765.6074   23340770.3024   23340766.1834
       217.0004        150.0004
 -13226954.62849 -10283465.81949  21686546.7264   21686550.6754   21686547.3184
       230.0004        181.0004
 -22669329.00649 -17089743.62349  20417000.6954   20417003.6404   20417001.1864
       244.0004        209.0004
  -4980439.75049  -3618028.14949  23410997.6694   23411002.4184   23410997.8884
       212.0004        144.0004
  -9747720.22449  -7291427.36849  22925749.0984   22925754.7584   22925751.8134
       216.0004        160.0004
 11 10  9  8  5  0.0000000  0 10G02G25G09G27G31G04G14G12G30G29
  -4884343.20549  -3491185.88449  23393066.4254   23393068.7284   23393066.4344
       219.0004        159.0004
 -22722201.96049 -17691315.39049  20521498.6874   20521504.4364   20521498.6344
       248.0004        209.0004
 -12489164.67449  -9717641.57249  22298950.8824   22298956.3674   22298951.3914
       228.0004        171.0004
   4216328.07949   3293762.27449  23727296.8004   23727302.0894   23727296.9104
       216.0004        150.0004
  -2355750.17449  -1801568.47149  24368734.3814   24368737.2284   24368735.0684
       210.0004        143.0004
  -1528487.58149  -1184378.39649  23342738.9354   23342744.0914   23342738.7234
       214.0004        150.0004
 -13213279.22049 -10272809.68049  21689150.4974   21689152.9644   21689149.8614
       231.0004        179.0004
 -22638553.40549 -17065762.64549  20422857.6494   20422860.3244   20422857.8444
       245.0004        209.0004
  -5080505.18249  -3696001.20249  23391956.5734   23391960.3534   23391956.1424
       215.0004        145.0004
  -9852604.18849  -7373155.07749  22905790.4364   22905797.0464   22905793.3764
       219.0004        165.0004
 11 10  9  8  5 30.0000000  0 10G02G25G09G27G31G04G14G12G30G29
  -4946458.25549  -3539587.18149  23381245.9194   23381249.0044   23381246.2414
       215.0004        159.0004
 -22757961.62549 -17719180.06349  20514693.9124   20514699.2064   20514693.4964
       248.0004        208.0004
 -12384492.67349  -9636079.05149  22318871.5304   22318874.7634   22318870.1784
       229.0004        169.0004
   4307062.19149   3364464.03549  23744562.9034   23744568.3704   23744562.0634
       214.0004        149.0004
  -2456007.49749  -1879691.08149  24349656.6484   24349659.6974   24349656.5304
       208.0004        147.0004
  -1517498.59049  -1175815.55349  23344830.4404   23344835.4494   23344831.2454
       214.0004        150.0004
 -13198990.50349 -10261675.64149  21691868.2004   21691871.9314   21691868.4514
       231.0004        179.0004
 -22607419.25049 -17041502.28449  20428782.7004   20428784.9874   20428782.8954
       245.0004        210.0004
  -5180439.46049  -3773872.04349  23372941.0514   23372942.4644   23372940.4064
       212.0004        146.0004
  -9957251.10649  -7454698.06349  22885878.3244   22885885.2384   22885879.2444
       218.0004        167.0004
 11 10  9  8  6  0.0000000  0 10G02G25G09G27G31G04G14G12G30G29
  -5008190.87949  -3587690.46049  23369499.1714   23369501.3854   23369499.0794
       219.0004        157.0004
 -22793356.11049 -17746760.18349  20507958.5174   20507964.0924   20507958.4704
       248.0004        208.0004
 -12279538.09949  -9554296.34649  22338841.1694   22338846.9044   22338841.7874
       227.0004        169.0004
   4397978.06149   3435307.42649  23761862.8914   23761869.7274   23761863.5934
       215.0004        149.0004
  -2556182.80249  -1957749.73849  24330592.6434   24330596.9934   24330592.4954
       203.0004        144.0004
  -1505895.08349  -1166773.88349  23347038.7394   23347042.7574   23347038.0614
       216.0004        149.0004
 -13184088.40849 -10250063.64049  21694704.2884   21694707.8904   21694704.4254
       230.0004        180.0004
 -22575927.14549 -17016963.00749  20434775.5164   20434777.4864   20434775.7994
       245.0004        209.0004
  -5280241.21849  -3851639.60149  23353948.2224   23353952.1334   23353947.8454
       210.0004        146.0004
 -10061658.74449  -7536054.57949  22866009.6274   22866015.2134   22866010.2504
       221.0004        163.0004
 11 10  9  8  6 30.0000000  0 10G02G25G09G27G31G04G14G12G30G29
  -5069538.79049  -3635493.98649  23357824.8204   23357827.5134   23357824.7974
       220.0004        159.0004
 -22828385.27649 -17774055.63349  20501292.6684   20501298.1514   20501292.3174
       248.0004        208.0004
 -12174303.19049  -9472295.20249  22358867.8894   22358872.2844   22358866.8634
       227.0004        166.0004
   4489074.23049   3506291.29849  23779198.1004   23779206.3884   23779199.2984
       212.0004        148.0004
  -2656274.35149  -2035743.15949  24311545.6184   24311549.8684   24311545.9744
       206.0004        144.0004
  -1493677.64249  -1157253.80049  23349363.3114   23349367.7724   23349362.3384
       214.0004        147.0004
 -13168574.18549 -10237974.65949  21697655.9914   21697659.8444   21697656.3044
       228.0004        179.0004
 -22544078.37049 -16992145.79549  20440836.3714   20440838.2694   20440836.4514
       246.0004        209.0004
  -5379909.43449  -3929303.09449  23334982.1984   23334984.5814   23334981.5094
       212.0004        147.0004
 -10165824.63949  -7617222.78349  22846189.7764   22846193.6754   22846189.3814
       223.0004        166.0004
 11 10  9  8  7  0.0000000  0 10G02G25G09G27G31G04G14G12G30G29
  -5130500.02649  -3682996.19349  23346223.1704   23346227.8304   23346223.4594
       220.0004        161.0004
 -22863048.97449 -17801066.30949  20494695.6574   20494702.1764   20494695.7784
       248.0004        208.0004
 -12068790.20749  -9390077.35349  22378945.8224   22378950.5164   22378946.0714
       224.0004        166.0004
   4580349.41449   3577414.67149  23796568.3594   23796575.3504   23796567.2444
       215.0004        149.0004
  -2756280.39949  -2113669.99349  24292515.5904   24292518.8204   24292515.6054
       206.0004        146.0004
  -1480846.46749  -1147255.50949  23351805.7964   23351809.4514   23351806.3814
       218.0004        150.0004
 -13152448.43549 -10225409.17449  21700726.5764   21700728.3534   21700725.5634
       231.0004        179.0004
 -22511873.73949 -16967051.29649  20446964.1924   20446966.5934   20446964.3554
       245.0004        209.0004
  -5479443.39149  -4006862.02249  23316041.0784   23316045.6134   23316041.1654
       208.0004        147.0004
 -10269747.10749  -7698201.27349  22826413.8174   22826418.8754   22826413.6344
       223.0004        169.0004
 11 10  9  8  7 30.0000000  0 10G02G25G09G27G31G04G14G12G30G29
  -5191071.89349  -3730195.00949  23334696.9744   23334699.8574   23334697.8904
       220.0004        161.0004
 -22897346.52449 -17827791.67749  20488169.2404   20488175.1494   20488169.4494
       248.0004        208.0004
 -11963000.91949  -9307644.23849  22399076.3314   22399082.1864   22399076.9544
       225.0004        165.0004
   4671802.64949   3648676.77949  23813971.5754   23813977.6654   23813972.2994
       216.0004        150.0004
  -2856199.22149  -2191528.80549  24273500.0624   24273505.6524   24273500.7394
       203.0004        143.0004
  -1467401.60949  -1136778.99549  23354363.2614   23354368.6894   23354363.5254
       214.0004        149.0004
 -13135711.46049 -10212367.40649  21703909.8024   21703913.8644   21703909.4954
       228.0004        178.0004
 -22479313.87349 -16941679.99949  20453159.5324   20453162.5464   20453160.0534
       244.0004        208.0004
  -5578841.70949  -4084315.20549  23297126.2804   23297130.8164   23297125.9774
       212.0004        147.0004
 -10373423.67349  -7778988.13349  22806684.3004   22806688.5394   22806684.3984
       224.0004        167.0004
 11 10  9  8  8  0.0000000  0 10G02G25G09G27G31G04G14G12G30G29
  -5251251.56649  -3777088.22649  23323246.5574   23323248.5384   23323246.4674
       221.0004        162.0004
 -22931277.57649 -17854231.45549  20481713.1784   20481718.3644   20481712.9214
       249.0004        208.0004
 -11856937.06049  -9224997.16049  22419261.0064   22419265.0334   22419261.1944
       226.0004        166.0004
   4763432.69649   3720076.67449  23831408.7594   23831412.7234   23831408.5914
       218.0004        148.0004
  -2956028.95849  -2269318.23849  24254504.6864   24254508.3144   24254504.9054
       207.0004        145.0004
  -1453343.11149  -1125824.33949  23357037.6234   23357044.2174   23357038.8984
       215.0004        149.0004
 -13118364.03749 -10198849.96549  21707211.0394   21707214.5084   21707211.4564
       229.0004        179.0004
 -22446399.58049 -16916032.50549  20459423.8834   20459425.9064   20459424.2974
       244.0004        208.0004
  -5678103.20849  -4161661.78449  23278239.0694   23278240.3124   23278238.0294
       215.0004        147.0004
 -10476852.27549  -7859581.79649  22787003.7564   22787005.5024   22787003.0284
       226.0004        168.0004
 11 10  9  8  8 30.0000000  0 10G02G25G09G27G31G04G14G12G30G29
  -5311036.75649  -3823674.03449  23311869.4374   23311872.1104   23311868.7404
       223.0004        163.0004
 -22964841.81249 -17880385.40749  20475326.0794   20475331.4494   20475325.7014
       249.0004        208.0004
 -11750600.53149  -9142137.59049  22439494.9924   22439501.6734   22439495.3454
       225.0004        165.0004
   4855238.33649   3791613.37949  23848879.3484   23848884.4214   23848879.3424
       218.0004        150.0004
  -3055767.83949  -2347036.87649  24235526.4554   24235527.9074   24235525.5704
       208.0004        147.0004
  -1438671.35049  -1114391.82649  23359831.1124   23359835.5624   23359830.5974
       214.0004        149.0004
 -13100406.70749 -10184857.27549  21710627.8494   21710632.7514   21710628.5024
       228.0004        179.0004
 -22413131.82549 -16890109.59149  20465754.4854   20465757.0064   20465754.7404
       244.0004        209.0004
  -5777226.83949  -4238900.97449  23259375.9524   23259378.7464   23259374.9284
       214.0004        148.0004
 -10580030.58349  -7939980.43749  22767368.9244   22767371.9094   22767368.2304
       223.0004        168.0004
 11 10  9  8  9  0.0000000  0 10G02G25G09G27G31G04G14G12G30G29
  -5370425.06649  -3869950.58549  23300566.0864   23300570.5024   23300566.8964
       222.0004        163.0004
 -22998038.60449 -17906253.04649  20469008.4314   20469014.2464   20469008.2634
       249.0004        209.0004
 -11643992.98949  -9059066.86549  22459782.4324   22459787.5394   22459782.4634
       225.0004        164.0004
   4947218.67249   3863286.20049  23866381.8254   23866388.7694   23866381.7994
       216.0004        151.0004
  -3155414.13749  -2424683.33049  24216563.2134   24216566.0634   24216562.0984
       206.0004        147.0004
  -1423386.48149  -1102481.54049  23362738.9964   23362744.6294   23362739.4484
       215.0004        149.0004
 -13081839.88049 -10170389.64349  21714161.5304   21714165.3964   21714162.1024
       229.0004        179.0004
 -22379511.17949 -16863911.70549  20472151.9664   20472154.4104   20472152.1114
       244.0004        208.0004
  -5876211.08949  -4316031.53049  23240538.5324   23240542.7844   23240538.1064
       213.0004        150.0004
 -10682956.49249  -8020182.37849  22747780.5884   22747786.7664   22747780.5114
       222.0004        169.0004
 11 10  9  8  9 30.0000000  0 10G02G25G09G27G31G04G14G12G30G29
  -5429414.81449  -3915916.59549  23289343.3114   23289346.2144   23289343.1024
       224.0004        163.0004
 -23030868.11449 -17931834.48149  20462761.4534   20462766.8014   20462761.1564
       249.0004        209.0004
 -11537116.96449  -8975786.92249  22480120.7954   22480125.3544   22480121.3704
       225.0004        164.0004
   5039372.03449   3935093.85649  23883917.4484   23883923.9224   23883917.6304
       215.0004        149.0004
  -3254966.49749  -2502256.61349  24197615.6664   24197622.2904   24197617.2784
       202.0004        143.0004
  -1407489.32449  -1090094.14349  23365765.7814   23365769.8994   23365765.5664
       218.0004        152.0004
 -13062665.13349 -10155448.31949  21717810.6374   21717813.8464   21717810.2694
       229.0004        178.0004
 -22345539.21949 -16837440.05549  20478616.7074   20478618.7954   20478616.9584
       244.0004        208.0004
  -5975055.63249  -4393053.18449  23221729.8674   23221732.0194   23221728.7014
       213.0004        148.0004
 -10785628.09149  -8100186.16449  22728243.2404   22728248.2544   22728244.5094
       223.0004        168.0004
 11 10  9  8 10  0.0000000  0 10G02G25G09G27G31G04G14G12G30G29
  -5488003.46249  -3961570.02949  23278192.6284   23278196.1814   23278192.9334
       221.0004        162.0004
 -23063330.01149 -17957129.47349  20456584.1194   20456589.6014   20456583.8604
       249.0004        209.0004
 -11429974.43949  -8892299.32049  22500508.8354   22500513.5864   22500509.2314
       223.0004        163.0004
   5131697.11349   4007035.31249  23901488.3254   23901493.2834   23901487.6044
       215.0004        148.0004
  -3354423.23049  -2579755.36949  24178690.9554   24178696.6694   24178693.5474
       206.0004        145.0004
  -1390979.92249  -1077229.71549  23368905.9824   23368911.6374   23368905.6664
       215.0004        152.0004
 -13042883.17149 -10140033.82149  21721575.2404   21721578.7264   21721574.5184
       230.0004        178.0004
 -22311216.82649 -16810695.35049  20485147.4614   20485150.6294   20485147.9394
       243.0004        208.0004
  -6073759.15949  -4469965.01949  23202946.9584   23202949.6654   23202946.5324
       216.0004        150.0004
 -10888043.35149  -8179990.23249  22708754.1744   22708758.9194   22708754.8804
       222.0004        167.0004
 11 10  9  8 10 30.0000000  0 10G02G25G09G27G31G04G14G12G30G29
  -5546188.33749  -4006908.86549  23267121.1824   23267124.0504   23267120.0194
       223.0004        163.0004
 -23095423.41649 -17982137.32649  20450476.5594   20450482.6374   20450476.6434
       249.0004        209.0004
 -11322566.97849  -8808605.28249  22520947.7184   22520954.1624   22520948.3464
       225.0004        166.0004
   5224193.25549   4079110.08649  23919087.3204   23919094.5184   23919088.4254
       216.0004        148.0004
  -3453782.09549  -2657177.87549  24159786.5794   24159788.6054   24159786.8224
       210.0004        149.0004
  -1373858.61549  -1063888.45549  23372164.8974   23372168.7754   23372163.6444
       215.0004        149.0004
 -13022494.21449 -10124146.36149  21725456.2244   21725459.0774   21725455.2144
       230.0004        179.0004
 -22276544.25349 -16783677.78349  20491745.4064   20491748.5724   20491745.9134
       243.0004        208.0004
  -6172320.21649  -4546765.82249  23184190.5694   23184193.8994   23184190.3884
       213.0004        147.0004
 -10990199.61149  -8259592.45549  22689315.9294   22689320.0204   22689315.3774
       224.0004        169.0004
 11 10  9  8 11  0.0000000  0 10G02G25G09G27G31G04G14G12G30G29
  -5603967.10549  -4051931.25149  23256126.0744   23256128.6954   23256125.8014
       223.0004        162.0004
 -23127148.02349 -18006857.79849  20444440.0254   20444445.2834   20444439.7634
       250.0004        209.0004
 -11214896.45449  -8724706.26449  22541436.4104   22541441.7774   22541437.1574
       222.0004        163.0004
   5316859.28849   4151317.21249  23936721.1664   23936726.8174   23936723.0894
       212.0004        149.0004
  -3553041.32349  -2734522.74949  24140897.2774   24140900.0064   24140897.3424
       210.0004        148.0004
  -1356125.49449  -1050070.46449  23375538.8464   23375543.6044   23375539.4494
       216.0004        149.0004
 -13001499.01749 -10107786.47849  21729449.0794   21729453.7794   21729448.7384
       229.0004        178.0004
 -22241522.56549 -16756388.17149  20498410.6074   20498413.0194   20498411.1394
       244.0004        208.0004
  -6270737.52649  -4623454.58049  23165463.1924   23165466.4634   23165463.0044
       214.0004        150.0004
 -11092094.44949  -8338990.95549  22669924.5334   22669929.8154   22669925.0074
       224.0004        169.0004
 11 10  9  8 11 30.0000000  0 10G02G25G09G27G31G04G14G12G30G29
  -5661337.40349  -4096635.36549  23245208.9824   23245211.5084   23245208.9334
       224.0004        164.0004
 -23158503.60149 -18031290.71949  20438473.3494   20438478.7374   20438473.2404
       250.0004        210.0004
 -11106964.93749  -8640603.85649  22561975.8254   22561981.0664   22561975.5954
       224.0004        162.0004
   5409693.95849   4223655.72849  23954387.6184   23954393.5724   23954386.8394
       212.0004        146.0004
  -3652198.96849  -2811788.42849  24122028.8444   24122031.4164   24122028.5414
       210.0004        150.0004
  -1337781.15149  -1035776.20049  23379029.4404   23379035.6394   23379029.6234
       215.0004        150.0004
 -12979898.57649 -10090955.00249  21733561.5044   21733564.0564   21733561.3494
       230.0004        179.0004
 -22206152.80449 -16728827.34049  20505141.8524   20505143.8104   20505142.2004
       244.0004        208.0004
  -6369010.21749  -4700030.69249  23146762.7604   23146765.1294   23146762.3154
       214.0004        150.0004
 -11193726.45349  -8418184.67849  22650583.1474   22650589.5284   22650584.2824
       220.0004        166.0004
 11 10  9  8 12  0.0000000  0 10G02G25G09G27G31G04G14G12G30G29
  -5718296.99049  -4141019.40849  23234369.7384   23234372.8464   23234369.7064
       225.0004        165.0004
 -23189489.67749 -18055435.71449  20432577.0614   20432582.2034   20432577.1094
       250.0004        210.0004
 -10998774.15949  -8556299.44349  22582563.9244   22582569.8684   22582563.8414
       222.0004        165.0004
   5502696.08949   4296124.72949  23972085.6304   23972094.2654   23972085.6224
       209.0004        145.0004
  -3751253.54649  -2888973.80149  24103179.0994   24103181.9294   24103178.5554
       209.0004        149.0004
  -1318825.94049  -1021005.94349  23382637.6234   23382641.3864   23382637.2734
       216.0004        148.0004
 -12957693.71149 -10073652.54049  21737786.0334   21737789.6044   21737785.5054
       228.0004        178.0004
 -22170435.54749 -16700995.73249  20511938.2494   20511940.3774   20511938.3014
       244.0004        207.0004
  -6467137.01549  -4776493.08249  23128089.3764   23128092.8794   23128089.0754
       213.0004        148.0004
 -11295093.11949  -8497171.65649  22631294.9124   22631299.6924   22631297.0574
       224.0004        168.0004
 11 10  9  8 12 30.0000000  0 10G02G25G09G27G31G04G14G12G30G29
  -5774843.32649  -4185081.44049  23223608.0834   23223612.4844   23223608.9814
       222.0004        166.0004
 -23220106.05849 -18079292.63249  20426751.5444   20426756.2244   20426750.7914
       251.0004        210.0004
 -10890326.25249  -8471794.67649  22603198.9994   22603205.5064   22603199.0214
       218.0004        162.0004
   5595864.22249   4368723.12249  23989815.6684   23989822.3354   23989814.3984
       209.0004        145.0004
  -3850203.32849  -2966077.55149  24084348.5664   24084353.0024   24084349.0534
       210.0004        148.0004
  -1299260.41949  -1005760.10349  23386359.2394   23386364.4974   23386358.1594
       215.0004        148.0004
 -12934885.55549 -10055879.97549  21742126.8604   21742130.4744   21742127.2734
       230.0004        179.0004
 -22134371.75349 -16672894.08749  20518800.1214   20518802.9264   20518800.4294
       242.0004        206.0004
  -6565116.94849  -4852841.05249  23109444.8714   23109448.4574   23109444.0084
       218.0004        151.0004
 -11396192.50049  -8575950.32949  22612058.4904   22612061.3744   22612058.8924
       225.0004        171.0004
 11 10  9  8 13  0.0000000  0 10G02G25G09G27G31G04G14G12G30G29
  -5830975.09349  -4228820.45349  23212928.5614   23212930.0144   23212928.2834
       227.0004        167.0004
 -23250353.00149 -18102861.68349  20420995.8844   20421000.4104   20420995.1234
       252.0004        210.0004
 -10781623.78449  -8387091.55149  22623887.3274   22623891.2854   22623886.5364
       223.0004        164.0004
   5689196.75449   4441449.61049  24007575.3234   24007582.3584   24007576.2224
       207.0004        143.0004
  -3949047.03849  -3043098.59749  24065538.2934   24065542.8644   24065540.0924
       209.0004        150.0004
  -1279085.71649   -990039.57449  23390199.2084   23390205.0264   23390200.0404
       218.0004        150.0004
 -12911475.35749 -10037638.30149  21746581.0504   21746584.7314   21746580.7644
       228.0004        178.0004
 -22097963.29949 -16644523.90049  20525728.2044   20525731.2214   20525728.9674
       242.0004        206.0004
  -6662949.36749  -4929074.05449  23090827.8334   23090830.4964   23090826.2954
       215.0004        150.0004
 -11497022.94849  -8654519.44349  22592870.8294   22592874.3384   22592868.7224
       225.0004        168.0004
 11 10  9  8 13 30.0000000  0 10G02G25G09G27G31G04G14G12G30G29
  -5886689.32849  -4272234.08849  23202325.8924   23202328.1834   23202324.5514
       225.0004        165.0004
 -23280229.36749 -18126141.96449  20415309.5544   20415315.3224   20415309.3394
       250.0004        210.0004
 -10672667.72549  -8302190.83149  22644620.5444   22644625.2574   22644620.6224
       223.0004        163.0004
   5782692.92449   4514303.58849  24025367.4834   24025375.6864   24025368.7444
       212.0004        144.0004
  -4047781.90249  -3120034.86649  24046751.5174   24046755.0404   24046752.9624
       211.0004        150.0004
  -1258301.57349   -973844.15149  23394153.7194   23394158.9144   23394154.1004
       215.0004        152.0004
 -12887463.17249 -10018927.54049  21751150.9924   21751154.5384   21751151.1404
       230.0004        178.0004
 -22061210.09849 -16615885.05849  20532723.3844   20532725.4114   20532723.3804
       243.0004        206.0004
  -6760632.42749  -5005190.68949  23072238.3784   23072243.5664   23072238.3434
       213.0004        151.0004
 -11597581.51449  -8732876.72549  22573734.5264   22573737.7834   22573734.2634
       224.0004        169.0004
 11 10  9  8 14  0.0000000  0 10G02G25G09G27G31G04G14G12G30G29
  -5941983.63949  -4315320.51249  23191803.0764   23191805.4204   23191802.9854
       221.0004        162.0004
 -23309735.07649 -18149133.42449  20409695.0884   20409700.3994   20409694.8274
       250.0004        210.0004
 -10563460.60949  -8217094.47349  22665401.7414   22665406.6074   22665401.4004
       222.0004        162.0004
   5876351.26349   4587283.95149  24043191.1904   24043198.3884   24043190.7254
       214.0004        144.0004
  -4146406.59449  -3196885.27549  24027984.2324   24027986.6974   24027984.0984
       213.0004        152.0004
  -1236908.62149   -957174.34849  23398225.0164   23398231.4334   23398225.2074
       217.0004        152.0004
 -12862850.45149  -9999748.82649  21755833.4294   21755838.0274   21755834.5214
       227.0004        177.0004
 -22024112.97449 -16586978.22649  20539782.3154   20539784.6624   20539782.3984
       242.0004        206.0004
  -6858165.13749  -5081190.20849  23053680.3994   23053682.4604   23053679.5154
       213.0004        150.0004
 -11697866.35649  -8811020.71649  22554650.1334   22554654.1514   22554652.3404
       225.0004        171.0004
 11 10  9  8 14 30.0000000  0 10G02G25G09G27G31G04G14G12G30G29
  -5996855.81849  -4358078.02449  23181361.0824   23181363.8984   23181361.8574
       224.0004        163.0004
 -23338869.32749 -18171835.44449  20404151.4664   20404156.3304   20404150.8244
       251.0004        210.0004
 -10454004.02549  -8131803.72449  22686231.9994   22686236.2744   22686230.6194
       225.0004        163.0004
   5970171.22849   4660390.24849  24061044.0724   24061051.4204   24061042.0414
       207.0004        144.0004
  -4244918.78649  -3273648.01149  24009237.6194   24009240.1994   24009237.7984
       212.0004        151.0004
  -1214906.96849   -940030.23349  23402411.0204   23402416.6484   23402412.7954
       215.0004        150.0004
 -12837637.45049  -9980102.35549  21760632.5204   21760635.6254   21760632.0854
       229.0004        177.0004
 -21986672.34249 -16557803.73149  20546906.9634   20546909.6014   20546907.1254
       242.0004        206.0004
  -6955546.04049  -5157071.36249  23035148.1914   23035151.4484   23035147.8944
       217.0004        153.0004
 -11797875.19049  -8888949.60449  22535618.7434   22535624.4764   22535619.4734
       225.0004        172.0004
 11 10  9  8 15  0.0000000  0 10G02G25G09G27G31G04G14G12G30G29
  -6051303.47249  -4400504.72249  23171000.5484   23171003.2424   23170999.1884
       224.0004        164.0004
 -23367632.14949 -18194248.03749  20398677.7714   20398682.7904   20398677.6644
       251.0004        210.0004
 -10344299.94449  -8046320.11849  22707106.5604   22707112.4034   22707106.2794
       221.0004        162.0004
   6064151.25149   4733621.21249  24078928.4964   24078934.1264   24078927.9624
       211.0004        143.0004
  -4343317.01049  -3350321.92849  23990513.2574   23990515.6074   23990512.8564
       211.0004        151.0004
  -1192297.78749   -922412.70749  23406714.7584   23406718.7004   23406715.7324
       217.0004        151.0004
 -12811825.80049  -9959989.42449  21765544.4174   21765548.2244   21765544.6064
       228.0004        177.0004
 -21948889.85149 -16528362.84449  20554096.1784   20554099.1334   20554096.4974
       242.0004        206.0004
  -7052774.23149  -5232833.55549  23016645.0744   23016651.7644   23016645.5894
       217.0004        155.0004
 -11897606.00349  -8966661.86549  22516642.5934   22516645.2474   22516643.0064
       227.0004        172.0004
 11 10  9  8 15 30.0000000  0 10G02G25G09G27G31G04G14G12G30G29
  -6105324.89749  -4442599.29849  23160720.8454   23160722.9014   23160721.2034
       225.0004        165.0004
 -23396023.49549 -18216371.16549  20393274.7624   20393280.1464   20393274.8274
       250.0004        211.0004
 -10234350.63649  -7960645.44349  22728028.1434   22728035.1144   22728029.1604
       219.0004        161.0004
   6158289.61549   4806975.58349  24096843.8254   24096847.8804   24096841.5614
       209.0004        140.0004
  -4441599.53249  -3426905.68349  23971809.8684   23971813.2384   23971809.8484
       211.0004        151.0004
  -1169081.78449   -904322.35849  23411132.5444   23411137.3844   23411132.2764
       217.0004        151.0004
 -12785416.73549  -9939410.95049  21770569.8934   21770572.7414   21770569.9094
       229.0004        177.0004
 -21910766.30949 -16498656.20349  20561350.9414   20561353.6594   20561351.0984
       241.0004        205.0004
  -7149848.82249  -5308476.05949  22998172.7474   22998176.4474   22998171.8914
       214.0004        150.0004
 -11997056.98649  -9044156.09149  22497716.6094   22497720.4024   22497716.2334
       226.0004        172.0004
 11 10  9  8 16  0.0000000  0 10G02G25G09G27G31G04G14G12G30G29
  -6158917.83449  -4484359.97749  23150521.3504   23150524.4494   23150522.0454
       224.0004        164.0004
 -23424043.03449 -18238204.57149  20387943.7114   20387948.4594   20387943.1654
       251.0004        211.0004
 -10124158.26049  -7874781.35349  22748999.4124   22749002.8354   22748998.6034
       223.0004        163.0004
   6252585.16649   4880452.43749  24114785.8294   24114794.6924   24114786.7064
       205.0004        139.0004
  -4539764.86549  -3503398.15349  23953129.2524   23953132.8544   23953129.9854
       212.0004        150.0004
  -1145259.48649   -885759.55249  23415665.4554   23415671.1154   23415665.2764
       218.0004        151.0004
 -12758411.24149  -9918367.74549  21775708.9344   21775712.8724   21775709.0034
       228.0004        177.0004
 -21872302.71949 -16468684.60049  20568670.3774   20568673.2964   20568671.0064
       242.0004        206.0004
  -7246768.69449  -5383998.00549  22979728.6994   22979733.9864   22979727.6234
       212.0004        151.0004
 -12096226.00049  -9121430.60349  22478844.3054   22478849.1304   22478845.5044
       226.0004        173.0004
 11 10  9  8 16 30.0000000  0 10G02G25G09G27G31G04G14G12G30G29
  -6212079.94149  -4525784.94949  23140406.4054   23140407.5724   23140405.6514
       225.0004        164.0004
 -23451690.04849 -18259747.69549  20382682.1414   20382687.0564   20382681.8654
       249.0004        210.0004
 -10013724.24049  -7788728.96949  22770013.8714   22770018.8014   22770012.3944
       219.0004        161.0004
   6347037.28349   4954051.25149  24132760.2874   24132767.0344   24132758.0964
       208.0004        138.0004
  -4637810.42049  -3579797.29449  23934471.9254   23934475.4594   23934473.1604
       210.0004        152.0004
  -1120831.32549   -866724.65749  23420313.9794   23420319.5614   23420314.5234
       217.0004        150.0004
 -12730809.99049  -9896860.29849  21780960.1784   21780964.2794   21780960.3354
       228.0004        176.0004
 -21833499.81349 -16438448.57849  20576055.3354   20576057.4114   20576055.2424
       242.0004        206.0004
  -7343532.25449  -5459398.14449  22961316.5064   22961320.7594   22961314.8354
       214.0004        152.0004
 -12195110.72849  -9198483.56749  22460028.3894   22460032.8274   22460027.9204
       228.0004        175.0004
 11 10  9  8 17  0.0000000  0 10G02G25G09G27G31G04G14G12G30G29
  -6264809.42849  -4566872.80649  23130369.8134   23130374.0154   23130370.6534
       222.0004        163.0004
 -23478964.87149 -18281000.80149  20377491.4074   20377497.1944   20377491.2464
       248.0004        210.0004
  -9903051.30849  -7702490.42449  22791072.0704   22791079.7194   22791074.0914
       220.0004        161.0004
   6441643.89949   5027770.50949  24150762.7034   24150769.2244   24150762.4684
       207.0004        141.0004
  -4735735.02849  -3656102.17649  23915837.6674   23915840.6454   23915838.8194
       211.0004        152.0004
  -1095798.55649   -847218.62849  23425077.1124   23425082.1764   23425077.8144
       216.0004        150.0004
 -12702614.80749  -9874890.06949  21786326.2574   21786330.0634   21786325.8994
       228.0004        176.0004
 -21794359.00449 -16407949.27049  20583503.0594   20583505.5214   20583503.5014
       242.0004        206.0004
  -7440138.95149  -5534676.05249  22942931.5094   22942936.9624   22942932.3564
       213.0004        154.0004
 -12293709.39349  -9275313.64749  22441265.4574   22441269.4534   22441264.6304
       224.0004        173.0004
 11 10  9  8 17 30.0000000  0 10G02G25G09G27G31G04G14G12G30G29
  -6317103.08249  -4607621.07149  23120420.6104   23120423.0624   23120419.4944
       224.0004        163.0004
 -23505866.28449 -18301962.94849  20372372.4744   20372377.5944   20372372.3804
       248.0004        210.0004
  -9792140.52349  -7616066.54249  22812180.0364   22812185.2904   22812180.0624
       223.0004        161.0004
   6536404.49349   5101609.74349  24168796.0174   24168803.3504   24168795.9544
       209.0004        142.0004
  -4833536.12549  -3732310.83149  23897226.6514   23897229.7874   23897227.2574
       210.0004        150.0004
  -1070160.99349   -827241.33449  23429956.0464   23429962.4814   23429957.0244
       215.0004        149.0004
 -12673826.14349  -9852457.38049  21791804.0694   21791808.0664   21791804.0464
       226.0004        176.0004
 -21754880.20949 -16377186.59049  20591016.3574   20591018.3384   20591016.2814
       243.0004        206.0004
  -7536586.78249  -5609830.13949  22924579.3204   22924584.3114   22924579.6814
       217.0004        155.0004
 -12392019.51049  -9351918.89049  22422554.8354   22422560.9194   22422557.1874
       224.0004        172.0004
 11 10  9  8 18  0.0000000  0 10G02G25G09G27G31G04G14G12G30G29
  -6368959.09749  -4648028.31249  23110551.6194   23110553.7264   23110551.8664
       222.0004        162.0004
 -23532394.27849 -18322634.11049  20367324.8884   20367329.7524   20367324.6614
       250.0004        210.0004
  -9680993.91449  -7529458.88749  22833331.1454   22833335.8174   22833329.9964
       222.0004        163.0004
   6631317.58249   5175567.78149  24186859.8504   24186865.2294   24186858.9174
       210.0004        143.0004
  -4931212.01149  -3808421.91849  23878640.9524   23878643.1394   23878641.1674
       214.0004        154.0004
  -1043919.77549   -806793.66649  23434950.2424   23434954.6634   23434948.4794
       218.0004        151.0004
 -12644444.67549  -9829562.76349  21797396.8324   21797399.5814   21797395.7234
       228.0004        176.0004
 -21715064.33849 -16346161.25349  20598592.2274   20598594.6704   20598592.1674
       242.0004        205.0004
  -7632874.78249  -5684859.71549  22906257.0564   22906261.0634   22906256.1334
       218.0004        155.0004
 -12490039.10449  -9428297.74949  22403905.2454   22403908.9684   22403905.9344
       229.0004        175.0004
 11 10  9  8 18 30.0000000  0 10G02G25G09G27G31G04G14G12G30G29
  -6420376.07049  -4688093.46049  23100767.8874   23100771.9344   23100767.0974
       222.0004        163.0004
 -23558549.08949 -18343014.47949  20362347.7594   20362352.5904   20362346.9544
       249.0004        210.0004
  -9569614.13949  -7442669.56849  22854524.3154   22854530.6114   22854524.7134
       220.0004        161.0004
   6726381.47249   5249643.36249  24204949.2454   24204955.6304   24204947.6444
       210.0004        140.0004
  -5028761.26449  -3884434.30849  23860078.4744   23860079.9434   23860078.0194
       216.0004        153.0004
  -1017075.92249   -785876.40749  23440057.5664   23440063.4344   23440058.1404
       218.0004        150.0004
 -12614472.61749  -9806207.95549  21803099.6624   21803102.1554   21803099.9564
       227.0004        175.0004
 -21674913.13549 -16314874.62349  20606232.9174   20606235.4254   20606233.3574
       242.0004        205.0004
  -7729002.40249  -5759764.33649  22887962.7504   22887967.1614   22887963.8454
       217.0004        153.0004
 -12587766.45849  -9504448.87649  22385309.0854   22385313.0494   22385307.6794
       228.0004        176.0004
 11 10  9  8 19  0.0000000  0 10G02G25G09G27G31G04G14G12G30G29
  -6471351.15549  -4727814.24349  23091067.4664   23091070.3454   23091067.0774
       223.0004        164.0004
 -23584329.66149 -18363103.23449  20357441.1184   20357446.8554   20357441.0014
       248.0004        210.0004
  -9458002.60949  -7355699.66449  22875763.8734   22875768.8814   22875763.5024
       221.0004        160.0004
   6821595.40549   5323835.80549  24223065.6074   24223073.1444   24223064.8064
       209.0004        139.0004
  -5126181.39949  -3960346.10049  23841538.4434   23841541.9754   23841538.8424
       214.0004        153.0004
   -989629.82149   -764489.86649  23445280.7154   23445285.5404   23445281.1434
       218.0004        150.0004
 -12583910.40249  -9782393.27449  21808915.5334   21808918.4894   21808915.6344
       227.0004        176.0004
 -21634426.61349 -16283326.70249  20613937.3614   20613939.6404   20613937.8384
       242.0004        205.0004
  -7824967.67249  -5834542.41449  22869700.4634   22869708.1844   22869700.5974
       215.0004        155.0004
 -12685198.96149  -9580370.24549  22366766.8084   22366771.2814   22366767.1904
       229.0004        175.0004
 11 10  9  8 19 30.0000000  0 10G02G25G09G27G31G04G14G12G30G29
  -6521883.09849  -4767189.75949  23081452.1114   23081454.7324   23081451.5504
       224.0004        166.0004
 -23609736.86249 -18382901.05449  20352606.7664   20352612.1644   20352606.4264
       248.0004        211.0004
  -9346162.46949  -7268551.60849  22897047.1744   22897051.9434   22897046.1044
       220.0004        158.0004
   6916957.13849   5398143.43349  24241212.8114   24241219.8064   24241212.4844
       208.0004        139.0004
  -5223471.40949  -4036156.50849  23823023.9474   23823027.5094   23823025.8454
       215.0004        153.0004
   -961583.25049   -742635.43349  23450618.5514   23450624.5674   23450619.4334
       216.0004        150.0004
 -12552760.37649  -9758120.55349  21814843.1824   21814846.0424   21814842.2424
       228.0004        175.0004
 -21593606.68949 -16251518.98849  20621704.8344   20621707.4914   20621705.3804
       242.0004        205.0004
  -7920770.56749  -5909193.96849  22851470.4224   22851476.6734   22851469.3164
       215.0004        156.0004
 -12782335.45749  -9656060.97849  22348282.4454   22348286.6584   22348282.7734
       229.0004        176.0004
 11 10  9  8 20  0.0000000  0 10G02G25G09G27G31G04G14G12G30G29
  -6571968.72849  -4806217.49849  23071920.5414   23071923.9464   23071920.6874
       223.0004        165.0004
 -23634769.08149 -18402406.67049  20347842.7034   20347848.4084   20347842.6784
       248.0004        211.0004
  -9234094.37049  -7181225.91749  22918372.8744   22918378.3264   22918371.8504
       220.0004        160.0004
   7012466.59849   5472566.18449  24259388.2354   24259396.2174   24259388.7904
       210.0004        139.0004
  -5320628.32949  -4111863.20049  23804535.8084   23804539.9334   23804537.2174
       213.0004        155.0004
   -932935.71349   -720312.69749  23456069.3074   23456074.6404   23456069.7964
       215.0004        149.0004
 -12521022.53849  -9733389.80349  21820882.4244   21820885.3884   21820881.6124
       227.0004        175.0004
 -21552453.38649 -16219451.49049  20629536.5984   20629538.9564   20629536.1874
       242.0004        205.0004
  -8016408.60849  -5983717.08949  22833271.5904   22833275.0504   22833270.7924
       216.0004        153.0004
 -12879172.63949  -9731518.46849  22329855.2834   22329859.5404   22329854.9844
       229.0004        176.0004
 11 10  9  8 20 30.0000000  0 10G02G25G09G27G31G04G14G12G30G29
  -6621606.58549  -4844896.31949  23062475.1384   23062477.1494   23062474.3884
       225.0004        164.0004
 -23659426.63549 -18421620.34849  20343150.5854   20343156.4164   20343150.4524
       248.0004        211.0004
  -9121800.78949  -7093724.54449  22939741.0274   22939746.8384   22939741.0904
       220.0004        156.0004
   7108121.89949   5547102.58249  24277591.5804   24277597.7544   24277590.4774
       209.0004        139.0004
  -5417650.85049  -4187465.16649  23786073.8384   23786076.4624   23786075.0264
       214.0004        155.0004
   -903688.70549   -697522.84749  23461635.5644   23461637.7764   23461636.4274
       218.0004        148.0004
 -12488698.82049  -9708202.53849  21827033.7344   21827037.5464   21827033.2724
       227.0004        175.0004
 -21510967.91449 -16187125.17249  20637429.5984   20637433.2164   20637430.4634
       241.0004        204.0004
  -8111881.17049  -6058111.25049  22815102.0534   22815108.5134   22815102.2224
       213.0004        154.0004
 -12975709.42049  -9806741.87349  22311484.3674   22311489.3914   22311484.3164
       227.0004        176.0004
 11 10  9  8 21  0.0000000  0 10G02G25G09G27G31G04G14G12G30G29
  -6670794.43749  -4883224.47449  23053114.7004   23053116.9134   23053114.6414
       223.0004        164.0004
 -23683709.17049 -18440541.80749  20338529.4424   20338535.6894   20338529.5564
       247.0004        211.0004
  -9009283.69749  -7006048.99249  22961153.2404   22961158.2284   22961152.7804
       220.0004        158.0004
   7203921.96849   5621751.74149  24295821.4234   24295829.0774   24295818.3124
       205.0004        138.0004
  -5514537.05449  -4262960.91749  23767636.1734   23767640.4174   23767637.0544
       215.0004        155.0004
   -873843.09649   -674266.55149  23467313.5294   23467319.0714   23467315.1994
       215.0004        148.0004
 -12455790.16749  -9682559.48549  21833295.8274   21833298.7804   21833294.7764
       227.0004        175.0004
 -21469150.86649 -16154540.48349  20645387.8754   20645390.8244   20645388.3584
       241.0004        205.0004
  -8207186.97449  -6132375.47949  22796967.3414   22796973.8724   22796966.4944
       217.0004        157.0004
 -13071943.50849  -9881729.42349  22293171.1974   22293175.7674   22293172.5824
       228.0004        176.0004
 11 10  9  8 21 30.0000000  0 10G02G25G09G27G31G04G14G12G30G29
  -6719530.13649  -4921200.31449  23043840.1014   23043843.2074   23043840.6474
       224.0004        165.0004
 -23707616.26449 -18459170.71049  20333979.8674   20333986.1234   20333980.4374
       248.0004        210.0004
  -8896545.02149  -6918200.77549  22982606.0204   22982611.9954   22982606.0414
       220.0004        157.0004
   7299865.39449   5696512.63949  24314078.8664   24314086.5214   24314078.9094
       211.0004        140.0004
  -5611284.55149  -4338348.58649  23749226.2084   23749229.0894   23749227.2454
       215.0004        157.0004
   -843399.71849   -650544.47549  23473107.9544   23473112.9154   23473107.3224
       216.0004        147.0004
 -12422297.91149  -9656461.65149  21839669.7164   21839672.9504   21839669.4024
       227.0004        174.0004
 -21427003.52349 -16121698.41449  20653407.8144   20653410.9744   20653408.2824
       240.0004        204.0004
  -8302324.80949  -6206508.79849  22778862.8824   22778869.0864   22778863.3904
       216.0004        157.0004
 -13167872.73349  -9956479.43049  22274916.8284   22274920.9614   22274917.1254
       228.0004        175.0004
 11 10  9  8 22  0.0000000  0 10G02G25G09G27G31G04G14G12G30G29
  -6767812.15449  -4958822.62849  23034653.8864   23034655.0154   23034652.7364
       225.0004        166.0004
 -23731148.18249 -18477507.26649  20329502.2274   20329508.0854   20329501.8804
       248.0004        210.0004
  -8783587.03149  -6830181.67049  23004100.9574   23004106.8084   23004100.9614
       218.0004        156.0004
   7395950.40749   5771383.83649  24332364.7264   24332371.7954   24332363.6984
       212.0004        141.0004
  -5707892.15249  -4413627.20149  23730843.5584   23730845.1854   23730843.3544
       216.0004        156.0004
   -812359.84349   -626357.59549  23479013.9654   23479019.9824   23479014.0714
       215.0004        147.0004
 -12388223.80549  -9629910.43249  21846153.0564   21846156.9364   21846152.9084
       227.0004        174.0004
 -21384527.12449 -16088599.94549  20661491.5594   20661494.2294   20661491.8444
       242.0004        204.0004
  -8397293.96649  -6280510.71449  22760790.5984   22760795.5014   22760790.1494
       215.0004        156.0004
 -13263495.66649 -10030990.74449  22256721.3614   22256725.0124   22256720.0134
       228.0004        175.0004
 11 10  9  8 22 30.0000000  0 10G02G25G09G27G31G04G14G12G30G29
  -6815637.86449  -4996089.39749  23025551.7704   23025553.8254   23025552.4144
       226.0004        165.0004
 -23754304.15649 -18495550.88349  20325096.0084   20325101.6854   20325095.8664
       248.0004        210.0004
  -8670411.35349  -6741992.97049  23025640.2694   23025644.1074   23025639.1004
       218.0004        156.0004
   7492176.00849   5846364.55649  24350675.7804   24350683.3724   24350674.9844
       209.0004        142.0004
  -5804357.53649  -4488795.03849  23712486.7854   23712488.5654   23712486.8464
       215.0004        155.0004
   -780723.94749   -601706.28449  23485035.1364   23485039.9864   23485034.4604
       215.0004        149.0004
 -12353568.87149  -9602906.62349  21852746.1594   21852750.8004   21852747.8874
       225.0004        174.0004
 -21341721.85549 -16055245.21049  20669637.6584   20669639.6694   20669638.0924
       242.0004        204.0004
  -8492092.82049  -6354379.92149  22742748.7934   22742755.7484   22742749.5354
       213.0004        155.0004
 -13358809.60949 -10105261.27249  22238582.6704   22238587.1154   22238583.2564
       229.0004        176.0004
 11 10  9  8 23  0.0000000  0 10G02G25G09G27G31G04G14G12G30G29
  -6863004.70749  -5032998.61049  23016537.7444   23016539.7004   23016537.8374
       225.0004        167.0004
 -23777083.48349 -18513301.00749  20320760.8894   20320766.9524   20320760.6814
       248.0004        210.0004
  -8557019.67949  -6653635.95449  23047215.6244   23047222.3414   23047215.8894
       215.0004        153.0004
   7588541.50849   5921454.30949  24369013.5774   24369020.1504   24369013.3424
       211.0004        143.0004
  -5900678.35649  -4563850.20549  23694155.9714   23694159.6614   23694156.2764
       213.0004        153.0004
   -748492.65649   -576591.03349  23491168.3954   23491172.4604   23491168.4454
       216.0004        149.0004
 -12318334.18349  -9575451.05849  21859453.4514   21859456.7194   21859453.1214
       227.0004        175.0004
 -21298588.41649 -16021634.75549  20677845.6624   20677847.7764   20677845.4084
       242.0004        204.0004
  -8586719.56549  -6428115.01249  22724743.2724   22724750.3274   22724742.9344
       216.0004        156.0004
 -13453812.00249 -10179289.07449  22220503.7244   22220508.2094   22220505.0604
       229.0004        175.0004
