     2.11           OBSERVATION DATA    G (GPS)             RINEX VERSION / TYPE
teqc  2013Mar15                         20160913 13:06:33UTCPGM / RUN BY / DATE
OSX ker:10.8.0|Core 2 Duo|gcc 4.2 -m64|OSX ker:10.8.0+|=+   COMMENT
Linux 2.4.21-27.ELsmp|Opteron|gcc -static|Linux x86_64|=+   COMMENT
HEADER CHANGED BY EPN CB ON 2011-10-10                      COMMENT
TO BE CONFORM WITH THE INFORMATION IN                       COMMENT
ftp://epncb.oma.be/pub/station/log/brus.log                 COMMENT
                                                            COMMENT
teqc  2010Oct21                         20111010 00:01:17UTCCOMMENT
teqc  2010Oct21                         20111010 00:01:02UTCCOMMENT
teqc  2010Oct21                         20111009 01:01:01UTCCOMMENT
BIT 2 OF LLI FLAGS DATA COLLECTED UNDER A/S CONDITION       COMMENT
 SNR is mapped to RINEX snr flag value [0-9]                COMMENT
  L1 & L2: min(max(int(snr_dBHz/6), 0), 9)                  COMMENT
pseudorange smoothing corrections not applied               COMMENT
COORDINATES IN ETRF2000                                     COMMENT
Forced Modulo Decimation to 30 seconds                      COMMENT
BRUS                                                        MARKER NAME
13101M004                                                   MARKER NUMBER
Carine Bruyninx     ROB                                     OBSERVER / AGENCY
RT919994505         ASHTECH Z-XII3T     1L01-1D04           REC # / TYPE / VERS
CR519994604         ASH701945B_M    NONE                    ANT # / TYPE
  4027894.0130   307045.5980  4919474.9120                  APPROX POSITION XYZ
        3.9702        0.0000        0.0000                  ANTENNA: DELTA H/E/N
     1     1                                                WAVELENGTH FACT L1/2
     7    L1    L2    C1    P2    P1    S1    S2            # / TYPES OF OBSERV
    30.0000                                                 INTERVAL
teqc windowed: start @ 2011 Oct  9 00:00:00.000             COMMENT
teqc windowed: delta = 21600.000 sec                        COMMENT
  2011    10     9     0     0    0.0000000     GPS         TIME OF FIRST OBS
                                                            END OF HEADER
 11 10  9  0  0  0.0000000  0  9G23G05G10G07G08G13G04G02G16
  -7408269.80449  -5490141.10049  23988819.0464   23988820.5154   23988817.6164
       202.0004        130.0004
 -12822993.81649  -9976276.73649  22149090.6274   22149093.9094   22149091.9104
       229.0004        183.0004
 -21784669.76349 -16703605.94149  20301771.1614   20301773.9384   20301770.2874
       242.0004        200.0004
 -22670631.74449 -17368350.60449  20609641.8234   20609643.4924   20609642.3194
       242.0004        203.0004
 -16465631.65949 -12810623.80249  21650495.2414   21650498.1484   21650494.5084
       236.0004        187.0004
 -14920573.87449 -11010171.28249  21831384.7714   21831387.1804   21831385.2524
       234.0004        176.0004
  -2918966.18349  -2010440.25649  23461422.3604   23461424.7304   23461420.8844
       222.0004        153.0004
 -17732011.56649 -13539532.28949  21642117.4424   21642119.5684   21642118.0594
       233.0004        183.0004
   -574494.50049   -440083.99549  24084766.5454   24084768.5144   24084765.5674
       211.0004        144.0004
 11 10  9  0  0 30.0000000  0  9G23G05G10G07G08G13G04G02G16
  -7312261.57449  -5415329.55149  24007087.7774   24007091.4474   24007090.1684
       201.0004        128.0004
 -12903201.91049 -10038776.53249  22133828.7494   22133831.0554   22133829.1524
       230.0004        184.0004
 -21753785.72949 -16679540.47149  20307648.9084   20307650.7654   20307647.7394
       241.0004        200.0004
 -22687084.05349 -17381170.57249  20606511.3874   20606512.9454   20606511.0464
       241.0004        203.0004
 -16541722.06449 -12869914.99849  21636015.1294   21636018.8054   21636014.8044
       237.0004        187.0004
 -14841180.58349 -10948306.39549  21846492.5144   21846494.6474   21846492.9634
       234.0004        175.0004
  -2813765.69049  -1928465.89749  23481439.3764   23481444.3374   23481439.0454
       216.0004        150.0004
 -17695069.89649 -13510746.59649  21649148.1854   21649149.3204   21649148.1924
       233.0004        184.0004
   -544787.97649   -416936.04349  24090418.5704   24090420.6154   24090418.1474
       212.0004        145.0004
 11 10  9  0  1  0.0000000  0 10G26G23G05G10G07G08G13G04G02G16
   -333116.88849   -233760.32749  24375271.6444
       208.0004        110.0004
  -7216168.72549  -5340452.02849  24025374.0894   24025377.2934   24025371.8274
       198.0004        125.0004
 -12983122.77749 -10101052.50749  22118619.9624   22118622.8544   22118620.3984
       230.0004        185.0004
 -21722409.82549 -16655091.71549  20313617.9964   20313621.2144   20313617.6194
       240.0004        200.0004
 -22702962.61449 -17393543.46849  20603488.2664   20603491.6544   20603489.4064
       240.0004        204.0004
 -16617403.27049 -12928887.34949  21621614.0174   21621617.0994   21621614.0734
       238.0004        188.0004
 -14761561.77449 -10886265.77049  21861643.7954   21861646.6164   21861643.7104
       234.0004        176.0004
  -2708403.96249  -1846365.84449  23501488.3304   23501489.4254   23501487.9834
       217.0004        149.0004
 -17657548.39549 -13481509.07149  21656288.1604   21656289.3414   21656288.4124
       233.0004        182.0004
   -514499.04249   -393334.28249  24096182.8104   24096184.1504   24096181.8624
       214.0004        147.0004
 11 10  9  0  1 30.0000000  0 10G26G23G05G10G07G08G13G04G02G16
   -445075.31949    -53047.50149  24353963.2754
       205.0004         74.0004
  -7119992.36649  -5265509.41449  24043677.9404   24043673.5634   24043673.7534
       199.0004        124.0004
 -13062754.51149 -10163103.19049  22103467.7464   22103468.9764   22103467.7564
       232.0004        183.0004
 -21690542.71249 -16630260.20649  20319682.8964   20319685.6234   20319681.9964
       241.0004        200.0004
 -22718267.66049 -17405469.46749  20600576.6884   20600579.2144   20600576.5144
       240.0004        204.0004
 -16692673.66549 -12987539.58149  21607291.2544   21607293.2924   21607290.1844
       238.0004        188.0004
 -14681719.04949 -10824050.68349  21876837.7704   21876840.1804   21876838.2134
       234.0004        177.0004
  -2602883.80049  -1764142.32349  23521567.3764   23521571.6704   23521568.2594
       213.0004        149.0004
 -17619448.86849 -13451821.15449  21663539.1054   21663539.5084   21663539.3404
       234.0004        183.0004
   -483628.64049   -369279.41549  24102057.1714   24102058.8654   24102057.8744
       212.0004        147.0004
 11 10  9  0  2  0.0000000  0  9G23G05G10G07G08G13G04G02G16
  -7023733.44649  -5190502.51649  24061992.0494   24061993.4554   24061995.0054
       197.0004        125.0004
 -13142095.19749 -10224927.09549  22088368.6294   22088370.7124   22088368.6354
       230.0004        182.0004
 -21658184.62749 -16605046.12849  20325840.1564   20325843.4074   20325839.5964
       241.0004        200.0004
 -22732999.22149 -17416948.59249  20597773.8424   20597775.9214   20597773.8684
       242.0004        204.0004
 -16767531.01649 -13045869.97449  21593044.7954   21593048.3144   21593045.8054
       238.0004        188.0004
 -14601653.41749 -10761661.90449  21892074.0504   21892075.5264   21892074.2194
       234.0004        176.0004
  -2497207.96949  -1681797.57549  23541672.6344   23541679.2704   23541675.2874
       209.0004        149.0004
 -17580772.77549 -13421683.95949  21670898.4954   21670898.8384   21670898.5664
       234.0004        182.0004
   -452177.76649   -344772.20449  24108041.1074   24108045.5134   24108041.5294
       211.0004        147.0004
 11 10  9  0  2 30.0000000  0  9G23G05G10G07G08G13G04G02G16
  -6927392.99249  -5115432.09049  24080328.8564   24080325.9034   24080326.8894
       200.0004        127.0004
 -13221142.80949 -10286522.61649  22073324.8974   22073329.7654   22073326.5934
       231.0004        183.0004
 -21625336.26149 -16579450.00749  20332090.6854   20332093.9594   20332090.0784
       241.0004        199.0004
 -22747157.32049 -17427980.87049  20595078.6504   20595081.5674   20595079.3674
       241.0004        205.0004
 -16841974.01449 -13103877.47949  21578880.2904   21578883.1634   21578879.2984
       239.0004        189.0004
 -14521366.57949 -10699100.74249  21907350.6304   21907353.6834   21907351.4144
       233.0004        176.0004
  -2391379.59349  -1599333.91849  23561812.8254   23561818.8144   23561814.9664
       213.0004        149.0004
 -17541521.92649 -13391098.89149  21678368.0754   21678368.2464   21678367.6724
       234.0004        182.0004
   -420147.30049   -319813.40049  24114135.6194   24114139.4774   24114134.3974
       208.0004        142.0004
 11 10  9  0  3  0.0000000  0 10G23G05G29G10G07G08G13G04G02G16
  -6830972.24649  -5040299.05849  24098677.0144   24098673.1254   24098672.6654
       202.0004        128.0004
 -13299895.16849 -10347888.08049  22058340.4024   22058343.6124   22058341.1094
       232.0004        184.0004
     84314.22449     55561.52149  25234280.4664   25234283.2864
       202.0004        133.0004
 -21591998.11049 -16553472.24349  20338435.8274   20338438.2074   20338434.7254
       242.0004        200.0004
 -22760742.07449 -17438566.38649  20592494.7404   20592496.6794   20592494.8274
       242.0004        204.0004
 -16916000.94749 -13161560.78549  21564792.4434   21564796.0034   21564792.3344
       239.0004        189.0004
 -14440860.37849 -10636368.66349  21922671.7834   21922673.6454   21922671.9704
       234.0004        176.0004
  -2285401.79049  -1516753.79449  23581983.1244   23581985.3094   23581983.2944
       216.0004        148.0004
 -17501697.91849 -13360067.21949  21685946.5524   21685947.0674   21685946.0014
       234.0004        182.0004
   -387538.96449   -294404.32449  24120341.3574   24120342.8024   24120341.9304
       210.0004        142.0004
 11 10  9  0  3 30.0000000  0 11G26G23G05G29G10G07G08G13G04G02G16
    -78054.63649    -41234.00849  24268940.6854
       207.0004         74.0004
  -6734471.61649  -4965103.80549  24117039.2434   24117042.5794   24117035.6244
       201.0004        128.0004
 -13378350.13249 -10409021.81349  22043411.3744   22043412.9554   22043411.2544
       232.0004        183.0004
    116461.25049     80611.08749  25240394.3224   25240398.5674   25240399.5914
       201.0004        131.0004
 -21558169.85549 -16527112.56449  20344872.3364   20344875.5914   20344871.8534
       241.0004        200.0004
 -22773752.70849 -17448704.53249  20590017.8494   20590020.5324   20590018.5734
       241.0004        204.0004
 -16989609.14249 -13218917.80249  21550784.8094   21550788.1984   21550784.9624
       237.0004        188.0004
 -14360135.14549 -10573465.91049  21938034.0564   21938036.1404   21938033.9104
       234.0004        176.0004
  -2179276.33349  -1434058.67149  23602179.4054   23602182.5114   23602177.8404
       218.0004        151.0004
 -17461301.81649 -13328589.75049  21693633.2834   21693634.2404   21693632.3574
       234.0004        182.0004
   -354352.55349   -268544.84349  24126656.6144   24126658.9204   24126656.7504
       210.0004        141.0004
 11 10  9  0  4  0.0000000  0 10G23G05G29G10G07G08G13G04G02G16
  -6637892.50849  -4889847.34749  24135418.6104   24135418.4344   24135417.0304
       196.0004        125.0004
 -13456505.93149 -10469922.41449  22028539.2894   22028540.5064   22028538.5634
       233.0004        183.0004
    149094.34849    106039.51349  25246606.6264   25246611.6384   25246606.1824
       201.0004        134.0004
 -21523852.56949 -16500371.83649  20351403.0824   20351405.7494   20351402.4134
       241.0004        200.0004
 -22786189.93549 -17458395.85949  20587651.4144   20587653.5544   20587651.4514
       241.0004        204.0004
 -17062797.86749 -13275947.94749  21536857.9604   21536861.2144   21536857.3064
       238.0004        189.0004
 -14279193.08649 -10510394.19849  21953434.4554   21953438.8684   21953435.5664
       230.0004        175.0004
  -2073006.79849  -1351251.27549  23622401.7504   23622403.8904   23622401.7624
       220.0004        152.0004
 -17420336.10849 -13296668.44449  21701429.2284   21701429.6874   21701429.0884
       235.0004        182.0004
   -320590.03349   -242236.39249  24133081.2794   24133084.2184   24133081.0524
       211.0004        143.0004
 11 10  9  0  4 30.0000000  0 11G26G23G05G29G10G07G08G13G04G02G16
   -300833.74249   -214828.34749  24226548.1154   24226549.4464
       211.0004        139.0004
  -6541235.80649  -4814530.52049  24153810.8324                   24153812.2304
       186.0004        117.0004
 -13534360.30849 -10530588.14249  22013724.1544   22013725.5124   22013724.3204
       234.0004        185.0004
    182211.80649    131845.35649  25252909.4744   25252911.5864   25252909.9524
       195.0004        130.0004
 -21489046.53849 -16473250.26049  20358025.9244   20358029.1394   20358025.3874
       240.0004        200.0004
 -22798053.85449 -17467640.46749  20585393.6734   20585396.2464   20585394.3354
       241.0004        204.0004
 -17135565.41649 -13332649.91549  21523009.5574   21523013.1614   21523010.4834
       237.0004        189.0004
 -14198035.31549 -10447154.37849  21968878.9984   21968881.1494   21968879.3404
       231.0004        173.0004
  -1966596.11149  -1268333.85349  23642652.3694   23642653.1524   23642649.5234
       218.0004        150.0004
 -17378802.06649 -13264304.26749  21709332.2254   21709333.3934   21709331.7444
       233.0004        182.0004
   -286252.36849   -215479.79049  24139616.8384   24139617.3574   24139616.8904
       213.0004        143.0004
 11 10  9  0  5  0.0000000  0 11G26G23G05G29G10G07G08G13G04G02G16
   -412061.77949   -301499.54249  24205380.9874   24205382.7204   24205382.2074
       210.0004        136.0004
  -6444502.48249  -4739154.01449  24172214.2394
       175.0004        113.0004
 -13611911.02849 -10591017.28049  21998965.6564   21998968.1274   21998966.4434
       233.0004        186.0004
    215812.04949    158027.31149  25259301.8834   25259304.5334   25259301.9304
       199.0004        129.0004
 -21453752.37149 -16445748.32249  20364742.3994   20364745.4074   20364741.6584
       241.0004        200.0004
 -22809344.62249 -17476438.45549  20583245.6144   20583247.7404   20583245.4114
       241.0004        204.0004
 -17207909.70949 -13389022.06949  21509244.5064   21509247.6044   21509243.9074
       239.0004        190.0004
 -14116663.32049 -10383747.67849  21984364.1784   21984366.2134   21984364.5324
       231.0004        172.0004
  -1860047.06949  -1185308.63149  23662924.3384   23662929.0424   23662924.8644
       214.0004        148.0004
 -17336701.45749 -13231498.62449  21717344.1794   21717344.9044   21717344.0644
       234.0004        182.0004
   -251340.74749   -188275.97149  24146258.9934   24146263.1564   24146257.7684
       208.0004        140.0004
 11 10  9  0  5 30.0000000  0 11G26G23G05G29G10G07G08G13G04G02G16
   -523180.20549   -388085.36849  24184234.8144   24184236.4074   24184232.6194
       201.0004        130.0004
  -6347692.77759  -4663717.93259  24190635.3664
       171.0004        111.0004
 -13689155.65149 -10651207.86749  21984265.9154   21984269.4074   21984266.4954
       233.0004        185.0004
    249894.38049    184584.91049  25265788.3034   25265791.8094   25265787.2704
       194.0004        127.0004
 -21417969.82349 -16417865.82849  20371551.4934   20371554.4724   20371550.5114
       240.0004        199.0004
 -22820061.32749 -17484789.12649  20581205.2224   20581208.4194   20581206.2264
       241.0004        204.0004
 -17279828.44249 -13445062.61949  21495558.4604   21495561.6854   21495557.6784
       239.0004        190.0004
 -14035077.56149 -10320174.37649  21999890.5954   21999891.2124   21999890.6184
       233.0004        173.0004
  -1753361.45349  -1102176.97349  23683226.5744   23683230.8764   23683227.8974
       217.0004        151.0004
 -17294035.47449 -13198252.40549  21725463.8894   21725463.8314   21725462.5384
       235.0004        182.0004
   -215855.36349   -160625.05049  24153012.3244   24153013.6294   24153011.6104
       209.0004        140.0004
 11 10  9  0  6  0.0000000  0 11G26G23G05G29G10G07G08G13G04G02G16
   -634189.03949   -474585.60249  24163111.7124   24163115.0844   24163111.8904
       213.0004        142.0004
  -6250808.90449     13178.04449  24209079.8374
       179.0004         74.0004
 -13766093.32849 -10711159.28449  21969626.0824   21969628.2484   21969626.5484
       233.0004        186.0004
    284455.65949    211515.77849  25272365.1134   25272370.9364   25272364.1274
       196.0004        126.0004
 -21381700.70549 -16389604.18449  20378453.5664   20378456.2204   20378453.3594
       242.0004        200.0004
 -22830205.21649 -17492693.44349  20579275.7354   20579278.0574   20579275.8124
       241.0004        204.0004
 -17351321.20749 -13500771.24249  21481953.8874   21481956.8074   21481953.2794
       240.0004        190.0004
 -13953280.61249 -10256436.51949  22015453.9704   22015457.1174   22015455.0164
       231.0004        172.0004
  -1646543.66249  -1018942.35649  23703551.3244   23703559.5674   23703552.7754
       215.0004        151.0004
 -17250806.74649 -13164567.69349  21733689.9354   21733689.9234   21733688.9814
       234.0004        182.0004
   -179798.98249   -132529.22749  24159873.6104   24159874.6534   24159874.3804
       211.0004        142.0004
 11 10  9  0  6 30.0000000  0 10G26G05G29G10G07G08G13G04G02G16
   -745085.94649   -560998.76049  24142008.7594   24142013.0944   24142008.2014
       208.0004        139.0004
 -13842720.85049 -10770869.02549  21955043.9254   21955046.5154   21955044.4574
       233.0004        187.0004
    319495.36849    238819.47449  25279034.6784   25279036.2314   25279033.2104
       195.0004        126.0004
 -21344944.43849 -16360962.94849  20385448.6964   20385451.0444   20385447.3794
       241.0004        200.0004
 -22839775.57649 -17500150.85349  20577454.0194   20577456.6194   20577454.7354
       241.0004        204.0004
 -17422385.18749 -13556145.74849  21468430.2984   21468433.9324   21468429.9084
       238.0004        191.0004
 -13871273.21749 -10192534.66249  22031059.1204   22031061.7614   22031060.0774
       231.0004        171.0004
  -1539595.36749   -935606.05749  23723905.6014   23723908.6534   23723903.7924
       216.0004        149.0004
 -17207016.30449 -13130445.29049  21742020.5954   21742023.2234   21742021.2994
       231.0004        181.0004
   -143171.68249   -103988.49249  24166843.6154   24166847.1594   24166843.7204
       210.0004        144.0004
 11 10  9  0  7  0.0000000  0 10G26G05G29G10G07G08G13G04G02G16
   -855870.53349   -647324.47649  24120924.9574   24120928.5254   24120923.0474
       203.0004        132.0004
 -13919036.66449 -10830335.87449  21940522.2554   21940524.4914   21940522.3274
       234.0004        187.0004
    355011.10349    266493.94749  25285790.6614   25285795.2224   25285795.4204
       188.0004        123.0004
 -21307702.17849 -16331943.01549  20392534.9014   20392537.8474   20392534.0144
       240.0004        199.0004
 -22848773.59149 -17507162.28249  20575741.9964   20575744.4074   20575742.2214
       241.0004        204.0004
 -17493019.76949 -13611185.66449  21454989.1834   21454992.7454   21454989.6714
       239.0004        191.0004
 -13789057.09249 -10128470.18349  22046706.5604   22046707.3194   22046705.7974
       232.0004        172.0004
  -1432520.09749   -852170.75349  23744280.1094   23744284.4874   23744281.5464
       217.0004        147.0004
 -17162666.61149 -13095887.11449  21750462.2534   21750462.4174   21750462.0834
       233.0004        182.0004
   -105975.49549    -75004.51649  24173922.8154   24173922.4184   24173922.8304
       213.0004        142.0004
 11 10  9  0  7 30.0000000  0 10G26G05G29G10G07G08G13G04G02G16
   -966540.18549   -733560.47449  24099865.6664   24099872.2944   24099866.3904
       206.0004        145.0004
 -13995038.05349 -10889557.72049  21926059.4404   21926061.7304   21926059.6004
       234.0004        187.0004
    391002.27649    294539.02349  25292639.7204                   25292638.5444
       191.0004        122.0004
 -21269973.47549 -16302544.04249  20399714.6624   20399717.3794   20399713.9434
       241.0004        199.0004
 -22857198.08749 -17513726.82049  20574138.9954   20574141.3984   20574139.5154
       241.0004        204.0004
 -17563221.72949 -13665888.46649  21441630.9474   21441633.0944   21441630.0394
       240.0004        191.0004
 -13706632.40449 -10064243.16649  22062390.8834   22062392.6034   22062390.9264
       232.0004        171.0004
  -1325319.68049   -768637.99249  23764680.9824   23764684.1524   23764680.5044
       217.0004        149.0004
 -17117758.57049 -13060893.84449  21759007.0664   21759008.6684   21759006.5704
       233.0004        181.0004
    -68210.40949    -45577.22949  24181110.0934   24181108.3424   24181107.8024
       211.0004        143.0004
 11 10  9  0  8  0.0000000  0 10G26G05G29G10G07G08G13G04G02G16
  -1077095.11449   -819707.07849  24078829.9584   24078834.1584   24078829.4614
       207.0004        145.0004
 -14070723.89149 -10948533.67649  21911655.5034   21911659.2614   21911656.5974
       233.0004        188.0004
    427465.92449    322952.32749  25299576.9404                   25299582.5634
       193.0004        121.0004
 -21231759.92549 -16272767.25949  20406986.6104   20406989.4054   20406985.8114
       241.0004        200.0004
 -22865050.64949 -17519845.69549  20572644.6194   20572647.0864   20572645.0484
       241.0004        205.0004
 -17632990.66649 -13720253.85449  21428352.8254   21428356.7884   21428353.2794
       239.0004        192.0004
 -13624001.77749  -9999855.67349  22078113.8784   22078116.3444   22078114.5774
       232.0004        171.0004
  -1217998.02849   -685010.77249  23785103.0384   23785106.9904   23785103.0234
       215.0004        147.0004
 -17072294.95549 -13025467.66649  21767658.7044   21767659.8274   21767658.5324
       233.0004        180.0004
    -29878.81049    -15708.43149  24188402.3134   24188406.3844   24188402.6504
       209.0004        139.0004
 11 10  9  0  8 30.0000000  0 10G26G05G29G10G07G08G13G04G02G16
  -1187533.13049   -905762.61849  24057811.8854   24057817.9284   24057812.8114
       204.0004        133.0004
 -14146091.51349 -11007261.67549  21897314.8294   21897317.0764   21897315.5794
       234.0004        189.0004
    464401.10949    351732.98949  25306605.7354                   25306609.6104
       188.0004        120.0004
 -21193061.49049 -16242612.64349  20414349.8924   20414353.9064   20414349.4784
       240.0004        200.0004
 -22872330.10549 -17525517.98249  20571259.6764   20571261.7994   20571259.7884
       241.0004        205.0004
 -17702324.23049 -13774279.97649  21415160.1414   21415163.2604   21415159.6104
       240.0004        192.0004
 -13541165.84949  -9935308.21749  22093878.8524   22093879.7654   22093878.1944
       234.0004        170.0004
  -1110557.23049   -601290.67449  23805549.3004   23805548.2124   23805549.7274
       217.0004        144.0004
 -17026277.01349 -12989609.53149  21776414.4194   21776416.8314   21776415.0474
       231.0004        181.0004
      9018.70649     14601.22549  24195805.2634   24195804.0344   24195805.0984
       213.0004        140.0004
 11 10  9  0  9  0.0000000  0 10G26G05G29G10G07G08G13G04G02G16
  -1297853.36849   -991726.49649  24036816.4294   24036821.9874   24036817.7974
       204.0004        133.0004
 -14221138.93149 -11065740.18449  21883034.3334   21883035.6464   21883034.1324
       233.0004        187.0004
    501805.65149    380879.25949  25313726.2064                   25313724.9004
       194.0004        122.0004
 -21153878.87149 -16212080.74649  20421806.9464   20421809.6934   20421806.0574
       240.0004        200.0004
 -22879037.99849 -17530744.90649  20569983.4394   20569985.0824   20569983.5294
       242.0004        204.0004
 -17771221.23249 -13827965.92949  21402049.2314   21402052.4824   21402049.3874
       240.0004        192.0004
 -13458126.13649  -9870601.96049  22109679.5734   22109681.3084   22109679.7204
       231.0004        170.0004
  -1003000.26249   -517480.01849  23826014.8694   23826020.2234   23826015.8594
       214.0004        148.0004
 -16979706.86149 -12953321.12349  21785276.5664   21785278.5714   21785276.6064
       232.0004        181.0004
     48480.61849     45350.72149  24203314.9754   24203314.7684   24203313.9714
       212.0004        140.0004
 11 10  9  0  9 30.0000000  0 10G26G05G29G10G07G08G13G04G02G16
  -1408054.65249  -1077597.56349  24015849.4394   24015852.7104   24015848.6254
       210.0004        144.0004
 -14295863.78549 -11123967.32849  21868811.9634   21868816.3004   21868812.9184
       231.0004        186.0004
    539678.44749    410390.53749  25320932.3014                   25320935.6274
       189.0004        123.0004
 -21114212.46849 -16181171.87349  20429354.1534   20429358.0494   20429353.6794
       240.0004        199.0004
 -22885173.31849 -17535525.66049  20568814.9744   20568817.3744   20568815.2174
       241.0004        204.0004
 -17839680.02549 -13881310.41949  21389021.2814   21389025.1054   21389021.9754
       240.0004        192.0004
 -13374883.86449  -9805737.87349  22125519.5984   22125523.1624   22125520.2364
       232.0004        172.0004
   -895329.81049   -433581.03749  23846504.6254   23846510.2814   23846504.2064
       210.0004        146.0004
 -16932586.25749 -12916603.79249  21794244.0314   21794245.7214   21794244.2894
       232.0004        179.0004
     88505.58749     76538.97549  24210930.2244   24210934.1324   24210930.2584
       208.0004        141.0004
 11 10  9  0 10  0.0000000  0 10G26G05G29G10G07G08G13G04G02G16
  -1518135.99249  -1163375.20949  23994898.4564   23994903.3134   23994899.2604
       201.0004        138.0004
 -14370264.49149 -11181941.87749  21854655.0334   21854658.8234   21854655.8594
       233.0004        190.0004
    578016.71249    440264.58949  25328229.3624                   25328224.5404
       190.0004        122.0004
 -21074063.07849 -16149886.64649  20436995.1794   20436998.0354   20436994.4894
       241.0004        200.0004
 -22890737.03349 -17539861.01749  20567756.8754   20567758.7234   20567757.1394
       242.0004        204.0004
 -17907699.11349 -13934312.27449  21376078.1684   21376081.1564   21376077.6374
       240.0004        192.0004
 -13291440.60149  -9740717.15749  22141399.0544   22141401.3214   22141399.0284
       233.0004        171.0004
   -787549.02149   -349596.03449  23867014.6584   23867018.1124   23867015.0484
       217.0004        145.0004
 -16884917.30649 -12879459.15949  21803314.5074   21803316.2194   21803315.0624
       230.0004        180.0004
    129092.12749    108164.92149  24218655.1244   24218656.4214   24218653.7214
       213.0004        141.0004
 11 10  9  0 10 30.0000000  0 10G26G05G29G10G07G08G13G04G02G16
  -1628095.77749  -1249058.01349  23973976.9314   23973980.1724   23973975.9584
       212.0004        135.0004
 -14444338.33849 -11239661.75149  21840559.9144   21840563.5474   21840560.6784
       234.0004        190.0004
    616819.62649    470500.63049  25335612.8904                   25335612.2644
       189.0004        123.0004
 -21033430.88249 -16118225.21249  20444727.1984   20444729.8004   20444726.7804
       241.0004        199.0004
 -22895728.92949 -17543750.79749  20566806.5114   20566808.7964   20566807.1794
       241.0004        205.0004
 -17975276.30449 -13986969.80549  21363217.7814   21363221.9984   21363218.0464
       239.0004        192.0004
 -13207797.05049  -9675540.38249  22157316.3274   22157318.5294   22157315.0474
       231.0004        170.0004
   -679660.19149   -265526.78949  23887544.5054   23887549.1934   23887545.7794
       214.0004        144.0004
 -16836701.32549 -12841888.28249  21812490.8794   21812491.8764   21812490.6054
       232.0004        180.0004
    170239.44749    140227.70949  24226484.0824   24226487.3424   24226483.8344
       210.0004        140.0004
 11 10  9  0 11  0.0000000  0 10G26G05G29G10G07G08G13G04G02G16
  -1737932.77749  -1334645.32649  23953073.9534   23953080.1194   23953074.0684
       207.0004        137.0004
 -14518083.42549 -11297125.44549  21826525.4104   21826529.3164   21826526.3604
       231.0004        187.0004
    656084.89949    501096.86549  25343082.7764                   25343084.9504
       189.0004        122.0004
 -20992316.87849 -16086188.33149  20452550.6274   20452554.0064   20452549.8844
       241.0004        199.0004
 -22900149.79649 -17547195.61549  20565965.9694   20565967.7134   20565965.9414
       242.0004        205.0004
 -18042409.95449 -14039281.71549  21350444.0104   21350446.7764   21350443.1674
       240.0004        193.0004
 -13123954.76749  -9610208.75649  22173269.5994   22173273.2594   22173271.0474
       229.0004        170.0004
   -571666.28849   -181375.72949  23908096.0114   23908101.1384   23908094.9894
       213.0004        144.0004
 -16787940.81949 -12803893.09649  21821769.6784   21821770.2724   21821769.2424
       232.0004        180.0004
    211945.71449    172726.06049  24234421.3844   24234423.4364   24234419.7394
       212.0004        140.0004
 11 10  9  0 11 30.0000000  0 10G26G05G29G10G07G08G13G04G02G16
  -1847645.68649  -1420135.94949  23932195.2544   23932202.5244   23932196.5734
       205.0004        140.0004
 -14591498.06449 -11354331.64749  21812556.1764   21812558.7484   21812556.8714
       234.0004        188.0004
    695811.08349    532052.34149  25350641.6874                   25350642.4244
       182.0004        120.0004
 -20950721.76549 -16053776.56349  20460466.6394   20460468.9134   20460466.0444
       242.0004        200.0004
 -22904000.00649 -17550195.77149  20565232.6264   20565235.1404   20565232.9134
       241.0004        205.0004
 -18109098.84849 -14091247.06849  21337752.0054   21337756.1054   21337752.4664
       239.0004        193.0004
 -13039915.10949  -9544723.32249  22189263.0914   22189265.5534   22189263.4804
       231.0004        171.0004
   -463570.15349    -97145.02349  23928665.5154   23928671.3154   23928667.0474
       215.0004        147.0004
 -16738637.64549 -12765475.05749  21831151.8494   21831152.7374   21831151.5904
       231.0004        180.0004
    254209.67349    205658.97149  24242461.8914   24242464.3654   24242461.2464
       208.0004        139.0004
 11 10  9  0 12  0.0000000  0 10G26G05G29G10G07G08G13G04G02G16
  -1957234.15249  -1505529.41349  23911342.9554   23911346.4844   23911339.4334
       205.0004        138.0004
 -14664580.27249 -11411278.81649  21798649.6944   21798652.1694   21798649.7774
       235.0004        189.0004
    735995.34849    563364.88149  25358291.0014
       191.0004        118.0004
 -20908646.38049 -16020990.56349  20468472.8694   20468476.0334   20468472.4104
       241.0004        199.0004
 -22907280.11749 -17552751.69249  20564608.7254   20564610.8954   20564609.0474
       241.0004        205.0004
 -18175341.87449 -14142864.98049  21325148.0504   21325150.7994   21325146.9544
       241.0004        194.0004
 -12955679.87249  -9479085.49949  22205292.2114   22205293.8604   22205291.6214
       231.0004        170.0004
   -355374.99049    -12837.11549  23949257.1244   23949257.2034   23949255.8774
       214.0004        143.0004
 -16688794.26749 -12726636.07949  21840636.9104   21840638.2494   21840636.4334
       232.0004        180.0004
    297029.48649    239025.04249  24250611.6614   24250614.0874   24250612.9434
       210.0004        141.0004
 11 10  9  0 12 30.0000000  0 10G26G05G29G10G07G08G13G04G02G16
  -2066696.31849  -1590824.49749  23890511.2564   23890518.9514   23890512.4914
       212.0004        140.0004
 -14737328.14649 -11467965.46449  21784805.5164   21784808.2354   21784805.8784
       233.0004        188.0004
    776636.22249     11906.07049  25366029.4094
       185.0004         74.0004
 -20866091.56649 -15987830.98149  20476570.2974   20476573.6534   20476570.1544
       240.0004        199.0004
 -22909990.60149 -17554863.75349  20564092.6524   20564094.9924   20564093.2564
       241.0004        204.0004
 -18241137.50649 -14194134.27449  21312626.6364   21312629.8474   21312626.2684
       239.0004        194.0004
 -12871250.40149  -9413296.32849  22221358.5254   22221360.7294   22221358.6774
       230.0004        170.0004
   -247083.46549     71545.87149  23969862.7094   23969864.8474   23969860.9664
       212.0004        141.0004
 -16638412.64349 -12687377.68649  21850223.3494   21850225.2024   21850223.8164
       229.0004        180.0004
    340403.57649    272822.98449  24258866.1774   24258868.9444   24258865.9104
       209.0004        141.0004
 11 10  9  0 13  0.0000000  0 10G26G05G29G10G07G08G13G04G02G16
  -2176030.39649  -1676020.03749  23869708.7254   23869711.9274   23869708.1924
       207.0004        139.0004
 -14809738.54349 -11524389.14449  21771026.2484   21771029.1734   21771026.5904
       233.0004        188.0004
    817732.15549     43876.49049  25373843.2014
       177.0004        108.0004
 -20823056.97149 -15954297.54249  20484760.3124   20484763.0624   20484759.4444
       241.0004        200.0004
 -22912130.87349 -17556531.48849  20563685.5434   20563687.7754   20563685.9594
       241.0004        205.0004
 -18306483.36249 -14245053.10049  21300192.0304   21300195.6124   21300191.6984
       241.0004        195.0004
 -12786626.93249  -9347355.97749  22237460.8654   22237463.7964   22237461.1974
       229.0004        166.0004
   -138697.71549    156002.28149  23990491.7364   23990491.1884   23990489.4704
       216.0004        147.0004
 -16587494.09449 -12647700.91449  21859912.7164   21859913.9314   21859913.0224
       231.0004        179.0004
    384331.18549    307052.16949  24267223.7034   24267227.1794   24267222.4674
       210.0004        139.0004
 11 10  9  0 13 30.0000000  0 10G26G05G29G10G07G08G13G04G02G16
  -2285236.07249  -1761115.29949  23848921.8334   23848929.0314   23848923.6104
       202.0004        136.0004
 -14881809.81549 -11580548.56349  21757311.4854   21757314.4764   21757311.5884
       233.0004        189.0004
    859281.35359     76154.04659  25381752.5384
       170.0004        108.0004
 -20779544.02649 -15920391.36349  20493040.1164   20493042.7824   20493039.5554
       241.0004        199.0004
 -22913702.05949 -17557755.77649  20563386.3214   20563388.8664   20563386.7804
       241.0004        205.0004
 -18371378.43149 -14295620.65649  21287842.8164   21287846.3754   21287842.1954
       241.0004        195.0004
 -12701811.29249  -9281265.88349  22253602.2984   22253604.3364   22253602.2944
       230.0004        168.0004
    -30220.84449    240529.68049  24011127.9304   24011135.6664   24011128.9564
       210.0004        146.0004
 -16536041.28849 -12607607.83249  21869705.2984   21869705.3584   21869704.4294
       232.0004        180.0004
    428810.56949    341711.39649  24275688.6674   24275690.6884   24275689.4514
       208.0004        138.0004
 11 10  9  0 14  0.0000000  0  9G26G05G10G07G08G13G04G02G16
  -2394311.19249  -1846108.79049  23828172.1984   23828175.9454   23828171.5884
       212.0004        147.0004
 -14953539.61949 -11636441.91349  21743662.5994   21743664.3764   21743662.6104
       235.0004        189.0004
 -20735552.71049 -15886112.42449  20501412.1014   20501414.3874   20501410.9404
       242.0004        199.0004
 -22914703.81049 -17558536.35249  20563195.6924   20563198.2874   20563195.8904
       241.0004        205.0004
 -18435820.75249 -14345835.43449  21275578.7074   21275583.3864   21275579.2734
       240.0004        195.0004
 -12616804.57149  -9215026.91349  22269777.7234   22269781.2994   22269778.6394
       228.0004        166.0004
     78344.64149    325126.10649  24031790.3224   24031791.8244   24031790.0984
       213.0004        140.0004
 -16484055.37049 -12567099.34749  21879596.4754   21879597.9724   21879596.6944
       230.0004        179.0004
    473840.43049    376799.52149  24284259.5594   24284260.8604   24284259.0264
       209.0004        141.0004
 11 10  9  0 14 30.0000000  0  9G26G05G10G07G08G13G04G02G16
  -2503255.45749  -1931000.37549  23807436.4124   23807443.7684   23807438.5774
       205.0004        144.0004
 -15024926.76349 -11692068.25849  21730077.8154   21730080.0534   21730077.9914
       235.0004        189.0004
 -20691084.87249 -15851462.17549  20509873.4934   20509876.5484   20509873.0394
       241.0004        200.0004
 -22915137.48649 -17558874.27849  20563113.3124   20563115.5534   20563113.6174
       241.0004        205.0004
 -18499809.51249 -14395696.77449  21263403.4374   21263406.7344   21263402.9594
       242.0004        195.0004
 -12531608.63449  -9148640.48349  22285989.7594   22285992.5584   22285989.6964
       229.0004        166.0004
    186995.58249    409789.22849  24052465.4974   24052468.8754   24052464.2754
       214.0004        143.0004
 -16431539.25649 -12526177.71549  21889590.7044   21889591.6164   21889589.7214
       230.0004        178.0004
    519418.66949    412314.94549  24292932.0614   24292933.4944   24292930.1754
       211.0004        142.0004
 11 10  9  0 15  0.0000000  0  9G26G05G10G07G08G13G04G02G16
  -2612066.97249  -2015788.53049  23786729.9534   23786738.0024   23786730.9694
       206.0004        135.0004
 -15095968.17249 -11747425.18749  21716558.5144   21716561.8364   21716559.1854
       236.0004        190.0004
 -20646140.36249 -15816440.49049  20518426.6904   20518429.3984   20518425.7124
       243.0004        199.0004
 -22915003.16949 -17558769.60449  20563138.8554   20563141.2144   20563138.8854
       241.0004        205.0004
 -18563342.83449 -14445203.23549  21251311.7814   21251316.5214   21251312.4394
       240.0004        195.0004
 -12446224.15249  -9082107.14549  22302238.2894   22302241.3044   22302237.8444
       230.0004        166.0004
    295729.29949    494516.80849  24073154.5084   24073161.9004   24073154.9854
       210.0004        148.0004
 -16378494.77349 -12484844.37349  21899685.5364   21899686.2474   21899684.2744
       230.0004        178.0004
    565544.49549    448257.10249  24301708.4214   24301710.1064   24301710.1264
       211.0004        141.0004
 11 10  9  0 15 30.0000000  0  9G26G05G10G07G08G13G04G02G16
  -2720744.97049  -2100472.72649  23766050.7314   23766055.6244   23766051.6984
       211.0004        143.0004
 -15166662.32049 -11802511.52849  21703107.6244   21703109.1034   21703107.3474
       237.0004        192.0004
 -20600720.22149 -15781048.18749  20527069.5634   20527072.6924   20527068.6794
       241.0004        199.0004
 -22914301.67549 -17558222.98549  20563271.9674   20563274.6564   20563272.8174
       241.0004        205.0004
 -18626419.52249 -14494353.88149  21239311.0064   21239313.2404   21239309.8304
       242.0004        195.0004
 -12360652.66349  -9015428.07849  22318521.8304   22318524.1904   22318521.9274
       230.0004        168.0004
    404542.99949    579306.64749  24093858.0984   24093867.9374   24093860.2114
       205.0004        144.0004
 -16324924.59349 -12443101.39749  21909877.9534   21909879.9644   21909878.4764
       230.0004        179.0004
    612215.66149    484624.26649  24310589.1854   24310592.1364   24310590.1324
       210.0004        141.0004
 11 10  9  0 16  0.0000000  0  9G26G05G10G07G08G13G04G02G16
  -2829287.79749  -2185051.49349  23745396.5924   23745402.1934   23745397.7484
       207.0004        146.0004
 -15237007.17449 -11857325.70549  21689720.1714   21689722.4054   21689720.5474
       236.0004        190.0004
 -20554824.91349 -15745285.61149  20535802.8784   20535805.9584   20535802.0104
       241.0004        199.0004
 -22913033.27549 -17557234.60249  20563513.5824   20563515.8994   20563513.8654
       241.0004        205.0004
 -18689037.92449 -14543147.41149  21227393.5544   21227397.6454   21227393.3504
       242.0004        196.0004
 -12274895.31249  -8948604.19049  22334840.5674   22334843.0364   22334840.7294
       228.0004        168.0004
    513434.20749    664156.90249  24114583.6584   24114587.8584   24114583.0704
       211.0004        141.0004
 -16270830.33349 -12400950.04649  21920173.6734   21920173.4044   21920173.5384
       231.0004        178.0004
    659430.95549    521415.33249  24319573.5684   24319577.0304   24319573.4354
       210.0004        139.0004
 11 10  9  0 16 30.0000000  0  9G26G05G10G07G08G13G04G02G16
  -2937694.10649  -2269523.87049  23724768.2304   23724771.4824   23724767.2944
       211.0004        142.0004
 -15307000.52249 -11911865.96649  21676400.9714   21676403.3694   21676401.2724
       236.0004        190.0004
 -20508455.47449 -15709153.59649  20544627.2814   20544629.8374   20544626.1704
       242.0004        200.0004
 -22911198.11249 -17555804.59849  20563862.9734   20563865.3494   20563863.5144
       241.0004        205.0004
 -18751196.45149 -14591582.61549  21215566.2424   21215568.9874   21215566.1514
       242.0004        196.0004
 -12188953.13549  -8881636.26949  22351195.7624   22351198.4344   22351195.1364
       230.0004        168.0004
    622400.13049    749065.48749  24135319.7814   24135322.7114   24135320.7354
       214.0004        143.0004
 -16216214.13449 -12358391.97749  21930566.4874   21930566.5744   21930565.4894
       231.0004        178.0004
    707188.88849    558629.24849  24328662.1274   24328664.4454   24328662.8234
       208.0004        139.0004
 11 10  9  0 17  0.0000000  0  9G26G05G10G07G08G13G04G02G16
  -3045963.40549  -2353889.58549  23704164.4074   23704169.8734   23704164.7114
       209.0004        143.0004
 -15376640.67449 -11966131.01549  21663148.9674   21663151.5624   21663148.7464
       236.0004        192.0004
 -20461613.45249 -15672653.33549  20553540.7614   20553543.2934   20553539.9834
       241.0004        199.0004
 -22908797.69449 -17553934.13549  20564319.5234   20564321.5574   20564320.2564
       241.0004        204.0004
 -18812894.33149 -14639658.85249  21203825.1304   21203827.8974   21203824.3694
       243.0004        196.0004
 -12102828.18049  -8814525.93649  22367585.1264   22367587.3924   22367585.2174
       230.0004        167.0004
    731437.17449    834029.38849  24156069.5274   24156074.2634   24156067.5604
       211.0004        143.0004
 -16161078.76049 -12315429.37249  21941056.9164   21941058.4974   21941057.4174
       229.0004        178.0004
    755487.26949    596264.32949  24337853.9844   24337856.4474   24337854.2034
       213.0004        142.0004
 11 10  9  0 17 30.0000000  0  9G26G05G10G07G08G13G04G02G16
  -3154093.92749  -2438147.04549  23683588.2914   23683592.9054   23683588.3344
       211.0004        142.0004
 -15445924.66149 -12020118.52449  21649964.3934   21649966.9814   21649965.1764
       237.0004        191.0004
 -20414298.43649 -15635784.49549  20562544.2484   20562547.0784   20562543.6914
       242.0004        199.0004
 -22905831.60149 -17551622.87849  20564884.2754   20564886.2214   20564884.7104
       242.0004        205.0004
 -18874129.41349 -14687374.48549  21192172.4164   21192175.4264   21192172.3584
       242.0004        196.0004
 -12016520.83349  -8747273.46049  22384007.5764   22384010.5714   22384008.4544
       229.0004        166.0004
    840543.47549    919047.20449  24176833.0904   24176835.3584   24176832.6234
       214.0004        145.0004
 -16105425.99349 -12272063.59749  21951648.3494   21951649.8724   21951647.9834
       230.0004        178.0004
    804324.83449    634319.56449  24347146.5294   24347147.6464   24347146.2824
       210.0004        139.0004
 11 10  9  0 18  0.0000000  0  9G26G05G10G07G08G13G04G02G16
  -3262083.75949  -2522294.98849  23663040.4604   23663041.5154   23663039.4954
       213.0004        144.0004
 -15514850.38249 -12073826.88749  21636848.8864   21636850.1934   21636849.2764
       237.0004        190.0004
 -20366510.94849 -15598547.50749  20571638.5474   20571641.1164   20571637.5094
       242.0004        199.0004
 -22902300.23149 -17548871.16249  20565555.8904   20565558.2944   20565556.5094
       241.0004        205.0004
 -18934900.42149 -14734728.49149  21180608.1924   21180610.9704   21180607.4544
       242.0004        196.0004
 -11930032.14949  -8679879.70049  22400466.7984   22400468.3174   22400468.2684
       230.0004        165.0004
    949716.75549   1004117.33649  24197606.1594   24197609.8744   24197606.4584
       211.0004        139.0004
 -16049257.27049 -12228295.79349  21962336.3504   21962337.2234   21962336.5924
       230.0004        178.0004
    853700.43149    672794.05949  24356541.6664   24356542.9724   24356541.6254
       210.0004        139.0004
 11 10  9  0 18 30.0000000  0  9G26G05G10G07G08G13G04G02G16
  -3369933.47949  -2606333.68549  23642515.0474   23642518.8364   23642515.1384
       211.0004        143.0004
 -15583417.56249 -12127255.85049  21623799.1224   21623802.7644   21623800.1334
       234.0004        191.0004
 -20318253.49949 -15560944.30949  20580820.4254   20580824.0684   20580820.1954
       241.0004        199.0004
 -22898206.13249 -17545680.94249  20566335.7414   20566337.5384   20566335.7854
       243.0004        205.0004
 -18995207.01549 -14781720.62749  21169131.2094   21169135.4044   21169131.4604
       240.0004        196.0004
 -11843364.80349  -8612346.72249  22416960.1464   22416960.8384   22416959.8984
       230.0004        165.0004
   1058952.76249   1089236.31449  24218391.0014   24218396.3684   24218391.7994
       202.0004        136.0004
 -15992576.80949 -12184129.21149  21973122.2274   21973123.6444   21973122.4354
       230.0004        176.0004
    903610.57949    711685.01249  24366039.2794   24366042.6944   24366041.1134
       211.0004        142.0004
 11 10  9  0 19  0.0000000  0  9G26G05G10G07G08G13G04G02G16
  -3477640.21749  -2690260.96149  23622019.0404   23622023.9204   23622018.6594
       210.0004        144.0004
 -15651622.22249 -12180402.32049  21610821.2324   21610824.4544   21610821.4294
       235.0004        192.0004
 -20269525.31349 -15522974.30149  20590093.8594   20590096.6114   20590093.0274
       241.0004        198.0004
 -22893548.13749 -17542051.33249  20567221.1494   20567223.7394   20567221.7644
       241.0004        204.0004
 -19055046.64649 -14828348.87949  21157745.4544   21157747.8564   21157744.6144
       243.0004        196.0004
 -11756518.90249  -8544674.59549  22433484.1244   22433487.8054   22433484.9654
       226.0004        163.0004
   1168249.98049   1174402.93649  24239190.8854   24239196.7014   24239191.9684
       211.0004        145.0004
 -15935385.26449 -12139564.39649  21984004.9714   21984007.0394   21984004.9074
       229.0004        175.0004
    954055.65649    750992.89249  24375640.2974   24375641.8974   24375640.3754
       213.0004        143.0004
 11 10  9  0 19 30.0000000  0  9G26G05G10G07G08G13G04G02G16
  -3585203.14349  -2774076.18949  23601551.9094   23601555.1334   23601552.6334
       216.0004        146.0004
 -15719462.43649 -12233264.82949  21597910.7334   21597914.7634   21597912.4354
       235.0004        192.0004
 -20220327.79249 -15484638.58549  20599455.9194   20599458.6054   20599455.0344
       241.0004        198.0004
 -22888327.26749 -17537983.11049  20568215.6624   20568217.3994   20568215.5924
       242.0004        205.0004
 -19114418.05249 -14874612.29449  21146445.7314   21146449.5564   21146446.0974
       240.0004        196.0004
 -11669495.53349  -8476864.20249  22450044.1354   22450047.5164   22450044.1694
       225.0004        161.0004
   1277605.37849   1259614.90049  24260002.1864   24260004.5594   24259999.7164
       208.0004        139.0004
 -15877685.24449 -12094603.36349  21994985.6024   21994986.2354   21994985.0974
       229.0004        174.0004
   1005033.13749    790715.54149  24385341.0484   24385342.4734   24385339.2404
       211.0004        141.0004
 11 10  9  0 20  0.0000000  0  9G26G05G10G07G08G13G04G02G16
  -3692621.03249  -2857778.43149  23581110.8684   23581114.5454   23581110.5354
       212.0004        146.0004
 -15786936.86349 -12285842.29249  21585071.2134   21585074.2134   21585071.8174
       234.0004        191.0004
 -20170662.00849 -15445937.98549  20608906.8994   20608909.6324   20608906.2384
       242.0004        198.0004
 -22882544.08149 -17533476.73349  20569315.6714   20569317.8864   20569316.2634
       241.0004        205.0004
 -19173320.30949 -14920510.13249  21135238.9024   21135241.6474   21135237.8864
       243.0004        196.0004
 -11582296.27149  -8408916.74849  22466638.4404   22466640.2624   22466639.0474
       225.0004        160.0004
   1387016.10349   1344870.02249  24280818.9494   24280820.8724   24280818.8914
       203.0004        132.0004
 -15819479.04649 -12049247.91649  22006062.3174   22006063.4584   22006062.4414
       230.0004        176.0004
   1056540.94249    830851.43249  24395141.0694   24395145.6194   24395140.3784
       210.0004        138.0004
 11 10  9  0 20 30.0000000  0  9G26G05G10G07G08G13G04G02G16
  -3799893.14049  -2941367.06449  23560695.7034   23560699.9504   23560697.1564
       211.0004        145.0004
 -15854043.51649 -12338133.17649  21572301.6534   21572303.9734   21572301.9194
       236.0004        192.0004
 -20120528.72549 -15406873.09949  20618446.9314   20618449.3214   20618446.4754
       242.0004        198.0004
 -22876199.56749 -17528532.93549  20570523.7914   20570524.7044   20570523.6264
       243.0004        204.0004
 -19231752.20549 -14966041.45149  21124118.3914   21124121.6674   21124118.1914
       242.0004        196.0004
 -11494922.43849  -8340833.24949  22483263.4724   22483268.2024   22483264.6504
       223.0004        162.0004
   1496479.36049   1430166.08649  24301650.7324   24301656.8254   24301651.5654
       210.0004        141.0004
 -15760769.76849 -12003500.43749  22017233.9904   22017235.3974   22017233.5974
       229.0004        175.0004
   1108577.42749    871399.25449  24405046.4754   24405046.3964   24405044.7004
       212.0004        143.0004
 11 10  9  0 21  0.0000000  0  9G26G05G10G07G08G13G04G02G16
  -3907017.19149  -3024840.27349  23540311.1854   23540315.9614   23540311.7284
       211.0004        147.0004
 -15920779.56349 -12390135.28649  21559602.0194   21559604.7584   21559602.6314
       235.0004        192.0004
 -20069928.25649 -15367444.17049  20628075.3884   20628078.5664   20628075.0004
       241.0004        198.0004
 -22869293.69349 -17523151.73149  20571836.6214   20571839.2664   20571837.4904
       241.0004        205.0004
 -19289711.64249 -15011204.63449  21113089.4944   21113092.3804   21113089.4974
       242.0004        197.0004
 -11407374.64149  -8272614.20349  22499925.3924   22499927.3824   22499926.8574
       227.0004        161.0004
   1605993.08249   1515501.40449  24322489.6504   24322495.3434   24322490.9354
       205.0004        142.0004
 -15701558.45849 -11957361.77749  22028502.1824   22028502.5194   22028502.0794
       230.0004        176.0004
   1161141.55149    912358.36949  24415046.8214   24415049.8224   24415047.0934
       212.0004        144.0004
 11 10  9  0 21 30.0000000  0  9G26G05G10G07G08G13G04G02G16
  -4013992.69349  -3108197.82549  23519954.6494   23519959.3764   23519954.5704
       211.0004        146.0004
 -15987143.35249 -12441847.31149  21546973.3324   21546976.8064   21546974.0154
       235.0004        193.0004
 -20018862.13649 -15327652.40249  20637793.9564   20637796.6554   20637792.7694
       241.0004        198.0004
 -22861828.04349 -17517334.33049  20573257.8114   20573259.7024   20573257.8924
       241.0004        204.0004
 -19347197.81349 -15055999.02549  21102149.7164   21102153.1934   21102149.3034
       241.0004        196.0004
 -11319654.99149  -8204261.24949  22516617.0944   22516619.9694   22516618.6684
       226.0004        160.0004
   1715553.90349   1600873.39449  24343339.4234   24343341.8104   24343339.6374
       204.0004        136.0004
 -15641848.15849 -11910834.30349  22039864.2304   22039865.1194   22039863.6844
       229.0004        175.0004
   1214230.64849    953726.50849  24425148.9114   24425152.4884   24425148.0464
       210.0004        143.0004
 11 10  9  0 22  0.0000000  0  9G26G05G10G07G08G13G04G02G16
  -4120818.47549  -3191438.62049  23499627.1594   23499630.5144   23499626.8914
       212.0004        147.0004
 -16053132.92149 -12493267.73749  21534416.0634   21534419.2454   21534416.5754
       235.0004        193.0004
 -19967331.42649 -15287498.61649  20647598.7874   20647602.0774   20647598.3414
       240.0004        197.0004
 -22853803.16749 -17511081.17949  20574784.6054   20574787.1574   20574785.3104
       241.0004        205.0004
 -19404210.05749 -15100424.13449  21091300.7954   21091304.3484   21091300.6384
       242.0004        196.0004
 -11231764.58149  -8135775.22249  22533341.7234   22533344.6824   22533343.6254
       226.0004        160.0004
   1825158.94049   1686279.97749  24364196.1734   24364199.3504   24364198.0794
       211.0004        139.0004
 -15581641.36949 -11863919.95149  22051321.6014   22051322.1624   22051321.6004
       230.0004        174.0004
   1267842.77749    995502.06349  24435351.6444   24435354.3794   24435352.6264
       211.0004        141.0004
 11 10  9  0 22 30.0000000  0  9G26G05G10G07G08G13G04G02G16
  -4227492.65149  -3274561.31549  23479327.6504   23479331.6424   23479328.1914
       213.0004        149.0004
 -16118745.86949 -12544394.69649  21521930.1184   21521933.1504   21521931.2474
       236.0004        193.0004
 -19915336.22049 -15246982.88249  20657493.4234   20657496.6654   20657493.0634
       241.0004        197.0004
 -22845219.56149 -17504392.64149  20576418.6214   20576420.2634   20576418.4624
       242.0004        204.0004
 -19460746.30749 -15144478.33249  21080542.3504   21080545.4144   21080542.8154
       242.0004        197.0004
 -11143704.07049  -8067156.64449  22550100.3224   22550102.5444   22550100.4164
       227.0004        163.0004
   1934806.11549   1771719.35449  24385061.5044   24385067.5224   24385061.2264
       204.0004        139.0004
 -15520940.15349 -11816620.30949  22062870.9704   22062873.1034   22062871.4724
       230.0004        175.0004
   1321977.10649   1037684.56949  24445654.3624   24445654.2124   24445654.1564
       214.0004        141.0004
 11 10  9  0 23  0.0000000  0  9G26G05G10G07G08G13G04G02G16
  -4334014.53649  -3357565.35549  23459057.4094   23459059.9454   23459056.9084
       210.0004        144.0004
 -16183980.62049 -12595226.96849  21509517.0234   21509519.5994   21509517.1774
       236.0004        193.0004
 -19862877.95249 -15206106.32449  20667476.3314   20667479.4054   20667475.3904
       241.0004        197.0004
 -22836078.13949 -17497269.45549  20578157.5574   20578159.8874   20578158.2274
       241.0004        204.0004
 -19516805.49849 -15188160.79749  21069875.2624   21069878.5614   21069874.3654
       243.0004        197.0004
 -11055474.79549  -7998406.60249  22566890.6124   22566892.4854   22566890.7874
       227.0004        162.0004
   2044492.55149   1857189.19249  24405934.3864   24405939.3954   24405935.7594
       206.0004        140.0004
 -15459747.00949 -11768937.36249  22074517.5964   22074517.9254   22074516.9084
       230.0004        176.0004
   1376631.05549   1080272.11049  24456053.6364   24456057.6574   24456053.5534
       211.0004        142.0004
 11 10  9  0 23 30.0000000  0  9G26G05G10G07G08G13G04G02G16
  -4440382.66149  -3440449.54749  23438814.0124   23438817.6554   23438814.4074
       213.0004        144.0004
 -16248834.65949 -12645762.56149  21497174.6814   21497178.2194   21497175.7564
       236.0004        193.0004
 -19809957.67349 -15164869.75049  20677547.2574   20677549.5804   20677545.9714
       242.0004        196.0004
 -22826380.20049 -17489712.60449  20580003.1434   20580005.3394   20580003.4884
       241.0004        204.0004
 -19572386.63549 -15231470.75249  21059298.2644   21059301.2114   21059297.3714
       242.0004        197.0004
 -10967078.01149  -7929526.00449  22583710.2874   22583714.6394   22583710.5554
       226.0004        162.0004
   2154215.26749   1942687.41349  24426816.7554   24426815.8914   24426815.5454
       213.0004        138.0004
 -15398064.76449 -11720873.30149  22086254.7364   22086255.7814   22086254.5764
       230.0004        174.0004
   1431802.84949   1123263.07049  24466551.5714   24466555.6704   24466551.9054
       213.0004        142.0004
 11 10  9  0 24  0.0000000  0  9G26G05G10G07G08G13G04G02G16
  -4546595.90449  -3523213.13349  23418604.5554   23418606.8324   23418603.6744
       212.0004        148.0004
 -16313306.63149 -12696000.44949  21484906.9494   21484909.6164   21484907.8034
       237.0004        194.0004
 -19756576.61949 -15123274.14549  20687704.3114   20687707.5344   20687704.5014
       242.0004        196.0004
 -22816126.03549 -17481722.34049  20581954.1134   20581956.8104   20581954.7844
       241.0004        204.0004
 -19627488.49549 -15274407.24549  21048811.8604   21048815.5404   21048811.9794
       241.0004        197.0004
 -10878515.40049  -7860516.19849  22600564.1714   22600565.0934   22600564.5324
       227.0004        163.0004
   2263971.17049   2028211.55349  24447703.0394   24447705.6754   24447701.6284
       209.0004        137.0004
 -15335895.83349 -11672429.99749  22098084.4334   22098085.8294   22098084.0714
       229.0004        174.0004
   1487490.15249   1166655.70349  24477150.1524   24477149.5844   24477150.4024
       212.0004        141.0004
 11 10  9  0 24 30.0000000  0  9G26G05G10G07G08G13G04G02G16
  -4652652.62649  -3605854.66349  23398422.6084   23398426.2614   23398421.5534
       209.0004        149.0004
 -16377393.48649 -12745938.25549  21472712.3834   21472714.1424   21472712.2394
       238.0004        194.0004
 -19702734.81149 -15081319.49849  20697951.0364   20697953.2234   20697950.0384
       242.0004        196.0004
 -22805316.17549 -17473299.06949  20584011.2974   20584013.9454   20584011.8734
       241.0004        205.0004
 -19682109.26649 -15316968.86149  21038418.4664   21038421.6744   21038418.3354
       242.0004        197.0004
 -10789787.32449  -7791377.45049  22617448.9984   22617451.1514   22617448.2714
       226.0004        161.0004
   2373758.84049   2113760.32649  24468592.5114   24468598.0334   24468591.8464
       208.0004        139.0004
 -15273241.61949 -11623608.56349  22110008.1504   22110009.3214   22110007.8134
       229.0004        174.0004
   1543692.13249   1210449.53049  24487843.6554   24487846.1474   24487843.7324
       209.0004        141.0004
 11 10  9  0 25  0.0000000  0  9G26G05G10G07G08G13G04G02G16
  -4758551.75049  -3688373.39749  23378268.5474   23378273.0114   23378269.9134
       211.0004        147.0004
 -16441093.48249 -12795574.59049  21460589.7554   21460592.4674   21460589.8104
       237.0004        194.0004
 -19648433.59049 -15039006.86549  20708283.5364   20708286.8144   20708283.1954
       242.0004        196.0004
 -22793951.55749 -17464443.51449  20586173.5864   20586176.1524   20586173.8294
       240.0004        204.0004
 -19736247.74349 -15359154.66149  21028117.1694   21028119.2274   21028116.2124
       243.0004        197.0004
 -10700895.03249  -7722110.75149  22634363.4094   22634367.4294   22634363.3714
       225.0004        162.0004
   2483575.02149   2199331.34949  24489491.0334   24489493.3604   24489491.4224
       212.0004        142.0004
 -15210105.24649 -11574411.41449  22122022.2774   22122022.8994   22122022.0214
       229.0004        173.0004
   1600406.26049   1254642.30949  24498636.4344   24498638.4164   24498636.2754
       209.0004        142.0004
 11 10  9  0 25 30.0000000  0  9G26G05G10G07G08G13G04G02G16
  -4864291.89849  -3770768.32549  23358148.3044   23358150.2584   23358149.0484
       215.0004        145.0004
 -16504404.69049 -12844907.98949  21448542.2064   21448544.8794   21448542.9804
       238.0004        195.0004
 -19593674.15449 -14996337.18449  20718704.1724   20718707.0654   20718703.5394
       242.0004        196.0004
 -22782033.44849 -17455156.67049  20588442.0354   20588444.3194   20588442.5664
       241.0004        204.0004
 -19789903.22349 -15400964.09949  21017905.3644   21017909.0394   21017905.0854
       241.0004        198.0004
 -10611840.01849  -7652717.25149  22651310.2714   22651311.2134   22651311.1214
       226.0004        161.0004
   2593417.09749   2284922.58849  24510393.4324   24510395.7164   24510392.1934
       209.0004        135.0004
 -15146489.13949 -11524840.43749  22134129.6064   22134128.8214   22134128.9754
       231.0004        174.0004
   1657630.63249   1299232.64249  24509526.1874   24509528.7984   24509526.1194
       210.0004        140.0004
 11 10  9  0 26  0.0000000  0  9G26G05G10G07G08G13G04G02G16
  -4969872.31249  -3853038.77149  23338057.8544   23338059.5924   23338056.7084
       215.0004        148.0004
 -16567325.54849 -12893937.22049  21436569.4914   21436571.2884   21436569.4174
       238.0004        195.0004
 -19538457.67549 -14953311.37549  20729210.9574   20729214.0654   20729210.6964
       241.0004        195.0004
 -22769562.89149 -17445439.34249  20590815.0554   20590817.3184   20590815.4164
       241.0004        204.0004
 -19843074.94749 -15442396.59749  21007787.2894   21007791.0274   21007787.4384
       241.0004        198.0004
 -10522623.65949  -7583198.03849  22668288.1454   22668291.0914   22668288.1314
       225.0004        161.0004
   2703281.61549   2370531.29249  24531297.4814   24531301.2964   24531297.3804
       209.0004        135.0004
 -15082396.19949 -11474897.89349  22146324.1784   22146326.0534   22146324.4034
       228.0004        173.0004
   1715362.70949   1344218.58249  24520512.0364   24520514.4004   24520513.0034
       207.0004        137.0004
 11 10  9  0 26 30.0000000  0  9G26G05G10G07G08G13G04G02G16
  -5075291.10349  -3935183.21149  23317996.5054   23317999.6904   23317996.2004
       211.0004        151.0004
 -16629853.64149 -12942660.39349  21424668.9674   21424672.3854   21424669.8094
       237.0004        194.0004
 -19482784.81249 -14909929.93649  20739805.4634   20739808.5954   20739805.0164
       241.0004        195.0004
 -22756540.32449 -17435291.88349  20593292.9924   20593295.7324   20593293.6584
       241.0004        204.0004
 -19895761.05649 -15483450.67549  20997762.0304   20997765.1914   20997761.4354
       242.0004        199.0004
 -10433247.07049  -7513553.95449  22685295.5194   22685297.4854   22685295.1014
       225.0004        161.0004
   2813166.71049   2456156.03449  24552210.1144   24552212.0514   24552210.7254
       212.0004        143.0004
 -15017828.48649 -11424585.42549  22158611.3844   22158612.5934   22158611.1844
       229.0004        174.0004
   1773601.32249   1389599.18649  24531594.3614   24531597.3584   24531594.1774
       207.0004        139.0004
 11 10  9  0 27  0.0000000  0  9G26G05G10G07G08G13G04G02G16
  -5180547.22249  -4017200.90449  23297965.4844   23297970.6314   23297966.6264
       210.0004        148.0004
 -16691986.83849 -12991075.85749  21412845.9884   21412848.8694   21412847.1574
       238.0004        194.0004
 -19426656.73349 -14866193.77749  20750485.9384   20750488.9264   20750485.5334
       241.0004        195.0004
 -22742966.54049 -17424714.90449  20595876.7154   20595878.4804   20595876.9924
       242.0004        204.0004
 -19947960.73849 -15524125.73749  20987828.7004   20987831.5794   20987828.2834
       242.0004        198.0004
 -10343711.06749  -7443785.67349  22702333.9994   22702337.4544   22702333.2774
       224.0004        157.0004
   2923069.72749   2541794.75949  24573122.0784   24573126.8884   24573121.8554
       205.0004        138.0004
 -14952788.62449 -11373905.03849  22170988.5814   22170988.5194   22170988.2064
       229.0004        173.0004
   1832344.38149   1435372.89149  24542772.7884   24542776.3384   24542772.2784
       204.0004        136.0004
 11 10  9  0 27 30.0000000  0  9G26G05G10G07G08G13G04G02G16
  -5285639.44649  -4099090.94549  23277969.7884   23277970.6554   23277969.6244
       218.0004        150.0004
 -16753723.38949 -13039182.24749  21401098.6704   21401101.3194   21401099.2124
       238.0004        194.0004
 -19370074.72249 -14822103.91149  20761253.5434   20761256.5274   20761252.7114
       241.0004        195.0004
 -22728842.90449 -17413709.46149  20598563.8074   20598566.0964   20598564.3234
       242.0004        204.0004
 -19999672.66749 -15564420.72649  20977988.1414   20977991.2274   20977987.4604
       244.0004        198.0004
 -10254016.88849  -7373894.11849  22719402.2424   22719405.2414   22719401.7294
       224.0004        158.0004
   3032987.85149   2627445.16149  24594036.8354   24594042.5254   24594040.5734
       202.0004        130.0004
 -14887279.42549 -11322858.92249  22183453.2874   22183454.9844   22183453.9564
       228.0004        173.0004
   1891589.47249   1481537.74749  24554046.4394   24554050.5904   24554047.7294
       202.0004        135.0004
 11 10  9  0 28  0.0000000  0  9G26G05G10G07G08G13G04G02G16
  -5390566.91649  -4180852.59449  23258002.9224   23258004.4224   23258002.7294
       216.0004        150.0004
 -16815061.12849 -13086977.87949  21389426.9314   21389428.9134   21389427.0834
       239.0004        195.0004
 -19313039.80449 -14777661.14649  20772107.7824   20772109.7664   20772106.6794
       242.0004        195.0004
 -22714170.34149 -17402276.29349  20601356.0184   20601358.3754   20601356.2054
       241.0004        204.0004
 -20050896.37449 -15604335.28849  20968240.6224   20968243.4144   20968240.3904
       243.0004        198.0004
 -10164166.14949  -7303880.57449  22736499.7304   22736502.8044   22736500.2454
       225.0004        159.0004
   3142918.05749   2713105.08249  24614957.5304   24614960.2064   24614957.2534
       207.0004        135.0004
 -14821303.57949 -11271449.19749  22196009.8464   22196009.8704   22196008.5644
       230.0004        173.0004
   1951334.64249   1528092.25549  24565416.4244   24565418.9374   24565417.6514
       207.0004        136.0004
 11 10  9  0 28 30.0000000  0  9G26G05G10G07G08G13G04G02G16
  -5495327.53049  -4262484.18549  23238065.4504   23238068.6964   23238065.6924
       214.0004        151.0004
 -16875997.75249 -13134460.94849  21377830.5324   21377832.5264   21377830.4884
       237.0004        194.0004
 -19255552.49449 -14732865.85249  20783046.6644   20783049.5264   20783046.4234
       242.0004        195.0004
 -22698949.47849 -17390415.87249  20604252.3014   20604254.5254   20604252.7774
       241.0004        204.0004
 -20101630.18449 -15643868.10249  20958587.2024   20958589.3644   20958586.2444
       244.0004        199.0004
 -10074159.37249  -7233745.43749  22753626.8734   22753629.5344   22753629.7034
       225.0004        156.0004
   3252858.27749   2798772.86449  24635877.6064   24635885.7634   24635877.5324
       204.0004        140.0004
 -14754862.93649 -11219677.29249  22208651.9804   22208653.8774   22208652.1584
       229.0004        174.0004
   2011578.55449   1575035.52549  24576881.9944   24576883.2884   24576881.2914
       209.0004        137.0004
 11 10  9  0 29  0.0000000  0  9G26G05G10G07G08G13G04G02G16
  -5599920.28749  -4343984.99649  23218162.8744   23218166.8604   23218162.5244
       216.0004        153.0004
 -16936531.44349 -13181630.04249  21366310.4914   21366312.6304   21366311.6314
       237.0004        193.0004
 -19197613.97749 -14687718.96349  20794071.8824   20794074.7474   20794070.7094
       241.0004        195.0004
 -22683181.36849 -17378129.02549  20607253.1884   20607255.1904   20607253.2584
       242.0004        205.0004
 -20151872.95849 -15683018.29649  20949024.8414   20949028.4184   20949025.0514
       244.0004        199.0004
  -9983997.80749  -7163489.68749  22770784.3964   22770786.4084   22770786.3034
       223.0004        158.0004
   3362805.76449   2884446.11049  24656799.2894   24656807.5404   24656801.5834
       198.0004        132.0004
 -14687960.28749 -11167545.38549  22221382.5514   22221383.8344   22221381.7774
       226.0004        172.0004
   2072318.90349   1622365.53949  24588439.9104   24588440.0294   24588440.4814
       208.0004        134.0004
 11 10  9  0 29 30.0000000  0  9G26G05G10G07G08G13G04G02G16
  -5704344.01949  -4425354.13949  23198289.7464   23198293.8434   23198290.6494
       212.0004        147.0004
 -16996660.18349 -13228483.61249  21354869.6774   21354871.2514   21354869.8284
       238.0004        195.0004
 -19139225.76049 -14642221.67249  20805183.0154   20805185.7544   20805182.2814
       242.0004        195.0004
 -22666867.22149 -17365416.70549  20610357.0364   20610359.7534   20610357.5534
       241.0004        204.0004
 -20201623.78849 -15721785.16249  20939558.7954   20939561.3324   20939558.0964
       244.0004        199.0004
  -9893682.91249  -7093114.46449  22787970.8564   22787973.8254   22787972.4114
       222.0004        157.0004
   3472757.71649   2970122.87149  24677727.0574   24677722.1644   24677726.7654
       210.0004        131.0004
 -14620598.51949 -11115055.73649  22234200.6344   22234203.3704   22234201.1244
       227.0004        172.0004
   2133553.38149   1670080.67149  24600090.7724   24600092.1124   24600090.7594
       203.0004        132.0004
 11 10  9  0 30  0.0000000  0  9G26G05G10G07G08G13G04G02G16
  -5808597.75349  -4506590.76849  23178452.1184   23178455.0014   23178452.6484
       214.0004        148.0004
 -17056381.73549 -13275019.86649  21343503.9144   21343507.3914   21343504.1304
       236.0004        194.0004
 -19080388.76749 -14596374.67749  20816379.1604   20816382.0424   20816378.3094
       241.0004        195.0004
 -22650008.40349 -17352279.95849  20613565.7114   20613567.9184   20613566.1314
       241.0004        204.0004
 -20250881.76849 -15760167.99049  20930184.6364   20930187.6764   20930184.5404
       244.0004        199.0004
  -9803215.87049  -7022620.68949  22805186.7024   22805189.2014   22805186.9074
       223.0004        158.0004
   3582711.42049   3055801.27249  24698645.3434   24698653.9994   24698648.1064
       199.0004        133.0004
 -14552780.10449 -11062210.23949  22247107.4844   22247108.8444   22247107.1544
       229.0004        173.0004
   2195279.90949   1718179.32549  24611837.9824   24611840.4664   24611838.4224
       206.0004        132.0004
 11 10  9  0 30 30.0000000  0  9G26G05G10G07G08G13G04G02G16
  -5912679.70149  -4587693.59749  23158645.4344   23158648.9074   23158646.2044
       212.0004        151.0004
 -17115694.47749 -13321237.57849  21332218.0004   21332219.9454   21332218.3034
       239.0004        196.0004
 -19021104.06349 -14550178.81349  20827660.3004   20827663.4464   20827659.6284
       242.0004        195.0004
 -22632605.10949 -17338718.94049  20616877.3014   20616879.3804   20616877.7804
       241.0004        204.0004
 -20299645.65549 -15798165.79749  20920906.0954   20920908.0884   20920904.5984
       245.0004        199.0004
  -9712597.28949  -6952008.82049  22822431.1704   22822434.2054   22822431.6554
       222.0004        155.0004
   3692664.65249   3141479.05549  24719567.7724   24719579.4024   24719570.7234
       195.0004        133.0004
 -14484507.65749 -11009010.94649  22260097.9454   22260100.3124   22260099.0344
       226.0004        171.0004
   2257496.43049   1766659.71249  24623678.1724   24623680.9154   24623674.7794
       202.0004        130.0004
 11 10  9  0 31  0.0000000  0  9G26G05G10G07G08G13G04G02G16
  -6016589.08449  -4668661.88349  23138872.0544   23138877.2994   23138873.9884
       215.0004        152.0004
 -17174596.95949 -13367135.60649  21321009.6654   21321010.8184   21321009.5984
       238.0004        194.0004
 -18961373.02949 -14503635.16549  20839027.4274   20839030.0314   20839026.4934
       242.0004        195.0004
 -22614659.10949 -17324735.04249  20620292.4424   20620294.6994   20620292.8604
       242.0004        204.0004
 -20347914.77449 -15835778.08249  20911719.0104   20911722.6484   20911719.1744
       243.0004        199.0004
  -9621828.89549  -6881280.21949  22839703.9304   22839706.3234   22839704.4214
       224.0004        156.0004
   3802614.11249   3227153.79849  24740493.1774   24740499.6464   24740494.1874
       205.0004        138.0004
 -14415784.04249 -10955460.08549  22273176.3994   22273177.7354   22273176.1904
       225.0004        170.0004
   2320200.49249   1815519.98149  24635608.4934   24635610.7534   24635610.0554
       200.0004        128.0004
 11 10  9  0 31 30.0000000  0  9G26G05G10G07G08G13G04G02G16
  -6120323.61749  -4749493.94549  23119132.1244   23119136.0004   23119133.1964
       214.0004        150.0004
 -17233085.89949 -13412711.39249  21309878.4054   21309880.7814   21309878.8374
       237.0004        195.0004
 -18901196.03749 -14456744.01749  20850477.9984   20850481.5364   20850477.3724
       242.0004        195.0004
 -22596170.56449 -17310328.37449  20623810.5374   20623812.8854   20623810.8534
       242.0004        204.0004
 -20395687.44449 -15873003.52149  20902629.4874   20902631.7484   20902629.0204
       245.0004        199.0004
  -9530911.21349  -6810435.29249  22857005.4804   22857006.0624   22857005.5534
       225.0004        157.0004
   3912558.05249   3312824.48949  24761415.7194   24761418.2884   24761415.2964
       202.0004        131.0004
 -14346611.10349 -10901559.12849  22286340.5744   22286342.3814   22286339.9034
       227.0004        171.0004
   2383390.33549   1864758.78449  24647633.5344   24647641.2234   24647631.9154
       202.0004        128.0004
 11 10  9  0 32  0.0000000  0  9G26G05G10G07G08G13G04G02G16
  -6223883.43349  -4830189.91649  23099425.2354   23099428.1604   23099425.9144
       215.0004        149.0004
 -17291160.52449 -13457964.33549  21298826.9494   21298830.1584   21298827.3344
       236.0004        195.0004
 -18840575.57549 -14409507.31149  20862014.8314   20862017.1824   20862013.9874
       244.0004        195.0004
 -22577142.12049 -17295501.01749  20627431.8674   20627433.7884   20627431.8874
       242.0004        204.0004
 -20442963.89749 -15909842.29449  20893632.6084   20893635.3954   20893631.9244
       244.0004        199.0004
  -9439846.21949  -6739475.57549  22874333.7604   22874335.7004   22874333.3544
       224.0004        159.0004
   4022493.00949   3398488.17349  24782330.5744   24782344.0114   24782332.9614
       192.0004        125.0004
 -14276992.77049 -10847311.11049  22299588.0524   22299589.5254   22299586.5694
       227.0004        172.0004
   2447063.54649   1914374.15749  24659750.5014   24659752.6254   24659751.3944
       201.0004        130.0004
 11 10  9  0 32 30.0000000  0  9G26G05G10G07G08G13G04G02G16
  -6327266.22649  -4910747.90349  23079752.5844   23079756.6764   23079753.4764
       215.0004        154.0004
 -17348817.83049 -13502892.08649  21287855.2764   21287858.6224   21287856.1564
       238.0004        196.0004
 -18779511.85749 -14361925.20249  20873634.1274   20873637.3354   20873633.5024
       242.0004        194.0004
 -22557573.32649 -17280252.59649  20631155.7304   20631157.7084   20631156.4494
       243.0004        205.0004
 -20489742.25049 -15946292.94349  20884731.1374   20884734.3294   20884730.9484
       245.0004        200.0004
  -9348634.06549  -6668401.17449  22891690.0144   22891694.1594   22891691.1704
       225.0004        158.0004
   4132416.90849   3484143.00049  24803254.5234   24803258.4334   24803256.2754
       208.0004        142.0004
 -14206931.06049 -10792717.57849  22312919.3174   22312921.6044   22312919.8384
       226.0004        172.0004
   2511218.33349   1964364.82649  24671959.7144   24671961.6144   24671959.4014
       199.0004        130.0004
 11 10  9  0 33  0.0000000  0  9G26G05G10G07G08G13G04G02G16
  -6430471.08349  -4991167.22349  23060113.0654   23060117.0404   23060114.0394
       214.0004        153.0004
 -17406056.27249 -13547493.46649  21276963.9624   21276966.1524   21276964.0524
       238.0004        196.0004
 -18718006.31949 -14313998.82549  20885338.0104   20885341.2004   20885337.6284
       242.0004        195.0004
 -22537465.96049 -17264584.50949  20634981.4644   20634983.9914   20634981.9974
       241.0004        204.0004
 -20536021.84449 -15982354.93749  20875924.0294   20875927.2394   20875923.6424
       244.0004        200.0004
  -9257276.26149  -6597213.28049  22909076.3054   22909078.0854   22909076.3534
       225.0004        156.0004
   4242327.02749   3569787.24849  24824166.8324   24824175.9394   24824168.5954
       201.0004        138.0004
 -14136428.63849 -10737780.66149  22326336.3474   22326337.9414   22326337.0354
       227.0004        169.0004
   2575852.31249   2014729.07449  24684259.3294   24684262.9204   24684257.7334
       203.0004        131.0004
 11 10  9  0 33 30.0000000  0  9G26G05G10G07G08G13G04G02G16
  -6533496.36949  -5071446.64449  23040509.3894   23040511.3864   23040508.6664
       217.0004        151.0004
 -17462873.66749 -13591766.74349  21266150.8364   21266153.8484   21266151.3304
       237.0004        195.0004
 -18656059.64249 -14265728.71049  20897126.4354   20897129.6934   20897125.4994
       242.0004        194.0004
 -22516820.80449 -17248497.37549  20638910.3194   20638912.8174   20638910.7474
       242.0004        204.0004
 -20581801.67249 -16018027.51849  20867213.4624   20867215.9064   20867212.7654
       245.0004        201.0004
  -9165774.05749  -6525912.87249  22926487.5364   22926489.6324   22926488.3784
       224.0004        157.0004
   4352221.20649   3655419.04749  24845075.0624   24845083.8504   24845079.1024
       189.0004        125.0004
 -14065488.09049 -10682502.32149  22339834.1364   22339836.9464   22339834.8794
       223.0004        167.0004
   2640963.67249   2065465.09349  24696648.8964   24696654.5814   24696648.5544
       205.0004        133.0004
 11 10  9  0 34  0.0000000  0  9G26G05G10G07G08G13G04G02G16
  -6636341.51749  -5151585.68049  23020937.0874   23020940.8174   23020937.0734
       214.0004        152.0004
 -17519268.82249 -13635711.01749  21255419.8764   21255422.5214   21255420.7984
       239.0004        196.0004
 -18593673.80349 -14217116.39049  20908998.0604   20909001.2474   20908997.6014
       243.0004        195.0004
 -22495639.80849 -17231992.70449  20642940.6464   20642943.1244   20642941.1914
       241.0004        204.0004
 -20627081.45749 -16053310.45149  20858596.4194   20858599.0724   20858595.7184
       244.0004        200.0004
  -9074128.71549  -6454500.93049  22943926.9124   22943930.4714   22943927.4694
       222.0004        157.0004
   4462095.65849   3741035.52549  24865989.9824   24865993.7884   24865990.7544
       207.0004        136.0004
 -13994112.87749 -10626885.28949  22353418.0034   22353418.3204   22353417.8174
       226.0004        166.0004
   2706549.26049   2116570.49149  24709129.7784   24709133.0194   24709130.8974
       206.0004        136.0004
 11 10  9  0 34 30.0000000  0  9G26G05G10G07G08G13G04G02G16
  -6739004.78449  -5231582.98649  23001400.2304   23001404.4414   23001402.0244
       217.0004        153.0004
 -17575238.99049 -13679324.12449  21244769.6924   21244772.0124   21244769.7344
       238.0004        197.0004
 -18530849.83449 -14168162.65649  20920953.2234   20920956.1134   20920952.1594
       242.0004        194.0004
 -22473923.54249 -17215070.92849  20647073.5614   20647075.6984   20647073.8864
       242.0004        205.0004
 -20671859.50549 -16088202.41649  20850075.2604   20850078.4454   20850074.9504
       245.0004        201.0004
  -8982340.86849  -6382977.96149  22961394.8244   22961396.6994   22961394.5654
       224.0004        155.0004
   4571948.73149   3826635.31649  24886894.9684   24886900.9174   24886894.8464
       203.0004        139.0004
 -13922305.01149 -10570931.13149  22367083.5194   22367084.2374   22367082.5074
       227.0004        169.0004
   2772607.50249   2168044.22449  24721699.4464   24721703.6454   24721699.3714
       204.0004        133.0004
 11 10  9  0 35  0.0000000  0  9G26G05G10G07G08G13G04G02G16
  -6841484.70949  -5311437.46049  22981900.7834   22981902.6694   22981900.8734
       216.0004        153.0004
 -17630782.68249 -13722604.91049  21234198.6244   21234201.6994   21234199.1254
       237.0004        196.0004
 -18467588.71249 -14118868.29849  20932991.0974   20932994.0914   20932990.6404
       242.0004        194.0004
 -22451673.44349 -17197733.18449  20651307.6584   20651309.6004   20651307.7424
       242.0004        204.0004
 -20716135.18949 -16122702.93349  20841649.2104   20841652.7434   20841649.0324
       243.0004        201.0004
  -8890412.01849  -6311345.11349  22978886.4314   22978891.0434   22978888.4344
       222.0004        156.0004
   4681777.68849   3912216.21149  24907790.0114   24907800.2834   24907789.5684
       192.0004        129.0004
 -13850067.55949 -10514642.22949  22380827.0364   22380831.0274   22380828.0474
       224.0004        169.0004
   2839136.03449   2219884.54349  24734358.1634   24734361.0954   24734358.6264
       204.0004        131.0004
 11 10  9  0 35 30.0000000  0  9G26G05G10G07G08G13G04G02G16
  -6943780.50949  -5391148.41749  22962434.1724   22962438.4234   22962434.5764
       218.0004        154.0004
 -17685897.83149 -13765551.77949  21223711.1854   21223712.7464   21223711.6974
       238.0004        196.0004
 -18403891.63349 -14069234.22049  20945111.5644   20945115.2654   20945111.3084
       240.0004        194.0004
 -22428890.68449 -17179980.38049  20655642.4854   20655645.6284   20655643.2934
       242.0004        205.0004
 -20759907.75249 -16156811.40849  20833319.8864   20833323.0594   20833319.4594
       244.0004        201.0004
  -8798343.23649  -6239603.21849  22996406.7994   22996410.4624   22996408.1044
       220.0004        155.0004
   4791579.71449   3997776.15549  24928687.0884   24928684.8364   24928684.8954
       207.0004        127.0004
 -13777403.30449 -10458020.77849  22394656.7634   22394657.6804   22394656.9274
       224.0004        167.0004
   2906132.64549   2272089.62749  24747110.3134   24747113.1534   24747110.1534
       205.0004        133.0004
 11 10  9  0 36  0.0000000  0  9G26G05G10G07G08G13G04G02G16
  -7045890.02249  -5470714.21949  22943003.1794   22943006.5564   22943002.6994
       217.0004        154.0004
 -17740581.90449 -13808162.74149  21213305.5664   21213307.7694   21213306.1094
       239.0004        198.0004
 -18339759.45449 -14019261.11249  20957315.6974   20957319.5954   20957315.2744
       241.0004        194.0004
 -22405576.08749 -17161813.16249  20660079.7744   20660081.5304   20660079.9034
       242.0004        204.0004
 -20803175.93549 -16190526.85449  20825086.1524   20825089.4424   20825085.6844
       243.0004        200.0004
  -8706135.03449  -6167752.69849  23013955.4464   23013956.0114   23013954.0074
       224.0004        157.0004
   4901352.99749   4083313.96549  24949576.8444   24949583.5894   24949577.8764
       204.0004        134.0004
 -13704314.62749 -10401068.57649  22408563.2544   22408565.0344   22408563.2614
       223.0004        166.0004
   2973595.51449   2324657.99049  24759947.2654   24759950.8404   24759944.9244
       202.0004        135.0004
 11 10  9  0 36 30.0000000  0  9G26G05G10G07G08G13G04G02G16
  -7147812.73949  -5550134.49949  22923607.6624   22923610.3694   22923607.8544
       216.0004        153.0004
 -17794833.21549 -13850436.47749  21202982.0054   21202984.6044   21202981.9164
       238.0004        197.0004
 -18275194.08149 -13968950.44949  20969603.1404   20969605.8704   20969602.0994
       241.0004        194.0004
 -22381731.39149 -17143232.86549  20664617.5044   20664619.2254   20664617.8734
       243.0004        204.0004
 -20845939.45749 -16223849.06349  20816948.4324   20816951.5904   20816948.2814
       244.0004        200.0004
  -8613789.31149  -6095795.00949  23031527.3594   23031529.2024   23031527.3234
       224.0004        156.0004
   5011094.23949   4168826.51949  24970458.4334   24970470.3924   24970460.6374
       193.0004        132.0004
 -13630804.52749 -10343787.99449  22422553.3394   22422554.1424   22422553.5404
       226.0004        166.0004
   3041521.74549   2377587.38649  24772872.3724   24772877.7284   24772872.7204
       204.0004        132.0004
 11 10  9  0 37  0.0000000  0  9G26G05G10G07G08G13G04G02G16
  -7249547.16449  -5629408.03649  22904247.0934   22904250.8614   22904247.9704
       217.0004        152.0004
 -17848650.52549 -13892372.03549  21192740.7814   21192743.2774   21192740.9024
       239.0004        197.0004
 -18210196.54149 -13918303.03349  20981971.0864   20981974.0554   20981970.3904
       241.0004        192.0004
 -22357357.51849 -17124240.23449  20669254.9504   20669257.5304   20669255.8064
       242.0004        204.0004
 -20888197.46449 -16256777.36649  20808907.5814   20808910.3724   20808906.9524
       244.0004        201.0004
  -8521307.15149  -6023731.01249  23049125.3024   23049127.5094   23049125.9144
       223.0004        155.0004
   5120801.00049   4254312.10549  24991337.7864   24991337.9774   24991338.5714
       213.0004        134.0004
 -13556876.00849 -10286181.36249  22436620.9184   22436622.6594   22436621.0434
       225.0004        168.0004
   3109909.32849   2430876.37049  24785887.0834   24785889.2054   24785885.9584
       205.0004        130.0004
 11 10  9  0 37 30.0000000  0  9G26G05G10G07G08G13G04G02G16
  -7351091.61549  -5708533.54249  22884926.2374   22884927.9644   22884925.5394
       220.0004        154.0004
 -17902031.25349 -13933967.41249  21182583.4774   21182584.8224   21182583.6784
       241.0004        198.0004
 -18144767.79749 -13867319.62149  20994422.4624   20994425.1474   20994421.5924
       239.0004        193.0004
 -22332455.57149 -17104836.11949  20673994.0144   20673995.4024   20673994.4174
       242.0004        204.0004
 -20929948.68849 -16289310.77149  20800961.9274   20800965.5174   20800961.8804
       244.0004        201.0004
  -8428688.51349  -5951560.66849  23066751.7224   23066751.0944   23066750.0134
       222.0004        154.0004
   5230471.20549   4339769.58349  25012210.8794   25012206.3404   25012207.6844
       210.0004        129.0004
 -13482531.44449 -10228250.56349  22450768.3624   22450769.7144   22450769.5214
       225.0004        168.0004
   3178756.30549   2484523.31249  24798988.2094   24798991.8034   24798988.7774
       205.0004        131.0004
 11 10  9  0 38  0.0000000  0  9G26G05G10G07G08G13G04G02G16
  -7452445.22149  -5787510.34349  22865638.0474   22865640.6474   22865637.9344
       218.0004        154.0004
 -17954973.72549 -13975221.28449  21172506.9224   21172510.0984   21172507.8344
       237.0004        197.0004
 -18078909.73849 -13816001.65749  21006953.9974   21006957.4704   21006953.3954
       238.0004        192.0004
 -22307027.18849 -17085021.78549  20678832.8244   20678835.2564   20678832.8574
       242.0004        204.0004
 -20971192.68649 -16321448.93149  20793113.7654   20793116.7864   20793113.1864
       244.0004        201.0004
  -8335935.24249  -5879285.40549  23084401.0364   23084404.1594   23084401.0294
       222.0004        151.0004
   5340101.93549   4425196.27349  25033071.5104   25033085.3134   25033070.2654
       193.0004        125.0004
 -13407774.00449 -10169998.05249  22464993.7284   22464995.8184   22464994.5584
       223.0004        167.0004
   3248060.03249   2538526.15149  24812175.5624   24812181.7734   24812175.9414
       207.0004        132.0004
 11 10  9  0 38 30.0000000  0  9G26G05G10G07G08G13G04G02G16
  -7553606.60849  -5866337.32849  22846387.2344   22846392.3654   22846387.5284
       218.0004        156.0004
 -18007476.25449 -14016132.33649  21162516.5164   21162519.5364   21162517.2824
       239.0004        198.0004
 -18012623.44449 -13764350.02349  21019568.1104   21019571.6254   21019567.2684
       239.0004        192.0004
 -22281073.71049 -17064798.29149  20683771.9924   20683773.7274   20683772.0454
       243.0004        203.0004
 -21011928.77749 -16353191.32749  20785361.8654   20785365.2504   20785361.7414
       243.0004        201.0004
  -8243048.39849  -5806906.09749  23102077.6924   23102079.0184   23102076.9944
       220.0004        152.0004
   5449690.50749   4510589.67549  25053923.7974   25053927.6434   25053924.2654
       210.0004        139.0004
 -13332606.41349 -10111425.92849  22479299.9784   22479299.9994   22479298.0854
       227.0004        166.0004
   3317818.45849   2592883.40849  24825450.1014   24825452.6604   24825451.6914
       204.0004        134.0004
 11 10  9  0 39  0.0000000  0  9G26G05G10G07G08G13G04G02G16
  -7654574.01749  -5945013.19249  22827174.3884   22827176.2574   22827173.5614
       217.0004        153.0004
 -18059536.07749 -14056698.43049  21152610.2944   21152613.1944   21152610.9714
       239.0004        198.0004
 -17945909.87249 -13712365.44249  21032262.9364   21032266.3644   21032262.4744
       238.0004        192.0004
 -22254595.84949 -17044166.18949  20688809.5204   20688812.1914   20688810.3384
       242.0004        204.0004
 -21052155.44749 -16384536.76749  20777707.1544   20777710.3214   20777706.9414
       244.0004        202.0004
  -8150028.86349  -5734423.35349  23119778.4154   23119780.3394   23119778.1324
       221.0004        151.0004
   5559234.83749   4595948.90549  25074769.6314   25074771.5724   25074769.0434
       206.0004        133.0004
 -13257031.14049 -10052536.10349  22493680.4854   22493681.9154   22493681.2454
       225.0004        166.0004
   3388028.87649   2647592.88949  24838811.8934   24838816.7744   24838811.0234
       205.0004        133.0004
 11 10  9  0 39 30.0000000  0  9G26G05G10G07G08G13G04G02G16
  -7755346.48349  -6023537.16249  22807996.9804   22808001.2454   22807997.1814
       216.0004        154.0004
 -18111151.89549 -14096918.54849  21142788.0794   21142790.0604   21142788.6964
       239.0004        198.0004
 -17878770.44849 -13660049.03149  21045038.9724   21045042.4624   21045038.4804
       239.0004        191.0004
 -22227595.43549 -17023126.90749  20693948.8034   20693950.0544   20693948.8324
       243.0004        204.0004
 -21091872.52349 -16415485.12349  20770149.7284   20770152.2864   20770148.8394
       245.0004        201.0004
  -8056878.00349  -5661838.28849  23137504.2164   23137505.4594   23137504.4944
       219.0004        151.0004
   5668732.19349   4681271.65749  25095605.0474   25095609.1704   25095605.6764
       188.0004        118.0004
 -13181051.30049  -9993331.04449  22508138.3244   22508140.0904   22508137.5864
       222.0004        166.0004
   3458688.82949   2702652.53849  24852257.4834   24852260.4804   24852257.7404
       206.0004        134.0004
 11 10  9  0 40  0.0000000  0  9G26G05G10G07G08G13G04G02G16
  -7855923.45549  -6101908.79749  22788856.5234   22788860.9964   22788857.2904
       215.0004        155.0004
 -18162322.59849 -14136791.82049  21133050.1224   21133052.8404   21133050.8564
       238.0004        197.0004
 -17811207.15249 -13607402.32349  21057896.6264   21057899.2724   21057895.9924
       239.0004        191.0004
 -22200074.27849 -17001681.83949  20699185.3394   20699187.3334   20699185.2304
       242.0004        203.0004
 -21131079.94449 -16446036.34749  20762687.9064   20762691.2164   20762687.5394
       243.0004        201.0004
  -7963597.01749  -5589151.85749  23155253.6154   23155258.9234   23155255.2094
       218.0004        147.0004
   5778179.45549   4766555.16949  25116433.6824   25116437.5274   25116432.5334
       211.0004        135.0004
 -13104670.59849  -9933813.66049  22522673.2454   22522673.9874   22522673.3834
       224.0004        167.0004
   3529796.30149   2758061.16549  24865787.8774   24865788.4354   24865788.0674
       205.0004        134.0004
 11 10  9  0 40 30.0000000  0  9G26G05G10G07G08G13G04G02G16
  -7956302.50049  -6180126.20449  22769756.7754   22769759.8704   22769756.0124
       218.0004        155.0004
 -18213045.06149 -14176315.81449  21123398.8134   21123401.6114   21123399.3494
       240.0004        199.0004
 -17743220.65149 -13554425.84549  21070834.3584   21070836.8414   21070833.4654
       239.0004        191.0004
 -22172032.91149 -16979831.42749  20704521.2054   20704523.7474   20704521.5734
       243.0004        203.0004
 -21169776.31549 -16476189.34749  20755324.7724   20755327.4934   20755324.0674
       244.0004        201.0004
  -7870186.40549  -5516364.38449  23173030.4374   23173031.1974   23173031.6344
       217.0004        146.0004
   5887574.62649   4851798.13949  25137250.5864   25137253.0604   25137250.9624
       207.0004        139.0004
 -13027890.83649  -9873985.30649  22537283.6844   22537285.8954   22537283.4694
       223.0004        167.0004
   3601348.87749   2813816.41049  24879406.7804   24879408.2744   24879402.2394
       210.0004        135.0004
 11 10  9  0 41  0.0000000  0  9G26G05G10G07G08G13G04G02G16
  -8056482.68049  -6258188.65849  22750693.0644   22750695.6184   22750692.5724
       219.0004        155.0004
 -18263317.55149 -14215489.17549  21113832.2284   21113834.4654   21113832.4034
       238.0004        198.0004
 -17674812.50549 -13501120.80849  21083852.4574   21083854.8714   21083850.9274
       240.0004        191.0004
 -22143472.71549 -16957576.72149  20709955.8514   20709958.3174   20709956.1704
       242.0004        204.0004
 -21207961.16949 -16505943.76049  20748058.1024   20748061.0464   20748057.5214
       243.0004        201.0004
  -7776647.26149  -5443476.76549  23190827.8294   23190831.7634   23190827.0444
       214.0004        146.0004
   5996915.64249   4936998.93549  25158055.8794   25158058.6814   25158060.3614
       189.0004        122.0004
 -12950715.22449  -9813848.48549  22551970.3604   22551971.3984   22551969.9224
       225.0004        165.0004
   3673344.40349   2869917.06049  24893105.3664   24893105.1574   24893104.8994
       206.0004        134.0004
 11 10  9  0 41 30.0000000  0  9G26G05G10G07G08G13G04G02G16
  -8156463.03349  -6336095.41549  22731666.1314   22731671.6734   22731666.8914
       217.0004        158.0004
 -18313139.02149 -14254311.10049  21104350.9574   21104353.4264   21104351.9944
       239.0004        197.0004
 -17605984.34349 -13447488.49749  21096949.3424   21096952.4394   21096948.8054
       239.0004        191.0004
 -22114395.63749 -16934919.25949  20715490.0044   20715491.6244   20715490.0774
       244.0004        204.0004
 -21245633.85949 -16535299.08949  20740888.5644   20740892.6574   20740888.8314
       243.0004        201.0004
  -7682981.24449  -5370490.26849  23208654.2174   23208657.0874   23208654.4404
       214.0004        145.0004
   6106199.39349   5022155.08249  25178852.5144                   25178855.2124
       199.0004        123.0004
 -12873146.89449  -9753405.65649  22566731.5724   22566732.2194   22566731.6284
       223.0004        164.0004
   3745779.82349   2926360.39149  24906887.9294   24906889.3734   24906887.3404
       205.0004        133.0004
 11 10  9  0 42  0.0000000  0  9G26G05G10G07G08G13G04G02G16
  -8256241.81949  -6413845.08549  22712678.9754   22712684.4924   22712679.2634
       217.0004        157.0004
 -18362506.95949 -14292779.62449  21094956.9124   21094958.9444   21094957.0074
       238.0004        197.0004
 -17536737.22549 -13393529.72049  21110126.5734   21110129.5604   21110125.9354
       240.0004        191.0004
 -22084802.34649 -16911859.54849  20721120.2064   20721122.3704   20721120.6684
       242.0004        203.0004
 -21282793.52849 -16564254.65649  20733817.9994   20733820.9374   20733817.4094
       243.0004        201.0004
  -7589188.95749  -5297405.42549  23226502.9764   23226507.2724   23226503.1904
       219.0004        146.0004
   6215423.48749   5107264.87549  25199637.9204   25199642.2054   25199638.3914
       208.0004        133.0004
 -12795188.32849  -9692658.73249  22581565.7234   22581567.6694   22581566.0874
       223.0004        165.0004
   3818652.64849   2983144.33849  24920757.2534   24920764.6354   24920755.5444
       202.0004        128.0004
 11 10  9  0 42 30.0000000  0  9G26G05G10G07G08G13G04G02G16
  -8355818.03749  -6491436.89549  22693731.7994   22693735.1274   22693731.7624
       220.0004        158.0004
 -18411419.63349 -14330893.38749  21085649.1864   21085651.5204   21085649.2414
       239.0004        198.0004
 -17467072.97349 -13339245.91049  21123383.8884   21123386.2554   21123383.0924
       240.0004        191.0004
 -22054694.97549 -16888399.25349  20726850.2754   20726852.0094   20726850.5514
       243.0004        203.0004
 -21319440.09049 -16592810.40449  20726844.8544   20726847.2154   20726844.3554
       244.0004        201.0004
  -7495271.62949  -5224223.11249  23244372.9494   23244375.3474   23244373.7274
       213.0004        143.0004
   6324585.39749   5192326.06749  25220411.9914   25220415.6854   25220410.6764
       201.0004        132.0004
 -12716842.69949  -9631610.23349  22596474.3354   22596476.6804   22596474.1794
       223.0004        165.0004
   3891960.76449   3040267.26449  24934704.9374   24934707.5814   24934704.5934
       200.0004        130.0004
 11 10  9  0 43  0.0000000  0  9G26G05G10G07G08G13G04G02G16
  -8455189.88449  -6568869.48949  22674821.5004   22674825.2134   22674822.7854
       219.0004        158.0004
 -18459875.47449 -14368651.17749  21076427.3944   21076431.1104   21076427.9844
       237.0004        198.0004
 -17396992.36349 -13284637.65349  21136719.1744   21136722.2454   21136718.6044
       238.0004        191.0004
 -22024074.66049 -16864539.25849  20732676.8824   20732678.9264   20732676.8964
       243.0004        203.0004
 -21355572.41949 -16620965.44349  20719968.4894   20719971.8764   20719967.9024
       243.0004        201.0004
  -7401229.83149  -5150943.80649  23262269.3634   23262269.6434   23262267.4044
       211.0004        138.0004
   6433682.97049   5277336.98249  25241167.9534   25241174.1744   25241169.5244
       199.0004        130.0004
 -12638112.81649  -9570262.30049  22611456.5114   22611457.9374   22611455.6924
       223.0004        166.0004
   3965702.20249   3097728.16349  24948739.0414   24948740.7864   24948737.2164
       207.0004        131.0004
 11 10  9  0 43 30.0000000  0  9G26G05G10G07G08G13G04G02G16
  -8554356.70549  -6646142.29549  22655949.9804   22655956.1844   22655949.0764
       217.0004        157.0004
 -18507872.79549 -14406051.68449  21067294.7304   21067296.8204   21067295.2824
       239.0004        198.0004
 -17326497.18149 -13229706.36149  21150134.0664   21150137.2134   21150133.4674
       240.0004        191.0004
 -21992943.02249 -16840280.83849  20738601.1754   20738602.8784   20738601.1844
       243.0004        202.0004
 -21391190.26949 -16648719.60149  20713190.4614   20713193.8514   20713190.3604
       244.0004        201.0004
  -7307065.18249  -5077568.79949  23280189.6474   23280191.7944   23280187.8954
       210.0004        132.0004
   6542713.11449   5362295.50149  25261919.9574   25261920.9634   25261919.6644
       210.0004        128.0004
 -12559002.06349  -9508617.58849  22626511.0364   22626511.7884   22626510.8344
       222.0004        164.0004
   4039873.23249   3155523.69949  24962852.9924   24962857.3174   24962852.3704
       205.0004        131.0004
 11 10  9  0 44  0.0000000  0  9G26G05G10G07G08G13G04G02G16
  -8653316.23749  -6723253.57549  22637118.2784   22637123.7744   22637118.9994
       219.0004        159.0004
 -18555408.93249 -14443092.83649  21058248.3834   21058250.8674   21058249.0804
       237.0004        197.0004
 -17255588.22549 -13174452.63849  21163627.6614   21163630.5774   21163627.0444
       240.0004        191.0004
 -21961300.75049 -16815624.51549  20744621.5284   20744624.4774   20744622.1214
       242.0004        202.0004
 -21426292.29249 -16676071.81149  20706511.4624   20706513.9744   20706510.9094
       243.0004        201.0004
  -7212778.04549  -5004098.28449  23298131.4554   23298133.1674   23298133.3894
       205.0004        128.0004
   6651674.29349   5447200.50849  25282650.1694   25282657.6854   25282654.5674
       200.0004        128.0004
 -12479512.38349  -9446677.59749  22641638.1024   22641638.7044   22641637.4054
       224.0004        164.0004
   4114473.39849   3213653.58249  24977050.2604   24977054.6704   24977049.3764
       208.0004        132.0004
 11 10  9  0 44 30.0000000  0  9G26G05G10G07G08G13G04G02G16
  -8752068.19449  -6800203.09149  22618326.6634   22618331.4964   22618326.6444
       218.0004        160.0004
 -18602482.69349 -14479773.68249  21049290.6984   21049293.7754   21049290.5404
       238.0004        198.0004
 -17184267.76049 -13118878.27149  21177199.2594   21177202.5814   21177198.3324
       239.0004        191.0004
 -21929150.28149 -16790572.20149  20750740.9794   20750742.5224   20750740.8364
       243.0004        202.0004
 -21460878.81249 -16703022.32949  20699929.8284   20699932.7384   20699929.3724
       244.0004        202.0004
  -7118369.94849  -4930533.52549  23316097.9164   23316098.4684   23316096.2734
       210.0004        129.0004
   6760563.24649   5532049.00849  25303371.2864   25303381.8824   25303369.4994
       194.0004        125.0004
 -12399647.39549  -9384445.15849  22656836.0134   22656836.8914   22656835.3854
       224.0004        165.0004
   4189498.52449   3272114.51749  24991325.1714   24991332.4784   24991323.1134
       206.0004        129.0004
 11 10  9  0 45  0.0000000  0  9G26G05G10G07G08G13G04G02G16
  -8850610.60549  -6876989.37749  22599573.9244   22599579.4494   22599574.4864
       218.0004        158.0004
 -18649092.23449 -14516092.80549  21040421.0744   21040424.3224   21040421.4064
       238.0004        199.0004
 -17112536.87149 -13062984.09149  21190849.2314   21190852.1934   21190848.3594
       240.0004        190.0004
 -21896492.79649 -16765124.81049  20756954.2254   20756956.8784   20756954.7974
       241.0004        201.0004
 -21494948.90649 -16729570.44049  20693445.9954   20693449.2014   20693445.9644
       244.0004        202.0004
  -7023841.74949  -4856875.21049  23334085.2024   23334088.0184   23334082.8774
       207.0004        132.0004
   6869377.67249   5616839.29049  25324079.4494   25324084.8644   25324081.3294
       202.0004        131.0004
 -12319410.20949  -9321922.68349  22672104.5474   22672105.9144   22672103.5434
       223.0004        163.0004
   4264947.17049   3330905.68349  25005682.6304   25005686.1404   25005683.0504
       204.0004        131.0004
 11 10  9  0 45 30.0000000  0  9G26G05G10G07G08G13G04G02G16
  -8948942.39749  -6953611.50849  22580863.6154   22580867.9674   22580863.9854
       221.0004        160.0004
 -18695235.62649 -14552048.68649  21031640.3734   21031642.7274   21031641.2404
       239.0004        198.0004
 -17040397.11949 -13006771.32449  21204577.3554   21204579.7564   21204577.1304
       241.0004        190.0004
 -21863329.32849 -16739283.13949  20763265.5454   20763268.0104   20763265.6504
       242.0004        202.0004
 -21528501.99649 -16755715.68949  20687062.3894   20687064.3244   20687061.2884
       244.0004        202.0004
  -6929194.79549  -4783124.35449  23352094.7774   23352098.5554   23352091.4254
       204.0004        128.0004
   6978115.08249   5701569.73049  25344771.2244   25344772.1814   25344764.9274
       195.0004        127.0004
 -12238803.63349  -9259112.37949  22687442.5894   22687444.7564   22687443.3364
       222.0004        164.0004
   4340816.68949   3390024.89649  25020121.6834   25020126.4384   25020120.9274
       207.0004        130.0004
 11 10  9  0 46  0.0000000  0  9G26G05G10G07G08G13G04G02G16
  -9047061.98649  -7030068.30849  22562191.9064   22562196.4684   22562191.4864
       219.0004        162.0004
 -18740911.04749 -14587639.93349  21022948.4044   21022951.0394   21022949.1084
       238.0004        199.0004
 -16967849.53449 -12950240.74649  21218382.3884   21218384.9894   21218381.7804
       239.0004        190.0004
 -21829661.36249 -16713048.36649  20769672.3174   20769674.3474   20769672.9874
       243.0004        202.0004
 -21561537.47449 -16781457.60749  20680773.5334   20680777.7504   20680773.9354
       242.0004        202.0004
  -6834429.41449  -4709281.25249  23370128.4444   23370131.8144   23370126.6684
       204.0004        130.0004
   7086773.70649   5786238.82149  25365445.0364   25365454.3674   25365447.1444
       193.0004        123.0004
 -12157830.25149  -9196016.28749  22702850.9094   22702853.0884   22702851.9674
       221.0004        164.0004
   4417104.27849   3449469.75049  25034638.7154   25034644.5514   25034635.8134
       204.0004        130.0004
 11 10  9  0 46 30.0000000  0  9G26G05G10G07G08G13G04G02G16
  -9144968.52349  -7106359.05449  22543559.4294   22543564.7344   22543559.0364
       218.0004        160.0004
 -18786117.19349 -14622865.48449  21014345.6514   21014349.7414   21014346.6144
       238.0004        199.0004
 -16894896.31249 -12893394.09649  21232263.9014   21232268.3824   21232263.8304
       238.0004        190.0004
 -21795491.14449 -16686422.21549  20776174.9804   20776177.0034   20776175.2224
       242.0004        202.0004
 -21594055.79149 -16806796.54149  20674586.6874   20674590.1824   20674586.0974
       244.0004        202.0004
  -6739547.45049  -4635347.35349  23388185.1594   23388182.4424   23388187.6174
       207.0004        128.0004
   7195350.21349   5870843.91949  25386111.5974   25386116.3914   25386108.6424
       201.0004        131.0004
 -12076493.92449  -9132637.34249  22718327.8094   22718330.4624   22718328.8574
       222.0004        163.0004
   4493807.13549   3509238.03749  25049234.2224   25049238.6204   25049234.4874
       205.0004        131.0004
 11 10  9  0 47  0.0000000  0  9G26G05G10G07G08G13G04G02G16
  -9242660.46049  -7182482.59149  22524969.8814   22524974.7014   22524971.0374
       220.0004        159.0004
 -18830851.88449 -14657723.67749  21005834.4624   21005836.6764   21005834.2114
       239.0004        200.0004
 -16821538.46149 -12836232.15649  21246225.7794   21246227.2594   21246224.5314
       241.0004        190.0004
 -21760819.69449 -16659405.49349  20782772.7664   20782775.1504   20782773.0034
       244.0004        202.0004
 -21626055.63949 -16831731.47449  20668496.1434   20668500.3644   20668496.6444
       241.0004        202.0004
  -6644549.49249  -4561322.97049  23406261.3394   23406267.3314   23406263.3604
       203.0004        128.0004
   7303842.48149   5955383.22949  25406753.7574   25406758.6834   25406755.2364
       195.0004        129.0004
 -11994796.81049  -9068977.27049  22733875.3294   22733877.7024   22733875.1314
       221.0004        161.0004
   4570923.72449   3569328.87249  25063909.8334   25063911.3284   25063909.2094
       208.0004        133.0004
 11 10  9  0 47 30.0000000  0  9G26G05G10G07G08G13G04G02G16
  -9340136.19049  -7258437.68049  22506420.7654   22506425.4864   22506422.6474
       219.0004        160.0004
 -18875113.12649 -14692212.95049  20997410.0834   20997412.8664   20997411.0254
       237.0004        198.0004
 -16747777.09449 -12778755.77249  21260260.6724   21260263.7954   21260260.5174
       239.0004        190.0004
 -21725648.21149 -16631999.13949  20789465.0424   20789467.4124   20789465.7514
       242.0004        201.0004
 -21657536.19049 -16856261.75449  20662506.9844   20662509.7854   20662506.4404
       243.0004        202.0004
  -6549436.23449  -4487208.73149  23424362.2784   23424364.8754   23424358.9114
       202.0004        128.0004
   7412248.70249   6039855.48849  25427386.0754   25427389.6604   25427387.7514
       202.0004        127.0004
 -11912741.87649  -9005038.39649  22749490.6514   22749492.0364   22749491.3714
       223.0004        162.0004
   4648450.71349   3629739.36849  25078662.9224   25078666.9064   25078660.9724
       208.0004        133.0004
 11 10  9  0 48  0.0000000  0  9G26G05G10G07G08G13G04G02G16
  -9437394.64949  -7334223.44249  22487913.0574   22487918.5684   22487913.1384
       220.0004        163.0004
 -18918899.45049 -14726332.17449  20989078.5264   20989080.8614   20989079.4444
       239.0004        200.0004
 -16673614.16349 -12720966.49249  21274373.4414   21274376.9224   21274373.2614
       240.0004        190.0004
 -21689978.85449 -16604204.83449  20796253.1794   20796255.0524   20796253.2634
       242.0004        200.0004
 -21688497.55049 -16880387.48049  20656613.7454   20656618.0274   20656613.8904
       241.0004        201.0004
  -6454208.87749  -4413005.70049  23442483.9044   23442481.4564   23442484.0334
       198.0004        122.0004
   7520565.98649   6124258.62649  25447996.5214   25447999.5404   25447997.6874
       202.0004        128.0004
 -11830332.43749  -8940823.25649  22765172.8524   22765174.5504   22765172.1934
       221.0004        162.0004
   4726385.81149   3690467.83949  25093492.4914   25093491.9684   25093489.6904
       201.0004        130.0004
 11 10  9  0 48 30.0000000  0  9G26G05G10G07G08G13G04G02G16
  -9534434.38149  -7409838.76249  22469445.8674   22469450.7934   22469446.5054
       220.0004        160.0004
 -18962209.42249 -14760080.18449  20980837.0694   20980839.6334   20980837.3944
       241.0004        200.0004
 -16599051.44649 -12662865.69049  21288563.3704   21288565.1944   21288561.9544
       239.0004        189.0004
 -21653813.24149 -16576023.82749  20803135.0714   20803136.5814   20803135.8604
       242.0004        200.0004
 -21718939.60149 -16904108.53449  20650821.7334   20650824.7754   20650821.2844
       243.0004        202.0004
  -6358868.60749  -4338714.59449  23460623.4554   23460619.7374   23460623.0584
       193.0004        122.0004
   7628791.44549   6208590.13849  25468591.5064   25468597.0074   25468592.9444
       205.0004        129.0004
 -11747571.73949  -8876334.42749  22780920.9044   22780923.0564   22780920.6284
       220.0004        160.0004
   4804726.66149   3751512.69649  25108397.8984   25108400.8494   25108395.3814
       195.0004        124.0004
 11 10  9  0 49  0.0000000  0  9G26G05G10G07G08G13G04G02G16
  -9631254.59549  -7485283.05349  22451023.2754   22451027.0594   22451022.4014
       222.0004        161.0004
 -19005041.01449 -14793455.45249  20972686.6244   20972689.1404   20972687.1804
       241.0004        201.0004
 -16524090.55249 -12604454.62649  21302826.3434   21302830.1064   21302826.0634
       238.0004        187.0004
 -21617153.13149 -16547457.50649  20810111.1034   20810113.2424   20810111.0824
       241.0004        200.0004
 -21748861.66049 -16927424.41949  20645127.7644   20645130.9364   20645127.5764
       242.0004        202.0004
  -6263416.62549  -4264336.39349  23478788.2534                   23478786.1164
       194.0004        124.0004
   7736923.02949   6292848.47249  25489167.0834   25489171.9554   25489165.4364
       194.0004        126.0004
 -11664462.75149  -8811574.19749  22796735.3994   22796737.1484   22796735.8134
       220.0004        162.0004
   4883470.14449   3812871.30149  25123385.3064   25123390.3384   25123386.4554
       205.0004        129.0004
 11 10  9  0 49 30.0000000  0  9G26G05G10G07G08G13G04G02G16
  -9727853.32549  -7560554.75549  22432639.2584   22432645.2664   22432640.3074
       220.0004        163.0004
 -19047392.65849 -14826456.72449  20964627.3584   20964629.7174   20964627.8234
       242.0004        201.0004
 -16448732.44349 -12545734.03349  21317166.7394   21317170.0704   21317166.6234
       239.0004        188.0004
 -21579999.38949 -16518506.53949  20817181.5694   20817183.4794   20817181.6724
       242.0004        200.0004
 -21778263.45349 -16950334.89249  20639532.8954   20639536.0454   20639532.3594
       243.0004        202.0004
  -6167853.66349  -4189871.76749  23496976.5674   23496975.0494   23496972.6734
       194.0004        124.0004
   7844958.48049   6377031.85249  25509724.9464   25509730.2564   25509729.9514
       191.0004        124.0004
 -11581008.38449  -8746544.83149  22812617.8474   22812618.1504   22812616.9964
       221.0004        161.0004
   4962614.13549   3874541.88149  25138445.3814   25138450.9404   25138447.6564
       201.0004        128.0004
 11 10  9  0 50  0.0000000  0  9G26G05G10G07G08G13G04G02G16
  -9824229.39949  -7635652.95749  22414299.1864   22414304.6324   22414300.2314
       219.0004        162.0004
 -19089262.55449 -14859082.61149  20956660.0144   20956662.3194   20956660.2714
       242.0004        201.0004
 -16372978.63149 -12486705.11849  21331584.3854   21331585.5274   21331582.2494
       239.0004        187.0004
 -21542353.81649 -16489172.32649  20824344.3444   20824347.3404   20824344.8114
       241.0004        200.0004
 -21807144.22949 -16972839.37749  20634036.9194   20634040.2734   20634036.6104
       243.0004        202.0004
  -6072180.52449  -4115321.34949  23515178.0014   23515184.3834   23515179.9244
       187.0004        122.0004
   7952895.68349   6461138.70949  25530269.4944   25530272.1504   25530271.9494
       201.0004        126.0004
 -11497211.51349  -8681248.57649  22828563.3354   22828564.1844   22828562.2104
       220.0004        160.0004
   5042156.50549   3936523.04749  25153581.7174   25153582.8314   25153579.3974
       202.0004        129.0004
 11 10  9  0 50 30.0000000  0  9G26G05G10G07G08G13G04G02G16
  -9920381.13449  -7710576.35849  22396003.4764   22396007.6834   22396004.3084
       221.0004        162.0004
 -19130648.65449 -14891331.51649  20948784.2614   20948786.8164   20948784.7634
       242.0004        202.0004
 -16296830.67149 -12427369.05549  21346072.7844   21346076.1244   21346072.0174
       237.0004        187.0004
 -21504217.70249 -16459455.87049  20831602.9144   20831604.5104   20831603.1914
       244.0004        202.0004
 -21835503.27349 -16994937.32449  20628640.9644   20628643.5084   20628640.2134
       243.0004        202.0004
  -5976398.08949  -4040685.74549  23533404.8514   23533406.7044   23533403.3944
       190.0004        124.0004
   8060732.15549   6545167.09849  25550787.7404   25550789.5844   25550791.2384
       195.0004        127.0004
 -11413075.02949  -8615687.70849  22844571.1134   22844575.4974   22844572.8494
       218.0004        159.0004
   5122094.38749   3998812.32349  25168793.4124   25168792.6934   25168791.2834
       200.0004        129.0004
 11 10  9  0 51  0.0000000  0  9G26G05G10G07G08G13G04G02G16
 -10016307.71249  -7785324.29749  22377750.6614   22377753.1084   22377749.4284
       223.0004        163.0004
 -19171549.67649 -14923202.44349  20941001.2054   20941003.5004   20941001.8294
       242.0004        202.0004
 -16220290.28449 -12367727.21749  21360637.7654   21360641.3724   21360637.7084
       238.0004        187.0004
 -21465593.43449 -16429359.04049  20838951.5874   20838954.1534   20838952.0214
       242.0004        201.0004
 -21863341.05849 -17016629.09649  20623343.8504   20623346.2004   20623342.9034
       244.0004        202.0004
  -5880507.69449  -3965966.02449  23551652.5894   23551659.3874   23551654.5054
       195.0004        124.0004
   8168465.14749   6629114.87449  25571288.2774   25571294.0104   25571288.3444
       198.0004        126.0004
 -11328602.24249  -8549864.78349  22860647.8384   22860649.1214   22860648.1174
       219.0004        159.0004
   5202424.56149   4061407.14349  25184081.0004   25184085.2384   25184080.2944
       200.0004        128.0004
 11 10  9  0 51 30.0000000  0  9G26G05G10G07G08G13G04G02G16
 -10112007.45449  -7859895.50749  22359538.1434   22359541.1144   22359539.6084
       222.0004        163.0004
 -19211963.68249 -14954693.86449  20933310.1494   20933312.8564   20933310.9614
       242.0004        201.0004
 -16143359.02149 -12307780.80149  21375278.7504   21375280.9804   21375277.6164
       238.0004        187.0004
 -21426482.00249 -16398882.59049  20846395.1514   20846396.8444   20846395.1364
       243.0004        201.0004
 -21890656.73349 -17037914.02349  20618144.6654   20618148.2444   20618144.8504
       243.0004        202.0004
  -5784510.02449  -3891162.68749  23569922.2674   23569923.1894   23569922.7724
       201.0004        124.0004
   8276092.83649   6712980.52749  25591768.8244   25591776.8254   25591766.9774
       197.0004        127.0004
 -11243796.08249  -8483782.08849  22876786.7044   22876786.9364   22876787.9344
       220.0004        160.0004
   5283145.78449   4124306.77749  25199440.8354   25199439.3624   25199438.7414
       202.0004        128.0004
 11 10  9  0 52  0.0000000  0  9G26G05G10G07G08G13G04G02G16
 -10207479.21949  -7934289.03349  22341372.5204   22341374.5204   22341372.5114
       223.0004        163.0004
 -19251889.32149 -14985804.75549  20925713.0744   20925715.4264   20925713.8294
       242.0004        202.0004
 -16066038.43049 -12247531.00649  21389990.5394   21389994.4864   21389990.7144
       236.0004        186.0004
 -21386885.54749 -16368028.21649  20853929.3244   20853931.9824   20853930.2614
       242.0004        201.0004
 -21917450.85449 -17058792.54649  20613046.5934   20613049.3134   20613046.1784
       243.0004        202.0004
  -5688406.39249  -3816276.76349  23588211.3744   23588212.3114   23588209.0234
       204.0004        127.0004
   8383612.49649   6796761.99149  25612227.1854   25612232.0064   25612231.5234
       196.0004        124.0004
 -11158659.91449  -8417442.22649  22892989.3384   22892987.6774   22892989.2444
       221.0004        158.0004
   5364254.48549   4187508.61849  25214872.8944   25214879.3954   25214872.9524
       198.0004        130.0004
 11 10  9  0 52 30.0000000  0  9G26G05G10G07G08G13G04G02G16
 -10302721.79949  -8008503.98749  22323247.7344   22323250.1864   22323247.6154
       226.0004        165.0004
 -19291324.89549 -15016533.76649  20918208.9334   20918211.5544   20918209.1544
       242.0004        202.0004
 -15988330.19549 -12186979.15849  21404778.5914   21404782.6804   21404777.7664
       237.0004        186.0004
 -21346805.60149 -16336797.08449  20861557.8424   20861558.9834   20861557.3874
       245.0004        202.0004
 -21943722.95349 -17079264.30049  20608047.5364   20608050.3594   20608047.1224
       244.0004        202.0004
  -5592197.75849  -3741309.01549  23606520.4174   23606522.3794   23606520.8864
       203.0004        126.0004
   8491021.88549   6880457.53949  25632668.7164   25632677.2994   25632669.8384
       197.0004        124.0004
 -11073196.82249  -8350847.62549  22909249.2364   22909251.5894   22909250.1164
       219.0004        158.0004
   5445748.12749   4251010.35249  25230380.6224   25230384.4184   25230380.0204
       197.0004        129.0004
 11 10  9  0 53  0.0000000  0  9G26G05G10G07G08G13G04G02G16
 -10397733.96849  -8082539.40749  22305165.8894   22305169.7064   22305166.9154
       223.0004        164.0004
 -19330268.87749 -15046879.71949  20910797.9984   20910800.2654   20910798.3054
       242.0004        202.0004
 -15910236.04449 -12126126.58849  21419640.9944   21419643.6144   21419639.9354
       237.0004        186.0004
 -21306243.72849 -16305190.42549  20869275.0664   20869277.4194   20869275.7354
       243.0004        201.0004
 -21969472.47049 -17099328.84949  20603146.5694   20603150.0304   20603146.5434
       242.0004        202.0004
  -5495884.89649  -3666260.01749  23624842.4984   23624848.3824   23624844.8724
       199.0004        125.0004
   8598318.62149   6964065.29149  25653085.9124   25653095.0694   25653092.3904
       199.0004        125.0004
 -10987409.59849  -8284000.46049  22925576.3744   22925576.5664   22925575.7264
       222.0004        157.0004
   5527623.57749   4314809.31749  25245963.3984   25245968.6164   25245963.9114
       203.0004        127.0004
 11 10  9  0 53 30.0000000  0  9G26G05G10G07G08G13G04G02G16
 -10492513.50349  -8156393.55549  22287130.2264   22287134.2484   22287131.9314
       224.0004        164.0004
 -19368719.22049 -15076841.02249  20903480.9194   20903483.3134   20903481.3634
       241.0004        201.0004
 -15831756.80349 -12064973.95549  21434573.0274   21434577.1224   21434573.4574
       235.0004        186.0004
 -21265201.34649 -16273209.35349  20877085.6644   20877087.5274   20877086.0584
       244.0004        202.0004
 -21994698.58849 -17118985.55249  20598346.2194   20598349.6924   20598346.1384
       242.0004        202.0004
  -5399467.95849  -3591129.98349  23643194.1294   23643195.7734   23643192.4024
       202.0004        125.0004
   8705500.85749   7047583.90149  25673485.3044   25673488.0714   25673490.4334
       196.0004        122.0004
 -10901300.99349  -8216902.85649  22941960.0874   22941961.4974   22941960.9044
       217.0004        157.0004
   5609879.78349   4378905.02549  25261617.2454   25261616.2154   25261617.7514
       200.0004        126.0004
 11 10  9  0 54  0.0000000  0  9G26G05G10G07G08G13G04G02G16
 -10587059.80649  -8230065.95549  22269140.5814   22269142.5724   22269140.5234
       225.0004        166.0004
 -19406674.61949 -15106416.65849  20896258.5074   20896261.1854   20896258.8374
       241.0004        202.0004
 -15752894.72749 -12003523.00549  21449580.8134   21449584.1584   21449580.1104
       236.0004        186.0004
 -21223680.36049 -16240855.33649  20884987.2414   20884988.6874   20884987.3484
       244.0004        201.0004
 -22019401.35449 -17138234.45149  20593645.4554   20593649.0274   20593645.8774
       242.0004        202.0004
  -5302948.90949  -3515920.35149  23661557.9954   23661561.4394   23661556.8134
       194.0004        126.0004
   8812565.74649   7131011.03249  25693855.4424                   25693854.3954
       188.0004        119.0004
 -10814874.64349  -8149557.63949  22958406.4214   22958409.2314   22958406.3704
       218.0004        159.0004
   5692512.55449   4443294.29349  25277337.8504   25277344.1534   25277336.5444
       193.0004        129.0004
 11 10  9  0 54 30.0000000  0  9G26G05G10G07G08G13G04G02G16
 -10681371.21049  -8303555.32849  22251194.1124   22251195.9214   22251193.8504
       226.0004        166.0004
 -19444133.16349 -15135605.12049  20889129.5014   20889132.3634   20889130.2754
       241.0004        201.0004
 -15673651.37749 -11941774.96549  21464660.1154   21464663.9954   21464659.5774
       236.0004        186.0004
 -21181682.45249 -16208129.68849  20892979.2284   20892980.7274   20892979.3444
       245.0004        202.0004
 -22043580.63149 -17157075.42849  20589044.4664   20589047.5004   20589044.4584
       242.0004        202.0004
  -5206328.58949  -3440631.90249  23679944.8224   23679950.3694   23679941.9174
       196.0004        124.0004
   8919511.31149   7214345.12649  25714206.9174                   25714204.1334
       187.0004        116.0004
 -10728133.17849  -8081966.89949  22974911.8514   22974915.8494   22974913.3414
       217.0004        158.0004
   5775520.55549   4507975.95449  25293134.3584   25293139.1844   25293136.7494
       197.0004        129.0004
 11 10  9  0 55  0.0000000  0  9G26G05G10G07G08G13G04G02G16
 -10775446.76649  -8376860.90149  22233289.9624   22233293.8934   22233290.8634
       225.0004        165.0004
 -19481093.53049 -15164405.40649  20882097.0424   20882099.5894   20882097.3634
       242.0004        202.0004
 -15594028.39949 -11879731.10949  21479811.7024   21479815.4174   21479811.8854
       236.0004        185.0004
 -21139209.42449 -16175033.82149  20901060.8714   20901063.1294   20901061.3934
       244.0004        201.0004
 -22067236.46649 -17175508.53449  20584543.6044   20584546.2274   20584542.6114
       243.0004        202.0004
  -5109608.00549  -3365265.23449  23698353.3824   23698353.2904   23698352.9934
       202.0004        127.0004
   9026335.16149   7297584.29449  25734533.7844
       182.0004        114.0004
 -10641080.25349  -8014133.47349  22991477.9224   22991481.3624   22991478.3094
       218.0004        156.0004
   5858900.49049   4572947.65549  25309003.0744   25309005.6794   25309001.9004
       202.0004        131.0004
 11 10  9  0 55 30.0000000  0  9G26G05G10G07G08G13G04G02G16
 -10869285.13749  -8449981.69649  22215432.8904   22215436.5524   22215433.0794
       224.0004        165.0004
 -19517554.41349 -15192816.47549  20875157.3894   20875161.1194   20875158.6244
       240.0004        201.0004
 -15514027.50249 -11817392.76549  21495034.7314   21495038.6364   21495035.0634
       237.0004        186.0004
 -21096263.43049 -16141569.40549  20909233.2764   20909235.0954   20909233.9214
       244.0004        201.0004
 -22090368.42149 -17193533.42049  20580140.4704   20580144.4034   20580140.8594
       242.0004        203.0004
  -5012788.14449  -3289821.20249  23716776.8344   23716781.6614   23716780.6354
       200.0004        124.0004
   9133034.74349     51910.71849  25754837.9864
       179.0004         74.0004
 -10553718.81549  -7946059.63749  23008102.7324   23008105.7444   23008102.8894
       219.0004        158.0004
   5942648.94349   4638206.24349  25324939.5514   25324946.4744   25324940.5464
       204.0004        132.0004
 11 10  9  0 56  0.0000000  0  9G26G05G10G07G08G13G04G02G16
 -10962884.20149  -8522915.99049  22197621.7134   22197626.0624   22197622.1944
       225.0004        167.0004
 -19553513.48349 -15220836.53249  20868315.3474   20868318.3934   20868316.3984
       240.0004        202.0004
 -15433649.74849 -11754760.76649  21510332.0204   21510334.4314   21510330.5474
       238.0004        185.0004
 -21052845.30249 -16107737.09549  20917496.2524   20917498.1284   20917496.3324
       245.0004        202.0004
 -22112976.43949 -17211150.04549  20575839.5214   20575842.0704   20575838.9954
       243.0004        202.0004
  -4915869.67849  -3214300.30749  23735217.5744   23735220.7394   23735218.0804
       201.0004        127.0004
   9239608.76749    134912.62649  25775118.7724
       183.0004        106.0004
 -10466051.69249  -7877747.61149  23024785.2804   23024788.5254   23024786.6814
       218.0004        159.0004
   6026764.49249   4703750.84249  25340946.4284   25340950.6044   25340946.8554
       203.0004        131.0004
 11 10  9  0 56 30.0000000  0  9G26G05G10G07G08G13G04G02G16
 -11056243.38949  -8595663.38549  22179855.3254   22179860.6194   22179857.5244
       223.0004        167.0004
 -19588969.71449 -15248464.76049  20861568.7034   20861571.4354   20861568.8244
       241.0004        201.0004
 -15352897.54049 -11691836.98849  21525698.1594   21525701.5484   21525697.1694
       236.0004        186.0004
 -21008956.96149 -16073538.39549  20925847.4264   20925848.8154   20925848.2974
       244.0004        201.0004
 -22135060.39649 -17228358.32049  20571636.4644   20571639.6274   20571636.4854
       243.0004        202.0004
  -4818853.58949  -3138703.41049  23753680.0504   23753682.4174   23753680.7144
       199.0004        126.0004
   9346054.30359    217802.49959  25795370.9364
       170.0004        111.0004
 -10378082.26249  -7809200.00549  23041525.9454   23041527.0594   23041525.9644
       219.0004        158.0004
   6111243.78749   4769578.89149  25357022.2444   25357027.4624   25357020.0704
       201.0004        132.0004
 11 10  9  0 57  0.0000000  0  9G26G05G10G07G08G13G04G02G16
 -11149361.17049  -8668222.66849  22162137.8794   22162139.5254   22162137.1524
       226.0004        167.0004
 -19623921.68549 -15275700.06049  20854917.5714   20854919.7704   20854918.0504
       241.0004        201.0004
 -15271772.42749 -11628622.61949  21541134.9264   21541138.3194   21541134.4864
       237.0004        185.0004
 -20964600.66949 -16038975.03949  20934287.9964   20934290.2704   20934288.1214
       243.0004        201.0004
 -22156620.18749 -17245158.13849  20567534.0794   20567536.8354   20567533.5154
       243.0004        202.0004
  -4721740.97349  -3063031.28849  23772159.3014   23772165.0114   23772162.6554
       195.0004        123.0004
   9452369.20649     44874.14949  25815608.1584
       175.0004         74.0004
 -10289813.74649  -7740419.36349  23058322.8404   23058325.3924   23058323.0624
       221.0004        158.0004
   6196084.19449   4835688.34049  25373166.4704   25373169.4734   25373166.6014
       204.0004        135.0004
 11 10  9  0 57 30.0000000  0  9G26G05G10G07G08G13G04G02G16
 -11242236.31549  -8740592.89149  22144463.1124   22144467.1244   22144462.3774
       225.0004        166.0004
 -19658367.84249 -15302541.21949  20848362.2414   20848364.9054   20848362.7214
       241.0004        201.0004
 -15190275.97549 -11565118.92249  21556644.1754   21556646.4254   21556643.3834
       239.0004        185.0004
 -20919777.95549 -16004048.26149  20942817.5204   20942819.2454   20942818.2434
       244.0004        201.0004
 -22177655.97049 -17261549.65049  20563531.1784   20563534.0004   20563530.5914
       242.0004        202.0004
  -4624532.77949  -2987284.67549  23790659.3384   23790656.9124   23790662.8304
       196.0004        122.0004
   9558546.96459    127563.90659  25835811.6834
       174.0004        108.0004
 -10201249.14449  -7671408.00149  23075177.2564   23075177.0554   23075177.2364
       222.0004        157.0004
   6281283.45149   4902077.50649  25389380.1294   25389381.6154   25389377.1964
       204.0004        131.0004
 11 10  9  0 58  0.0000000  0  9G26G05G10G07G08G13G04G02G16
 -11334867.06849  -8812772.66349  22126836.6744   22126839.4944   22126836.9284
       227.0004        168.0004
 -19692306.20749 -15328986.69349  20841904.0294   20841906.8754   20841904.6834
       240.0004        201.0004
 -15108409.48649 -11501326.87049  21572223.4014   21572225.4374   21572222.8224
       238.0004        185.0004
 -20874490.14049 -15968759.03949  20951435.7034   20951437.4814   20951435.8144
       244.0004        201.0004
 -22198167.21049 -17277532.42049  20559627.5094   20559630.3304   20559627.1814
       242.0004        202.0004
  -4527229.82749  -2911464.24149  23809172.3944                   23809173.9424
       187.0004        117.0004
   9664593.22159    210131.10959  25855991.1764
       173.0004        111.0004
 -10112391.07249  -7602167.95549  23092087.0784   23092087.0034   23092085.5794
       220.0004        157.0004
   6366838.51049   4968743.60649  25405658.6224   25405665.7754   25405659.2674
       202.0004        130.0004
 11 10  9  0 58 30.0000000  0  9G26G05G10G07G08G13G04G02G16
 -11427252.60949  -8884761.35949  22109255.4684   22109259.3884   22109255.6234
       224.0004        168.0004
 -19725736.02249 -15355035.89649  20835542.8214   20835545.2864   20835543.1884
       240.0004        201.0004
 -15026175.36549 -11437248.35149  21587870.3254   21587874.7514   21587870.6154
       236.0004        186.0004
 -20828740.03449 -15933109.61349  20960140.8434   20960143.7574   20960141.9444
       244.0004        201.0004
 -22218154.58449 -17293106.98749  20555823.9534   20555827.2044   20555824.0484
       242.0004        202.0004
  -4429833.28949  -2835570.91249  23827711.1544                   23827709.4074
       194.0004        122.0004
   9770503.84649     39187.19249  25876148.1474
       181.0004         74.0004
 -10023243.70849  -7532702.48949  23109051.0824   23109051.2014   23109049.9504
       220.0004        155.0004
   6452746.30049   5035684.51849  25422007.4424   25422009.7224   25422006.5254
       202.0004        128.0004
 11 10  9  0 59  0.0000000  0 10G26G05G10G07G28G08G13G04G02G16
 -11519390.56949  -8956557.13349  22091723.1724   22091725.0784   22091722.3804
       227.0004        168.0004
 -19758654.68849 -15380686.80549  20829278.6064   20829280.9584   20829279.0484
       240.0004        201.0004
 -14943574.51449 -11372884.06049  21603589.9514   21603593.0884   21603589.1934
       238.0004        184.0004
 -20782528.00349 -15897100.23549  20968936.1204   20968937.2524   20968935.8964
       245.0004        201.0004
   -403063.08249    -61975.54049  24339125.1794
       204.0004         74.0004
 -22237616.59049 -17308272.17649  20552120.8094   20552123.6884   20552120.6774
       243.0004        202.0004
  -4332342.84049  -2759604.39749  23846259.3134                   23846262.7114
       194.0004        119.0004
   9876274.97549    121622.15949  25896275.8234
       184.0004        107.0004
  -9933808.78349  -7463012.96749  23126068.6894   23126069.8164   23126069.0504
       218.0004        155.0004
   6539005.97049   5102900.05949  25438421.3864   25438419.1144   25438421.0854
       199.0004        127.0004
 11 10  9  0 59 30.0000000  0  9G26G05G10G07G08G13G04G02G16
 -11611280.48849  -9028159.65249  22074235.5874   22074238.7374   22074235.1104
       223.0004        167.0004
 -19791061.71149 -15405939.02849  20823111.5084   20823114.0594   20823111.9154
       240.0004        201.0004
 -14860609.26949 -11308235.83449  21619378.3124   21619381.1214   21619377.1194
       237.0004        185.0004
 -20735856.79449 -15860733.05849  20977816.7024   20977818.6574   20977817.0524
       245.0004        201.0004
 -22256554.20049 -17323028.74649  20548517.7534   20548520.1794   20548517.3744
       244.0004        202.0004
  -4234760.52449     48799.67449  23864831.9474
       194.0004         74.0004
   9981904.76359    203956.07559  25916377.6614
       176.0004        108.0004
  -9844090.57549  -7393102.68349  23143143.7674   23143143.6084   23143142.3304
       220.0004        156.0004
   6625613.20349   5170386.37649  25454903.2174   25454908.6444   25454899.7454
       202.0004        127.0004
 11 10  9  1  0  0.0000000  0  9G26G05G10G07G08G13G04G02G16
 -11702920.44549  -9099567.39049  22056796.6654   22056801.1104   22056797.3074
       224.0004        169.0004
 -19822955.13249 -15430791.04449  20817042.5474   20817044.6264   20817043.0694
       241.0004        201.0004
 -14777280.46549 -11243304.31549  21635233.2604   21635237.1074   21635232.9354
       236.0004        184.0004
 -20688727.75449 -15824009.12549  20986785.4164   20986787.0144   20986785.1424
       245.0004        201.0004
 -22274967.12749 -17337376.47349  20545013.2484   20545016.0684   20545012.5534
       243.0004        202.0004
  -4137087.16749    124900.97149  23883417.6594
       185.0004        110.0004
  10087391.70459     33536.50859  25936453.5654
       173.0004         74.0004
  -9754091.66749  -7322973.68149  23160267.3374   23160267.7344   23160267.9514
       215.0004        153.0004
   6712566.36949   5238142.22149  25471449.2554   25471452.9314   25471449.7444
       205.0004        127.0004
 11 10  9  1  0 30.0000000  0  9G26G05G10G07G08G13G04G02G16
 -11794309.51649  -9170779.60149  22039407.4384   22039410.9754   22039407.2564
       226.0004        169.0004
 -19854333.67149 -15455241.85149  20811071.1804   20811073.7494   20811071.5224
       240.0004        201.0004
 -14693590.36449 -11178091.26949  21651160.4144   21651162.6444   21651159.0254
       237.0004        182.0004
 -20641142.86049 -15786929.99149  20995839.6544   20995842.1264   20995840.1744
       241.0004        200.0004
 -22292855.57349 -17351315.51349  20541609.5694   20541612.2284   20541609.0584
       244.0004        203.0004
  -4039323.86549    201070.39549  23902014.7374
       178.0004        109.0004
  10192733.38959    115548.58959  25956497.3654
       169.0004        108.0004
  -9663815.62049  -7252628.72649  23177447.1624   23177447.5994   23177446.7304
       215.0004        153.0004
   6799861.89649   5306164.97949  25488061.3494   25488063.7514   25488061.9654
       200.0004        128.0004
 11 10  9  1  1  0.0000000  0  9G26G05G10G07G28G08G13G02G16
 -11885446.31249  -9241795.25949  22022064.7024   22022068.0554   22022065.3864
       226.0004        171.0004
 -19885195.96249 -15479290.38749  20805198.6224   20805200.9224   20805198.7994
       241.0004        201.0004
 -14609540.81949 -11112598.12749  21667155.1214   21667157.2384   21667153.6484
       236.0004        182.0004
 -20593104.04249 -15749497.14049  21004981.3644   21004983.7224   21004981.6644
       241.0004        200.0004
    -93444.51749    -36296.59349  24264361.0984
       206.0004         74.0004
 -22310219.31149 -17364845.68949  20538305.3154   20538308.3314   20538304.9204
       243.0004        202.0004
  -3941471.14749     42516.79949  23920643.7924
       195.0004         74.0004
  -9573265.03449  -7182069.84749  23194678.8754   23194679.6074   23194678.1044
       216.0004        152.0004
   6887497.14049   5374452.35149  25504736.7084   25504738.1014   25504734.9544
       201.0004        125.0004
 11 10  9  1  1 30.0000000  0  9G26G05G10G07G28G08G13G02G16
 -11976329.35349  -9312613.17049  22004769.4124   22004772.9594   22004768.7424
       227.0004        169.0004
 -19915540.32149 -15502935.34049  20799424.1764   20799426.6104   20799424.6054
       240.0004        202.0004
 -14525133.64349 -11046826.31749  21683215.3814   21683219.6274   21683215.2444
       235.0004        182.0004
 -20544613.45849 -15711712.26949  21014208.6704   21014211.3354   21014208.9644
       241.0004        199.0004
   -191439.04549   -112656.09649  24245713.7324
       209.0004        122.0004
 -22327058.59449 -17377967.19549  20535100.8154   20535103.3424   20535100.5864
       244.0004        203.0004
  -3843530.20349    118823.41549  23939278.8064
       185.0004        107.0004
  -9482443.54149  -7111299.84949  23211958.3554   23211962.6094   23211959.0754
       212.0004        152.0004
   6975469.19049   5443002.20249  25521478.4914   25521481.5604   25521477.3354
       196.0004        122.0004
 11 10  9  1  2  0.0000000  0  9G26G05G10G07G28G08G13G02G16
 -12066957.03549  -9383232.12949  21987524.3624   21987526.7814   21987524.6744
       227.0004        171.0004
 -19945365.33549 -15526175.61349  20793748.5094   20793751.4304   20793748.9304
       241.0004        202.0004
 -14440369.97249 -10980776.71449  21699345.8934   21699349.4054   21699345.1694
       235.0004        181.0004
 -20495672.27449 -15673576.28849  21023522.0384   21023523.9894   21023522.3584
       241.0004        199.0004
   -289335.76549   -188939.06649  24227082.8714
       210.0004        128.0004
 -22343372.87449 -17390679.60949  20531995.5354   20531999.0684   20531995.5544
       242.0004        202.0004
  -3745501.56449    195194.00049  23957931.3484
       188.0004        111.0004
  -9391353.83349  -7040320.88549  23229292.2034   23229296.9134   23229292.8224
       213.0004        153.0004
   7063776.09249   5511812.73549  25538281.4184                   25538283.3244
       196.0004        121.0004
 11 10  9  1  2 30.0000000  0  9G26G05G10G07G28G08G13G02G16
 -12157328.36849  -9453651.31449  21970326.6904   21970329.5134   21970326.3454
       227.0004        171.0004
 -19974669.78749 -15549010.24949  20788172.5794   20788174.5704   20788172.6694
       241.0004        202.0004
 -14355252.05949 -10914451.09649  21715544.5704   21715546.7814   21715543.2724
       235.0004        180.0004
 -20446282.22049 -15635090.52549  21032920.6614   21032922.4134   21032920.8424
       241.0004        199.0004
   -387132.19249   -265143.92449  24208473.3954   24208478.6314   24208471.6104
       210.0004        137.0004
 -22359162.76149 -17402983.40649  20528991.2054   20528993.9744   20528990.7374
       242.0004        202.0004
  -3647386.10249     36348.28649  23976609.1134
       190.0004         74.0004
  -9299999.36849  -6969135.62249  23246679.8814   23246681.2514   23246679.8604
       216.0004        153.0004
   7152414.75849   5580882.10249  25555148.7574
       196.0004        117.0004
 11 10  9  1  3  0.0000000  0  9G26G05G10G07G28G08G13G02G16
 -12247441.77249  -9523869.53449  21953179.5304   21953181.5734   21953178.9424
       226.0004        171.0004
 -20003452.41549 -15571438.27549  20782694.8564   20782697.6564   20782695.4584
       241.0004        202.0004
 -14269781.71849 -10847850.83949  21731807.1594   21731810.8054   21731806.5894
       232.0004        179.0004
 -20396445.66149 -15596256.84749  21042403.6674   21042406.2454   21042404.4914
       239.0004        199.0004
   -484825.58049   -341268.66549  24189882.0624   24189884.9894   24189882.8754
       210.0004        138.0004
 -22374428.26549 -17414878.60049  20526086.0264   20526089.2064   20526086.2894
       242.0004        202.0004
  -3549185.12349    112894.63049  23995293.4924
       177.0004        107.0004
  -9208383.45549  -6897746.61449  23264112.7174   23264115.7574   23264112.4694
       214.0004        152.0004
   7241381.71049   5650206.84349  25572078.9934
       196.0004        119.0004
 11 10  9  1  3 30.0000000  0  9G26G05G10G07G28G08G13G02G16
 -12337295.76949  -9593885.59749  21936079.2744   21936081.7384   21936080.0104
       226.0004        172.0004
 -20031711.68349 -15593458.48249  20777317.7484   20777320.0924   20777317.9024
       241.0004        202.0004
 -14183960.37649 -10780977.08949  21748139.1394   21748142.4584   21748138.4884
       234.0004        180.0004
 -20346164.36649 -15557076.61849  21051971.9144   21051974.3814   21051972.5654
       240.0004        198.0004
   -582413.04149   -417310.82549  24171313.0424   24171315.1454   24171313.3214
       212.0004        138.0004
 -22389169.62649 -17426365.35849  20523281.1954   20523284.0234   20523280.6364
       243.0004        202.0004
  -3450899.26259    189522.24259  24013994.6764
       169.0004        111.0004
  -9116509.01049  -6826156.15349  23281594.2404   23281597.1544   23281594.1244
       210.0004        152.0004
   7330675.43949     26133.19249  25589072.4234
       196.0004         74.0004
 11 10  9  1  4  0.0000000  0  9G26G05G10G07G28G08G13G02G16
 -12426889.35149  -9663698.75949  21919030.8694   21919034.4634   21919031.1284
       226.0004        172.0004
 -20059446.34449 -15615069.90849  20772039.7694   20772042.1814   20772040.0654
       241.0004        202.0004
 -14097789.91849 -10713831.30949  21764537.7894   21764540.4064   21764536.8814
       234.0004        181.0004
 -20295440.16049 -15517551.26849  21061625.0554   21061626.9754   21061625.6904
       241.0004        198.0004
   -679891.89149   -493268.36149  24152761.4004   24152763.5744   24152763.6154
       209.0004        136.0004
 -22403386.66249 -17437443.56149  20520575.3194   20520578.2934   20520575.3784
       243.0004        202.0004
  -3352529.78949     29990.98249  24032705.6614
       170.0004         74.0004
  -9024379.30049  -6754366.79249  23299127.8074   23299129.4514   23299127.2314
       216.0004        152.0004
   7420293.23249     95995.21649  25606124.3374
       192.0004        107.0004
 11 10  9  1  4 30.0000000  0  9G26G05G10G07G28G08G13G02G16
 -12516220.70949  -9733307.57849  21902031.5414   21902034.4254   21902031.9274
       227.0004        171.0004
 -20086654.81149 -15636271.31449  20766861.7934   20766864.2624   20766862.4514
       241.0004        202.0004
 -14011271.90049 -10646414.69549  21781000.3134   21781004.4784   21780999.4674
       232.0004        179.0004
 -20244274.84849 -15477682.19049  21071361.0674   21071363.3044   21071361.3304
       240.0004        198.0004
   -777259.20949   -569138.98449  24134235.4184   24134235.5844   24134234.5604
       214.0004        138.0004
 -22417079.43949 -17448113.23949  20517970.2244   20517973.1864   20517969.5804
       242.0004        202.0004
  -3254076.75249    106706.33249  24051456.1034
       185.0004        105.0004
  -8931997.21749  -6682380.74149  23316708.7564   23316709.3194   23316707.1524
       218.0004        152.0004
   7510231.33159    166133.19359  25623239.4894
       182.0004        107.0004
 11 10  9  1  5  0.0000000  0  9G26G05G10G07G28G08G13G02G16
 -12605288.77849  -9802711.25449  21885082.8534   21885085.4844   21885081.9994
       227.0004        172.0004
 -20113335.77549 -15657061.67949  20761784.9314   20761787.4004   20761785.7334
       241.0004        203.0004
 -13924408.57449 -10578729.00649  21797530.3644   21797533.2644   21797530.0214
       234.0004        179.0004
 -20192670.09249 -15437470.69749  21081181.3834   21081183.3424   21081181.6594
       240.0004        197.0004
   -874512.65049   -644920.84449  24115729.1594   24115730.2484   24115727.6964
       214.0004        141.0004
 -22430248.09949 -17458374.53749  20515463.9164   20515467.0594   20515464.2244
       243.0004        202.0004
  -3155541.72049    183484.59949  24070197.6194
       182.0004        108.0004
  -8839365.86349  -6610200.49749  23334336.0074   23334336.6744   23334334.5134
       216.0004        152.0004
   7600487.59349     20502.56249  25640415.1454
       191.0004         74.0004
 11 10  9  1  5 30.0000000  0  9G26G05G10G07G28G08G13G02G16
 -12694092.05649  -9871908.58649  21868184.3044   21868186.7144   21868185.0604
       229.0004        171.0004
 -20139488.26649 -15677440.24649  20756808.4384   20756810.7364   20756808.7544
       241.0004        203.0004
 -13837201.64749 -10510775.58449  21814125.8794   21814128.4374   21814125.0384
       234.0004        178.0004
 -20140627.93249 -15396918.36649  21091084.7194   21091086.7594   21091085.0784
       240.0004        197.0004
   -971649.35349   -720611.74049  24097241.9174   24097245.0054   24097242.6014
       210.0004        138.0004
 -22442892.81649 -17468227.54949  20513057.3364   20513060.6434   20513057.4954
       242.0004        202.0004
  -3056925.53749     23725.87649  24088964.9234
       188.0004         74.0004
  -8746488.85449  -6537828.83049  23352008.3134   23352010.6724   23352007.7634
       217.0004        153.0004
   7691059.86049     91017.32149  25657648.6114
       187.0004        107.0004
 11 10  9  1  6  0.0000000  0  9G26G05G10G07G28G08G13G02G16
 -12782629.87249  -9940899.07049  21851336.8924   21851339.1754   21851335.5964
       229.0004        172.0004
 -20165111.38849 -15697406.32649  20751932.9894   20751934.6904   20751933.5574
       243.0004        203.0004
 -13749653.18349 -10442556.02749  21830785.6654   21830788.4594   21830784.3524
       234.0004        179.0004
 -20088150.85049 -15356027.13249  21101070.1524   21101072.8664   21101070.9304
       240.0004        197.0004
  -1068667.19849   -796210.02349  24078780.0524   24078783.5844   24078781.3324
       210.0004        140.0004
 -22455014.54449 -17477673.04249  20510752.0684   20510754.0404   20510751.3164
       244.0004        203.0004
  -2958229.39249    100667.10249  24107747.5074
       187.0004        106.0004
  -8653370.00649  -6465268.69849  23369729.7044   23369729.7124   23369729.8384
       217.0004        152.0004
   7781944.48849    161700.65249  25674948.3354
       189.0004        106.0004
 11 10  9  1  6 30.0000000  0  9G26G05G10G07G28G08G13G02G16
 -12870899.62649 -10009680.67649  21834538.9444   21834541.5744   21834539.3394
       230.0004        172.0004
 -20190202.69349 -15716957.99349  20747158.2244   20747160.3214   20747158.2424
       242.0004        203.0004
 -13661764.20149 -10374071.11849  21847508.8124   21847513.4184   21847509.1404
       233.0004        179.0004
 -20035240.01149 -15314797.90449  21111139.1994   21111141.2714   21111139.3804
       240.0004        196.0004
  -1165562.55149   -871712.88249  24060340.7774   24060346.5834   24060342.7194
       207.0004        139.0004
 -22466612.34849 -17486710.27749  20508543.4664   20508546.9874   20508543.5014
       242.0004        202.0004
  -2859453.21249    177710.92649  24126539.2874
       181.0004        110.0004
  -8560011.06549  -6392521.47249  23387494.0634   23387495.5684   23387492.5244
       215.0004        151.0004
   7873139.94349     14836.50849  25692299.1084
       188.0004         74.0004
 11 10  9  1  7  0.0000000  0  9G26G05G10G07G28G08G13G02G16
 -12958900.55149 -10078252.79649  21817793.3264   21817795.6604   21817793.3384
       230.0004        173.0004
 -20214761.58949 -15736094.79849  20742484.3854   20742486.4374   20742485.0234
       242.0004        203.0004
 -13573536.99449 -10305322.67349  21864299.2164   21864302.4054   21864298.8944
       234.0004        179.0004
 -19981897.48949 -15273232.30249  21121289.9684   21121291.8994   21121290.6054
       241.0004        197.0004
  -1262332.73349   -947118.17649  24041926.9564   24041930.1804   24041928.3724
       207.0004        138.0004
 -22477687.09649 -17495339.94249  20506436.9024   20506439.8174   20506436.1134
       243.0004        202.0004
  -2760598.49949     17298.10249  24145354.7804
       189.0004         74.0004
  -8466415.76549  -6319590.08649  23405304.8964   23405305.2664   23405304.5394
       215.0004        152.0004
   7964642.94549     86146.74549  25709711.8574
       185.0004        105.0004
 11 10  9  1  7 30.0000000  0  9G26G05G10G07G28G08G13G02G16
 -13046631.69949 -10146614.70849  21801098.5304   21801101.3624   21801098.0824
       230.0004        175.0004
 -20238787.30549 -15754816.14049  20737912.7854   20737915.0474   20737913.0054
       243.0004        204.0004
 -13484973.66149 -10236312.30449  21881152.4044   21881155.4284   21881151.6004
       233.0004        180.0004
 -19928125.61249 -15231332.13949  21131522.6884   21131524.9724   21131522.7444
       240.0004        198.0004
  -1358975.44149  -1022424.16649  24023536.9074   24023539.4424   24023538.1424
       208.0004        137.0004
 -22488238.91949 -17503562.14349  20504428.7704   20504431.6104   20504428.5424
       243.0004        203.0004
  -2661666.12349     94354.52949  24164179.5144
       186.0004        101.0004
  -8372587.72149  -6246477.32949  23423159.5174   23423161.8974   23423158.9124
       215.0004        154.0004
   8056449.86049    157709.83549  25727180.5114
       183.0004        109.0004
 11 10  9  1  8  0.0000000  0  9G26G05G10G07G28G08G13G02G16
 -13134090.79049 -10214764.63349  21784454.8984   21784457.5884   21784454.8194
       228.0004        174.0004
 -20262277.64249 -15773120.30549  20733442.9714   20733445.1824   20733443.1654
       242.0004        204.0004
 -13396075.32249 -10167040.90149  21898068.3994   21898072.1144   21898067.5724
       232.0004        179.0004
 -19873925.31549 -15189098.14649  21141836.7484   21141838.9214   21141836.8864
       241.0004        198.0004
  -1455487.46049  -1097628.29949  24005172.0224   24005173.0474   24005171.5654
       206.0004        139.0004
 -22498267.66049 -17511376.73449  20502520.0274   20502523.3724   20502519.6124
       242.0004        202.0004
  -2562656.51549    171416.61549  24183019.5824
       182.0004        108.0004
  -8278529.33349  -6173185.10849  23441058.4284   23441060.4924   23441058.8724
       212.0004        149.0004
   8148559.06549      8936.35949  25744710.1844
       176.0004         74.0004
 11 10  9  1  8 30.0000000  0  9G26G05G10G07G28G08G13G02G16
 -13221277.13849 -10282702.01449  21767864.4354   21767867.3164   21767864.9364
       230.0004        174.0004
 -20285232.05949 -15791006.87249  20729074.3494   20729076.3844   20729074.6664
       242.0004        203.0004
 -13306844.40549 -10097510.33649  21915047.5004   21915052.2414   21915047.7634
       231.0004        179.0004
 -19819299.57349 -15146532.63149  21152231.1014   21152233.9514   21152231.3224
       240.0004        198.0004
  -1551866.68449  -1172728.93749  23986829.6764   23986833.6044   23986829.7114
       210.0004        139.0004
 -22507774.22949 -17518784.44949  20500711.3684   20500714.0764   20500711.1474
       243.0004        203.0004
  -2463570.91949     10966.44349  24201872.9574
       182.0004         74.0004
  -8184244.50349  -6099716.40749  23458999.1694   23459002.1354   23458999.7894
       215.0004        151.0004
   8240966.61949     80945.90249  25762294.9764
       183.0004        103.0004
 11 10  9  1  9  0.0000000  0  9G26G05G10G07G28G08G13G02G16
 -13308189.08849 -10350425.58549  21751326.1564   21751327.8004   21751325.0694
       230.0004        174.0004
 -20307649.09949 -15808474.69549  20724808.1424   20724810.9524   20724808.5534
       241.0004        203.0004
 -13217282.50149 -10027721.87349  21932094.1034   21932095.7924   21932091.7244
       236.0004        179.0004
 -19764250.04849 -15103636.89849  21162706.6024   21162709.3644   21162707.1244
       240.0004        197.0004
  -1648109.81749  -1247723.55249  23968515.3304   23968518.3054   23968514.2344
       211.0004        140.0004
 -22516758.23749 -17525784.95649  20499001.7374   20499004.6784   20499001.0054
       242.0004        202.0004
  -2364410.41349     88274.16849  24220753.5894
       183.0004        105.0004
  -8089735.95649  -6026073.40649  23476986.7274   23476986.6544   23476986.4554
       215.0004        153.0004
   8333670.79349    153195.89549  25779936.9244
       180.0004        108.0004
 11 10  9  1  9 30.0000000  0  9G26G05G10G07G28G08G13G02G16
 -13394825.38249 -10417934.37749  21734838.4524   21734841.4294   21734839.1014
       229.0004        175.0004
 -20329527.46549 -15825522.77849  20720646.0954   20720647.8634   20720646.2084
       242.0004        204.0004
 -13127391.58349  -9957677.01649  21949198.9064   21949201.2314   21949197.5964
       233.0004        179.0004
 -19708778.35549 -15060412.20649  21173262.9364   21173265.2724   21173263.7954
       240.0004        197.0004
  -1744214.20449  -1322610.05549  23950227.9354   23950232.0074   23950227.6564
       209.0004        139.0004
 -22525220.61249 -17532379.01549  20497391.4764   20497394.0694   20497391.2414
       243.0004        202.0004
  -2265175.59949    165733.08649  24239628.3524
       180.0004        109.0004
  -7995007.07549  -5952258.72849  23495006.6174   23495012.7864   23495009.3624
       209.0004        150.0004
   8426671.47259      4186.25659  25797631.4434
       162.0004         74.0004
 11 10  9  1 10  0.0000000  0  9G26G05G10G07G28G08G13G02G16
 -13481184.37649 -10485227.05649  21718406.2124   21718408.0114   21718404.8534
       231.0004        174.0004
 -20350865.84649 -15842150.08849  20716584.7654   20716586.8634   20716584.6624
       241.0004        203.0004
 -13037173.17349  -9887376.97749  21966364.3604   21966370.2064   21966364.7794
       232.0004        179.0004
 -19652886.47349 -15016860.08549  21183898.6834   21183900.9784   21183899.1624
       241.0004        197.0004
  -1840177.10949  -1397386.30149  23931965.5174   23931971.7864   23931965.5364
       206.0004        137.0004
 -22533161.08649 -17538566.38049  20495880.7524   20495883.4164   20495879.8974
       243.0004        202.0004
  -2165867.12349      4476.75549  24258528.4484
       188.0004         74.0004
  -7900060.86049  -5878274.66149  23513080.0904   23513079.4134   23513079.1424
       217.0004        150.0004
   8519962.99959     76868.60059  25815384.5774
       172.0004        102.0004
 11 10  9  1 10 30.0000000  0  8G26G05G10G07G28G08G13G02
 -13567264.95049 -10552302.82049  21702024.1874   21702027.6474   21702024.8704
       229.0004        175.0004
 -20371663.80249 -15858356.29449  20712626.6254   20712629.0984   20712627.4924
       242.0004        204.0004
 -12946629.55149  -9816823.53549  21983596.7194   21983599.1754   21983595.8424
       235.0004        179.0004
 -19596576.55049 -14972982.22149  21194614.4344   21194616.2314   21194614.8074
       241.0004        197.0004
  -1935996.15349  -1472050.47049  23913734.2974   23913736.2794   23913734.5644
       211.0004        139.0004
 -22540580.34549 -17544347.62149  20494467.8824   20494471.5084   20494468.1674
       242.0004        202.0004
  -2066486.27349     81932.46049  24277439.3884
       185.0004        104.0004
  -7804900.75649  -5804123.95149  23531188.4634   23531188.7614   23531187.1474
       216.0004        153.0004
 11 10  9  1 11  0.0000000  0  8G26G05G10G07G28G08G13G02
 -13653065.67149 -10619160.50449  21685697.8334   21685700.4524   21685697.6074
       230.0004        176.0004
 -20391919.63249 -15874140.06049  20708772.4154   20708774.4624   20708772.7114
       241.0004        204.0004
 -12855762.45649  -9746018.02749  22000887.4124   22000890.3454   22000886.7984
       233.0004        179.0004
 -19539850.65249 -14928780.21749  21205409.1694   21205411.1654   21205409.5384
       242.0004        198.0004
  -2031668.37649  -1546600.20849  23895529.2984   23895530.6034   23895526.6164
       211.0004        140.0004
 -22547478.61049 -17549722.88149  20493155.7834   20493158.2494   20493155.4384
       242.0004        202.0004
  -1967033.65749    159502.08549  24296367.1594
       184.0004        110.0004
  -7709529.75749  -5729808.90549  23549336.2524   23549336.1674   23549335.3194
       214.0004        150.0004
 11 10  9  1 11 30.0000000  0  7G26G05G10G07G28G08G02
 -13738584.83149 -10685798.79549  21669422.7244   21669427.4014   21669422.6134
       228.0004        177.0004
 -20411632.13749 -15889500.46449  20705020.8104   20705023.5774   20705021.6094
       242.0004        204.0004
 -12764573.59049  -9674961.78949  22018239.8384   22018243.1874   22018239.0824
       233.0004        178.0004
 -19482710.18149 -14884255.18049  21216282.0574   21216284.4494   21216282.3984
       241.0004        196.0004
  -2127190.71849  -1621033.15149  23877349.7614   23877353.1804   23877349.5334
       208.0004        139.0004
 -22553855.82349 -17554692.13949  20491941.8364   20491945.0594   20491942.0854
       242.0004        202.0004
  -7613950.88849  -5655331.91249  23567521.4844   23567524.7994   23567525.9734
       215.0004        148.0004
 11 10  9  1 12  0.0000000  0  8G26G05G10G07G28G08G13G02
 -13823821.29049 -10752216.77849  21653203.0834   21653206.4884   21653203.3244
       228.0004        176.0004
 -20430800.58549 -15904436.91649  20701374.2204   20701375.5374   20701374.4304
       242.0004        204.0004
 -12673064.89049  -9603656.32249  22035652.7434   22035656.7974   22035652.3374
       233.0004        177.0004
 -19425157.43549 -14839408.86849  21227234.9364   21227236.4924   21227234.5514
       242.0004        197.0004
  -2222560.73649  -1695347.38949  23859200.5134   23859205.4634   23859202.2964
       208.0004        140.0004
 -22559712.57549 -17559255.82549  20490827.4284   20490830.6144   20490826.9134
       242.0004        202.0004
  -1767916.20459     75741.14659  24334257.7474
       176.0004         97.0004
  -7518167.65149  -5580695.59949  23585749.5284   23585751.4174   23585749.5074
       211.0004        147.0004
 11 10  9  1 12 30.0000000  0  7G26G05G10G07G28G08G02
 -13908774.29249 -10818413.91249  21637037.8804   21637040.8964   21637037.8644
       230.0004        177.0004
 -20449424.06849 -15918948.72049  20697829.6454   20697832.0574   20697830.1754
       242.0004        204.0004
 -12581238.83249  -9532103.57549  22053128.4914   22053130.5704   22053127.5164
       234.0004        177.0004
 -19367194.89449 -14794243.25549  21238263.8964   21238266.1904   21238264.4204
       241.0004        197.0004
  -2317776.34849  -1769541.33649  23841082.0194   23841086.9584   23841082.1504
       210.0004        140.0004
 -22565049.84649 -17563414.72349  20489812.3854   20489814.8424   20489811.7434
       243.0004        202.0004
  -7422183.55649  -5505902.80149  23604013.1634   23604017.2524   23604013.8434
       207.0004        146.0004
 11 10  9  1 13  0.0000000  0  7G26G05G10G07G28G08G02
 -13993441.27849 -10884388.16549  21620925.1834   21620928.6164   21620925.5714
       229.0004        178.0004
 -20467500.47749 -15933034.23649  20694389.4794   20694392.1094   20694390.0974
       241.0004        204.0004
 -12489096.00249  -9460303.98449  22070662.8314   22070665.1344   22070661.4644
       232.0004        177.0004
 -19308823.33449 -14748758.91749  21249371.8444   21249374.1314   21249372.4484
       242.0004        196.0004
  -2412833.63949  -1843611.93349  23822994.5324   23822996.1134   23822994.5954
       212.0004        142.0004
 -22569866.99249 -17567168.34449  20488894.8304   20488898.3414   20488895.3054
       242.0004        202.0004
  -7326000.53749  -5430955.05549  23622316.4024   23622318.6584   23622317.4704
       210.0004        147.0004
 11 10  9  1 13 30.0000000  0  7G26G05G10G07G28G08G02
 -14077821.64849 -10950139.07949  21604868.3874   21604872.2964   21604868.0254
       229.0004        177.0004
 -20485029.74649 -15946693.40349  20691054.1474   20691056.1534   20691054.7024
       242.0004        204.0004
 -12396639.09249  -9388259.65449  22088255.0774   22088258.7214   22088254.8434
       232.0004        176.0004
 -19250045.59149 -14702958.07749  21260556.4454   21260558.9764   21260556.9964
       241.0004        196.0004
  -2507730.42449  -1917557.42649  23804937.3594   23804939.2544   23804935.7344
       215.0004        143.0004
 -22574165.23649 -17570517.61349  20488078.1554   20488080.0744   20488077.3684
       243.0004        202.0004
  -7229622.85949  -5355855.56649  23640659.8174   23640660.5114   23640659.4724
       213.0004        147.0004
 11 10  9  1 14  0.0000000  0  7G26G05G10G07G28G08G02
 -14161913.62949 -11015665.26849  21588865.9224   21588870.0704   21588866.5964
       230.0004        178.0004
 -20502010.61249 -15959925.24749  20687822.5714   20687825.2524   20687823.1544
       241.0004        204.0004
 -12303869.88949  -9315971.99649  22105909.4304   22105911.6494   22105907.9084
       232.0004        175.0004
 -19190863.58349 -14656842.22849  21271818.6504   21271820.7404   21271819.7124
       241.0004        196.0004
  -2602463.91649  -1991375.68749  23786908.1984   23786912.4164   23786908.1624
       214.0004        143.0004
 -22577944.82349 -17573462.73849  20487357.7904   20487361.0004   20487357.8204
       242.0004        202.0004
  -7133053.48649  -5280606.69549  23659032.9724   23659037.7384   23659032.0904
       209.0004        144.0004
 11 10  9  1 14 30.0000000  0  7G26G05G10G07G28G08G02
 -14245716.35449 -11080966.07849  21572918.5704   21572923.6814   21572919.1134
       230.0004        177.0004
 -20518442.05149 -15972728.96949  20684696.0214   20684698.5414   20684696.4914
       242.0004        205.0004
 -12210790.71049  -9243442.78549  22123621.6944   22123624.3114   22123620.8044
       232.0004        174.0004
 -19131279.85149 -14610413.34849  21283157.8774   21283158.9214   21283158.1244
       241.0004        195.0004
  -2697031.63849  -2065064.83449  23768911.9314   23768915.6694   23768913.3444
       213.0004        144.0004
 -22581206.44849 -17576004.25549  20486737.7214   20486740.4894   20486737.3594
       243.0004        202.0004
  -7036295.44849  -5205210.89049  23677447.4674   23677449.1364   23677448.2364
       212.0004        146.0004
 11 10  9  1 15  0.0000000  0  7G26G05G10G07G28G08G02
 -14329227.70249 -11146039.82549  21557026.4544   21557031.7344   21557026.7954
       230.0004        178.0004
 -20534322.79349 -15985103.56949  20681673.0714   20681676.8824   20681674.2784
       241.0004        205.0004
 -12117402.94849  -9170673.11249  22141392.5804   22141395.1824   22141392.3634
       231.0004        173.0004
 -19071295.32949 -14563672.15449  21294572.2864   21294573.5474   21294572.4304
       241.0004        196.0004
  -2791430.47549  -2138622.32549  23750950.1474   23750951.7694   23750950.3294
       216.0004        146.0004
 -22583949.88949 -17578141.99849  20486215.6084   20486218.1814   20486215.5494
       243.0004        203.0004
  -6939351.79049  -5129670.38949  23695896.1744   23695897.6134   23695894.4664
       211.0004        145.0004
 11 10  9  1 15 30.0000000  0  7G26G05G10G07G28G08G02
 -14412446.22149 -11210885.42149  21541191.2414   21541195.5874   21541191.9964
       231.0004        179.0004
 -20549651.68049 -15997048.16349  20678757.1114   20678759.5194   20678757.2254
       242.0004        205.0004
 -12023708.31449  -9097664.33749  22159221.6814   22159225.1214   22159220.9614
       230.0004        172.0004
 -19010911.68049 -14516619.95949  21306062.4404   21306064.6894   21306063.0194
       240.0004        195.0004
  -2885657.38749  -2212045.84449  23733020.0444   23733021.8564   23733018.2534
       218.0004        147.0004
 -22586175.64649 -17579876.34849  20485792.0304   20485795.2424   20485791.4594
       243.0004        203.0004
  -6842225.45749  -5053987.52549  23714378.0164   23714379.6294   23714377.8524
       210.0004        146.0004
 11 10  9  1 16  0.0000000  0  7G26G05G10G07G28G08G02
 -14495371.13549 -11275502.20249  21525411.6934   21525414.8174   21525411.7934
       232.0004        180.0004
 -20564428.34449 -16008562.44349  20675944.2584   20675947.4854   20675945.1184
       240.0004        205.0004
 -11929709.48949  -9024418.51349  22177109.2274   22177112.1664   22177108.0954
       230.0004        172.0004
 -18950131.91149 -14469259.10349  21317628.7144   21317630.4394   21317628.9314
       240.0004        194.0004
  -2979710.29949  -2285333.79949  23715122.2504   23715123.0984   23715121.5934
       216.0004        145.0004
 -22587884.80649 -17581208.15049  20485466.6724   20485469.7814   20485466.4364
       243.0004        202.0004
  -6744920.38749  -4978165.43949  23732896.1754   23732895.8944   23732895.6184
       214.0004        145.0004
 11 10  9  1 16 30.0000000  0  7G26G05G10G07G28G08G02
 -14578001.42549 -11339889.41649  21509687.0324   21509691.1784   21509687.7064
       231.0004        180.0004
 -20578652.11849 -16019645.90349  20673238.2124   20673241.0204   20673238.8454
       242.0004        206.0004
 -11835408.11949  -8950936.93949  22195055.3414   22195057.9204   22195053.4004
       232.0004        173.0004
 -18888958.23249 -14421591.29049  21329269.3734   21329271.1754   21329269.7154
       240.0004        194.0004
  -3073586.72449  -2358484.22649  23697257.9304   23697259.6974   23697256.4994
       216.0004        146.0004
 -22589078.21249 -17582138.06849  20485239.7684   20485242.5924   20485239.6124
       243.0004        203.0004
  -6647440.07849  -4902206.76849  23751446.4814   23751445.8834   23751445.1714
       215.0004        149.0004
 11 10  9  1 17  0.0000000  0  7G26G05G10G07G28G08G02
 -14660335.24149 -11404045.60549  21494020.1014   21494024.0694   21494020.4324
       233.0004        181.0004
 -20592321.51449 -16030297.38749  20670637.8134   20670639.8144   20670638.1724
       242.0004        206.0004
 -11740806.16649  -8877221.15949  22213055.4064   22213059.9144   22213055.7964
       228.0004        173.0004
 -18827392.20249 -14373617.76049  21340984.9754   21340987.1844   21340985.1224
       238.0004        194.0004
  -3167283.59649  -2431494.74449  23679425.3404   23679429.9704   23679427.4664
       215.0004        148.0004
 -22589755.75249 -17582666.01149  20485110.6094   20485113.4584   20485110.5084
       243.0004        203.0004
  -6549787.19549  -4826113.61949  23770024.5024   23770029.0784   23770026.1354
       211.0004        147.0004
 11 10  9  1 17 30.0000000  0  7G26G05G10G07G28G08G02
 -14742370.65249 -11467969.28249  21478409.4994   21478412.2004   21478409.6654
       233.0004        181.0004
 -20605435.43449 -16040516.01949  20668140.6904   20668144.2324   20668141.5314
       240.0004        205.0004
 -11645905.42849  -8803272.55449  22231115.1234   22231118.5234   22231114.9734
       230.0004        173.0004
 -18765435.39649 -14325339.73349  21352774.5134   21352777.2124   21352774.8994
       237.0004        194.0004
  -3260797.94349  -2504363.01549  23661631.6664   23661633.7554   23661630.4094
       214.0004        146.0004
 -22589917.72349 -17582792.21749  20485079.7274   20485082.9724   20485079.3684
       243.0004        203.0004
  -6451964.37149  -4749888.07549  23788643.7814   23788644.4284   23788643.4324
       215.0004        147.0004
 11 10  9  1 18  0.0000000  0  7G26G05G10G07G28G08G02
 -14824106.97849 -11531659.91949  21462854.8154   21462858.0954   21462855.6874
       232.0004        179.0004
 -20617993.54249 -16050301.56749  20665752.4474   20665754.4624   20665752.6434
       242.0004        206.0004
 -11550707.88549  -8729092.68749  22249231.7684   22249233.5784   22249230.8974
       229.0004        173.0004
 -18703090.45349 -14276759.26549  21364638.2484   21364640.9344   21364638.8264
       238.0004        194.0004
  -3354127.42049  -2577087.24649  23643873.1294   23643875.2354   23643872.7364
       218.0004        147.0004
 -22589565.19449 -17582517.51249  20485147.0594   20485149.9434   20485146.7234
       244.0004        203.0004
  -6353975.07149  -4673532.77049  23807291.0324   23807292.6684   23807290.9214
       215.0004        148.0004
 11 10  9  1 18 30.0000000  0  7G26G05G10G07G28G08G02
 -14905542.89149 -11595116.43149  21447358.4924   21447361.9244   21447359.0604
       234.0004        180.0004
 -20629994.89249 -16059653.26149  20663467.5864   20663470.6384   20663468.4414
       241.0004        205.0004
 -11455215.70949  -8654683.19449  22267401.9534   22267405.6874   22267400.9414
       228.0004        171.0004
 -18640359.51349 -14227878.01549  21376576.5204   21376578.8164   21376576.9574
       239.0004        195.0004
  -3447269.60349  -2649665.53749  23626147.5524   23626148.7614   23626147.4024
       215.0004        146.0004
 -22588699.03049 -17581842.57149  20485311.5464   20485314.6664   20485311.2714
       243.0004        203.0004
  -6255823.04649  -4597050.69649  23825966.0824   23825967.8884   23825967.3174
       213.0004        147.0004
 11 10  9  1 19  0.0000000  0  8G26G05G10G07G28G08G15G02
 -14986676.18649 -11658337.16249  21431920.0294   21431921.4424   21431919.4434
       234.0004        180.0004
 -20641437.77249 -16068569.78749  20661290.4834   20661293.2424   20661291.0164
       241.0004        206.0004
 -11359430.15749  -8580045.12349  22285629.6454   22285634.0774   22285629.2744
       229.0004        172.0004
 -18577243.53849 -14178696.73849  21388586.9894   21388589.0684   21388587.1704
       240.0004        195.0004
  -3540220.80249  -2722094.99949  23608457.6804   23608463.4284   23608458.5884
       215.0004        147.0004
 -22587318.56049 -17580766.86949  20485574.1654   20485577.2174   20485574.0054
       243.0004        203.0004
   -163907.71549   -113912.80549  24902401.8624
       207.0004        127.0004
  -6157510.55649  -4520443.60949  23844678.6814   23844675.0654   23844675.5654
       214.0004        144.0004
 11 10  9  1 19 30.0000000  0  8G26G05G10G07G28G08G15G02
 -15067506.16249 -11721321.53549  21416537.3674   21416541.0934   21416538.4854
       232.0004        180.0004
 -20652322.19049 -16077051.15749  20659220.1124   20659221.5344   20659220.2134
       242.0004        206.0004
 -11263353.71949  -8505180.38849  22303912.2944   22303915.6444   22303911.2514
       229.0004        172.0004
 -18513745.68749 -14129217.88249  21400670.1164   21400671.8684   21400670.2234
       238.0004        194.0004
  -3632978.77149  -2794373.89249  23590806.7394   23590809.9154   23590807.9094
       214.0004        148.0004
 -22585425.39549 -17579291.67349  20485934.5794   20485937.7024   20485934.7204
       243.0004        203.0004
   -262913.48649   -191060.23849  24883558.1504   24883558.2184
       194.0004        130.0004
  -6059041.39149  -4443714.36049  23863413.9204   23863416.1934   23863414.4204
       214.0004        147.0004
 11 10  9  1 20  0.0000000  0  8G26G05G10G07G28G08G15G02
 -15148030.99349 -11784068.15149  21401214.5584   21401216.9204   21401214.8424
       233.0004        180.0004
 -20662646.87949 -16085096.37049  20657254.3614   20657257.1044   20657254.9424
       241.0004        205.0004
 -11166988.11249  -8430090.32549  22322250.2064   22322253.2144   22322249.7964
       231.0004        173.0004
 -18449867.33549 -14079442.55549  21412825.3474   21412828.3644   21412826.4504
       239.0004        195.0004
  -3725540.59749  -2866499.97249  23573194.4194   23573196.3924   23573193.3224
       213.0004        147.0004
 -22583019.75449 -17577417.14349  20486392.3514   20486395.4214   20486392.7164
       243.0004        203.0004
   -361879.28549   -268176.39349  24864723.9764   24864728.8954   24864728.8534
       205.0004        134.0004
  -5960418.09349  -4366865.06049  23882180.8864   23882182.3154   23882179.5064
       211.0004        144.0004
 11 10  9  1 20 30.0000000  0  8G26G05G10G07G28G08G15G02
 -15228249.77249 -11846576.26149  21385950.3304   21385952.1094   21385949.3464
       234.0004        179.0004
 -20672411.92349 -16092705.49449  20655396.3264   20655399.1104   20655396.9884
       241.0004        206.0004
 -11070335.66349  -8354776.73449  22340644.2374   22340646.8864   22340641.9924
       232.0004        172.0004
 -18385611.10449 -14029372.76249  21425053.4084   21425055.0074   21425053.9354
       240.0004        195.0004
  -3817904.12649  -2938471.50949  23555617.1524   23555621.0344   23555616.5554
       212.0004        146.0004
 -22580102.66149 -17575144.07449  20486947.9664   20486950.3474   20486947.2314
       244.0004        203.0004
   -460804.62049   -345261.00349  24845901.8804   24845904.5334   24845902.4244
       204.0004        137.0004
  -5861644.75349  -4289898.84749  23900974.5764   23900979.5344   23900977.1724
       210.0004        143.0004
 11 10  9  1 21  0.0000000  0  8G26G05G10G07G28G08G15G02
 -15308160.50949 -11908844.34249  21370742.4364   21370745.0624   21370742.5344
       231.0004        180.0004
 -20681615.48949 -16099877.10149  20653644.4374   20653647.6634   20653645.0584
       241.0004        205.0004
 -10973397.74349  -8279240.71149  22359089.2904   22359092.8334   22359089.0674
       230.0004        172.0004
 -18320978.27149 -13979009.51049  21437352.5994   21437354.2034   21437353.0164
       239.0004        193.0004
  -3910065.91649  -3010285.85049  23538080.9854   23538082.6414   23538077.8824
       212.0004        144.0004
 -22576674.17849 -17572472.51849  20487599.7934   20487602.6114   20487599.6484
       243.0004        203.0004
   -559688.19949   -422313.08449  24827086.1744   24827086.8044   24827088.0904
       208.0004        138.0004
  -5762723.79949  -4212817.58449  23919801.8144   23919804.0474   23919801.9684
       212.0004        147.0004
 11 10  9  1 21 30.0000000  0  8G26G05G10G07G28G08G15G02
 -15387762.21549 -11970871.62349  21355595.2404   21355597.7114   21355595.5424
       234.0004        181.0004
 -20690257.14749 -16106610.86049  20652000.6784   20652003.5114   20652001.1394
       241.0004        206.0004
 -10876177.01449  -8203484.29849  22377589.0184   22377593.4724   22377589.2364
       229.0004        171.0004
 -18255971.26049 -13928354.69649  21449723.0534   21449724.8384   21449723.3084
       240.0004        194.0004
  -4002024.04249  -3081941.50549  23520580.2804   23520582.5934   23520579.8074
       211.0004        145.0004
 -22572735.16049 -17569403.14349  20488349.6304   20488352.2934   20488349.0834
       243.0004        202.0004
   -658529.39949   -499332.19149  24808278.6054   24808277.8344   24808275.5304
       202.0004        133.0004
  -5663658.69449  -4135624.04749  23938647.4854   23938652.5324   23938651.4784
       207.0004        143.0004
 11 10  9  1 22  0.0000000  0  8G26G05G10G07G28G08G15G02
 -15467053.73549 -12032657.21249  21340506.5394   21340509.4284   21340506.2634
       233.0004        181.0004
 -20698336.49549 -16112906.46349  20650462.9384   20650465.5324   20650463.6704
       240.0004        205.0004
 -10778675.56449  -8127509.18349  22396145.0954   22396147.3104   22396143.6034
       232.0004        172.0004
 -18190592.45949 -13877410.17149  21462164.2474   21462166.0704   21462164.4424
       240.0004        194.0004
  -4093775.68149  -3153436.26249  23503120.0334   23503123.0704   23503121.4694
       213.0004        147.0004
 -22568287.03249 -17565937.06649  20489195.4494   20489198.9264   20489195.7524
       243.0004        202.0004
   -757327.47249   -576317.60549  24789472.4984   24789477.5464   24789474.9254
       200.0004        136.0004
  -5564452.91849  -4058320.79449  23957533.4394   23957533.9464   23957530.3544
       214.0004        143.0004
 11 10  9  1 22 30.0000000  0  8G26G05G10G07G28G08G15G02
 -15546032.87449 -12094199.37549  21325476.5414   21325480.4624   21325477.2814
       232.0004        182.0004
 -20705852.18449 -16118762.84049  20649032.4554   20649035.5284   20649033.2164
       241.0004        205.0004
 -10680894.49149  -8051316.13449  22414752.6114   22414753.9284   22414751.1674
       232.0004        172.0004
 -18124843.12749 -13826176.92849  21474675.6544   21474677.9674   21474676.1524
       239.0004        194.0004
  -4185317.01949  -3224767.14149  23485700.6684   23485702.7764   23485700.5204
       213.0004        146.0004
 -22563329.11249 -17562073.74249  20490139.6364   20490142.1904   20490139.0424
       244.0004        202.0004
   -856080.79849   -653268.17649  24770684.4024   24770684.4274   24770683.3344
       206.0004        135.0004
  -5465108.55949  -3980909.67049  23976431.9284   23976435.7374   23976434.8374
       210.0004        142.0004
 11 10  9  1 23  0.0000000  0  8G26G05G10G07G28G08G15G02
 -15624699.19949 -12155497.79849  21310506.8794   21310510.3424   21310507.2554
       233.0004        181.0004
 -20712804.10449 -16124179.93249  20647710.6294   20647712.2814   20647710.7284
       241.0004        205.0004
 -10582836.72649  -7974907.52049  22433410.8824   22433413.8784   22433410.6294
       230.0004        171.0004
 -18058726.07549 -13774657.14849  21487257.1214   21487259.8114   21487257.7104
       239.0004        194.0004
  -4276647.13949  -3295933.43049  23468321.9294   23468323.0044   23468321.5104
       215.0004        147.0004
 -22557863.20149 -17557814.59149  20491179.4104   20491181.8694   20491179.1694
       243.0004        202.0004
   -954789.83549   -730184.25749  24751899.5814   24751899.3174   24751901.2564
       205.0004        135.0004
  -5365630.16249  -3903394.04549  23995368.9644   23995367.7824   23995366.2924
       214.0004        146.0004
 11 10  9  1 23 30.0000000  0  8G26G05G10G07G28G08G15G02
 -15703050.66149 -12216550.87849  21295597.1394   21295600.1554   21295597.4614
       232.0004        182.0004
 -20719191.11949 -16129156.81949  20646493.6184   20646497.0184   20646494.4184
       240.0004        205.0004
 -10484503.83649  -7898284.49349  22452121.4684   22452126.8354   22452122.3314
       229.0004        170.0004
 -17992243.12649 -13722852.25349  21499908.1924   21499910.6034   21499908.7924
       239.0004        194.0004
  -4367762.46949  -3366932.34349  23450983.7494   23450987.0944   23450983.2554
       217.0004        150.0004
 -22551889.39049 -17553159.66149  20492316.7814   20492319.0834   20492316.3064
       244.0004        203.0004
  -1053452.72149   -807064.37149  24733123.3834   24733127.1184   24733124.3104
       204.0004        138.0004
  -5266019.92849  -3825775.66549  24014319.6954   24014322.6174   24014316.9334
       207.0004        140.0004
 11 10  9  1 24  0.0000000  0  8G26G05G10G07G28G08G15G02
 -15781085.88749 -12277357.51349  21280747.1984   21280751.5224   21280747.5664
       232.0004        182.0004
 -20725012.53449 -16133692.98749  20645386.4034   20645389.4504   20645387.1064
       241.0004        205.0004
 -10385897.89849  -7821448.71649  22470888.2144   22470890.4614   22470886.9884
       232.0004        169.0004
 -17925395.97349 -13670763.56249  21512629.6384   21512631.9074   21512630.0164
       239.0004        193.0004
  -4458659.85049  -3437761.45549  23433685.8944   23433687.9444   23433686.7054
       216.0004        150.0004
 -22545408.48349 -17548109.59649  20493549.9474   20493552.3754   20493549.1744
       244.0004        202.0004
  -1152068.59649   -883907.80449  24714356.9754   24714360.3384   24714360.4164
       199.0004        135.0004
  -5166281.07349  -3748057.09949  24033299.7804   24033298.5244   24033301.1344
       208.0004        137.0004
 11 10  9  1 24 30.0000000  0  8G26G05G10G07G28G08G15G02
 -15858804.09249 -12337917.12849  21265958.6994   21265961.6084   21265958.6204
       234.0004        183.0004
 -20730268.55749 -16137788.59949  20644387.5864   20644389.2004   20644387.7694
       242.0004        206.0004
 -10287021.59349  -7744402.26749  22489703.9884   22489705.1864   22489702.6594
       229.0004        169.0004
 -17858187.28049 -13618393.14549  21525418.7894   21525420.5414   21525419.0964
       239.0004        191.0004
  -4549337.48049  -3508419.29649  23416430.8324   23416432.2784   23416429.7304
       218.0004        151.0004
 -22538422.24649 -17542665.76249  20494878.6914   20494882.0644   20494878.5154
       244.0004        202.0004
  -1250637.13549   -960714.40149  24695602.3554   24695604.5464   24695601.3514
       207.0004        137.0004
  -5066417.56349  -3670241.36149  24052305.0834   24052306.2334   24052304.8504
       213.0004        143.0004
 11 10  9  1 25  0.0000000  0  8G26G05G10G07G28G08G15G02
 -15936203.29849 -12398228.18449  21251229.2924   21251233.4574   21251230.3944
       234.0004        183.0004
 -20734957.66449 -16141442.44749  20643493.4374   20643497.1314   20643494.2374
       240.0004        205.0004
 -10187875.76649  -7667145.77749  22508569.7644   22508573.3854   22508569.4624
       228.0004        170.0004
 -17790618.51949 -13565742.16949  21538276.8484   21538278.7574   21538277.1534
       239.0004        192.0004
  -4639792.00649  -3578903.30449  23399216.6664   23399218.9684   23399216.4444
       216.0004        151.0004
 -22530930.38449 -17536827.94649  20496305.0104   20496307.4014   20496304.7294
       244.0004        203.0004
  -1349157.19149  -1037483.26449  24676854.1304   24676854.6494   24676853.2954
       204.0004        136.0004
  -4966431.73949  -3592330.33049  24071332.7624   24071329.8634   24071326.3754
       207.0004        138.0004
 11 10  9  1 25 30.0000000  0  8G26G05G10G07G28G08G15G02
 -16013281.93049 -12458289.42349  21236561.6784   21236565.2564   21236561.9924
       233.0004        184.0004
 -20739079.16549 -16144654.00449  20642710.2454   20642712.5174   20642710.1444
       240.0004        205.0004
 -10088462.39949  -7589680.82949  22527486.9314   22527490.1524   22527486.1804
       226.0004        167.0004
 -17722691.55949 -13512812.06849  21551203.5354   21551204.6814   21551203.2164
       240.0004        191.0004
  -4730020.56949  -3649211.22549  23382046.9844   23382050.2354   23382046.8434
       217.0004        149.0004
 -22522933.74549 -17530596.79049  20497826.9384   20497828.8524   20497826.3084
       244.0004        203.0004
  -1447627.45349  -1114213.26149  24658115.9134   24658115.5364   24658115.4144
       203.0004        135.0004
  -4866326.36849  -3514326.23749  24090380.9414   24090379.6534   24090381.7854
       210.0004        138.0004
 11 10  9  1 26  0.0000000  0  8G26G05G10G07G28G08G15G02
 -16090039.31649 -12518100.35649  21221956.6934   21221958.7614   21221956.0564
       235.0004        184.0004
 -20742633.35449 -16147423.50749  20642033.2774   20642035.8784   20642034.1424
       241.0004        205.0004
  -9988784.38249  -7512009.66749  22546455.4254   22546459.6654   22546454.4844
       227.0004        168.0004
 -17654409.30549 -13459605.12349  21564196.3204   21564198.4344   21564196.5864
       239.0004        191.0004
  -4820021.25649  -3719341.60749  23364921.8244   23364924.7494   23364921.3604
       220.0004        151.0004
 -22514433.31149 -17523973.06749  20499443.9044   20499446.8334   20499443.7334
       244.0004        202.0004
  -1546047.80549  -1190904.37149  24639387.7674   24639387.8464   24639388.1344
       205.0004        139.0004
  -4766105.62549  -3436232.08049  24109450.6034   24109454.3244   24109450.1514
       207.0004        141.0004
 11 10  9  1 26 30.0000000  0  8G26G05G10G07G28G08G15G02
 -16166473.55349 -12577659.48949  21207409.9444   21207414.0004   21207411.2474
       234.0004        184.0004
 -20745618.60749 -16149749.68549  20641465.5574   20641467.8754   20641465.8634
       241.0004        205.0004
  -9888843.44649  -7434133.63149  22565473.8274   22565476.7514   22565473.9744
       228.0004        167.0004
 -17585773.27249 -13406122.49149  21577257.0164   21577259.2594   21577257.6324
       239.0004        191.0004
  -4909790.93849  -3789291.99249  23347837.7444   23347841.7924   23347837.2024
       219.0004        153.0004
 -22505429.37349 -17516957.00549  20501158.0114   20501159.8244   20501157.5024
       245.0004        203.0004
  -1644416.68349  -1267555.36549  24620668.6154   24620669.2644   24620669.1994
       210.0004        141.0004
  -4665771.82649  -3358049.90749  24128542.9254   24128541.6284   24128545.9604
       206.0004        137.0004
 11 10  9  1 27  0.0000000  0  8G26G05G10G07G28G08G15G02
 -16242583.15849 -12636965.64149  21192927.9764   21192931.0034   21192927.8694
       234.0004        185.0004
 -20748034.66549 -16151632.32749  20641005.4854   20641008.3874   20641006.2964
       240.0004        205.0004
  -9788641.61849  -7356054.29049  22584542.0164   22584544.9304   22584540.7664
       227.0004        165.0004
 -17516785.39549 -13352365.70049  21590385.7204   21590387.3334   21590385.6224
       238.0004        190.0004
  -4999327.00049  -3859060.31449  23330798.4734   23330803.2284   23330799.1154
       217.0004        152.0004
 -22495923.42649 -17509549.76049  20502966.0504   20502968.9184   20502965.7604
       244.0004        202.0004
  -1742733.34149  -1344165.72949  24601957.9354   24601959.0594   24601961.1224
       201.0004        136.0004
  -4565328.44149  -3279782.35149  24147659.3474   24147661.4064   24147656.9864
       207.0004        138.0004
 11 10  9  1 27 30.0000000  0  8G26G05G10G07G28G08G15G02
 -16318367.45449 -12696018.32849  21178507.9044   21178508.9714   21178507.1914
       237.0004        185.0004
 -20749881.77949 -16153071.63849  20640654.1304   20640657.1474   20640654.8044
       242.0004        206.0004
  -9688181.23249  -7277773.50549  22603657.2834   22603661.5844   22603656.8644
       224.0004        164.0004
 -17447448.34249 -13298336.83049  21603578.9744   21603581.4134   21603579.8954
       237.0004        189.0004
  -5088627.24649  -3928644.90049  23313806.2344   23313810.5744   23313807.9664
       218.0004        152.0004
 -22485916.31449 -17501752.00649  20504870.7904   20504873.2154   20504870.2434
       243.0004        203.0004
  -1840997.44449  -1420735.08149  24583259.8184   24583260.3684   24583258.5374
       210.0004        139.0004
  -4464779.21249  -3201432.36549  24166792.4204   24166794.2564   24166790.0784
       208.0004        143.0004
 11 10  9  1 28  0.0000000  0  8G26G05G10G07G28G08G15G02
 -16393824.23149 -12754815.78349  21164147.9174   21164150.8804   21164147.5294
       234.0004        185.0004
 -20751158.69949 -16154066.64649  20640411.7534   20640414.2584   20640412.1314
       241.0004        206.0004
  -9587463.50449  -7199292.18349  22622823.8134   22622827.4724   22622823.0604
       225.0004        164.0004
 -17377763.24649 -13244036.76549  21616840.2704   21616842.7754   21616840.4414
       236.0004        189.0004
  -5177688.33049  -3998043.09449  23296859.6954   23296861.3644   23296858.2694
       221.0004        153.0004
 -22475408.59249 -17493564.16649  20506870.2004   20506872.9174   20506870.3464
       244.0004        203.0004
  -1939207.37349  -1497262.23549  24564571.5704   24564572.2944   24564570.5944
       209.0004        143.0004
  -4364126.26949  -3123001.49449  24185943.4034   24185944.9144   24185944.4164
       206.0004        138.0004
 11 10  9  1 28 30.0000000  0  8G26G05G10G07G28G08G15G02
 -16468952.27049 -12813357.09449  21149850.4994   21149853.8844   21149851.7064
       234.0004        184.0004
 -20751864.91149 -16154616.93949  20640276.5834   20640279.6064   20640276.9444
       240.0004        205.0004
  -9486490.98049  -7120612.30849  22642039.7824   22642042.3774   22642039.0824
       227.0004        164.0004
 -17307732.75949 -13189467.56549  21630167.4484   21630169.3794   21630167.7604
       238.0004        191.0004
  -5266507.88149  -4067253.09949  23279957.4194   23279960.7184   23279956.0214
       221.0004        155.0004
 -22464400.96649 -17484986.78149  20508965.1354   20508967.8294   20508964.5344
       244.0004        203.0004
  -2037362.43149  -1573746.67749  24545892.2704   24545893.8284   24545892.5404
       205.0004        138.0004
  -4263372.93849  -3044492.35549  24205118.8704   24205117.0774   24205120.2814
       204.0004        132.0004
 11 10  9  1 29  0.0000000  0  8G26G05G10G07G28G08G15G02
 -16543750.56649 -12871641.44949  21135617.6884   21135620.2134   21135617.1124
       234.0004        184.0004
 -20752000.49149 -16154722.58549  20640251.4584   20640253.9884   20640251.3844
       241.0004        205.0004
  -9385265.91749  -7041735.65149  22661302.4724   22661305.1884   22661300.4524
       226.0004        166.0004
 -17237359.11749 -13134630.96049  21643558.9314   21643560.3284   21643559.6214
       239.0004        190.0004
  -5355083.20349  -4136272.78549  23263100.7054   23263104.4724   23263101.9234
       219.0004        154.0004
 -22452894.76349 -17476020.90849  20511153.9214   20511157.0144   20511153.9714
       244.0004        203.0004
  -2135461.94249  -1650187.83649  24527225.0634   24527226.6154   24527223.7604
       208.0004        139.0004
  -4162522.88249  -2965907.94349  24224308.7834   24224313.1884   24224307.7754
       205.0004        138.0004
 11 10  9  1 29 30.0000000  0  8G26G05G10G07G28G08G15G02
 -16618217.33049 -12929667.48949  21121446.1364   21121449.8864   21121446.9884
       234.0004        184.0004
 -20751564.53349 -16154382.89049  20640335.0724   20640336.5234   20640335.2004
       241.0004        205.0004
  -9283790.02149  -6962663.54049  22680610.6144   22680614.6994   22680611.0044
       224.0004        165.0004
 -17166644.06449 -13079528.32349  21657015.6034   21657017.1544   21657015.3764
       237.0004        189.0004
  -5443411.82849  -4205100.26349  23246292.7774   23246296.2854   23246292.8974
       216.0004        153.0004
 -22440890.75549 -17466667.13049  20513438.6694   20513441.5804   20513438.0754
       244.0004        203.0004
  -2233504.73549  -1726584.76749  24508567.3904   24508570.1564   24508567.9004
       208.0004        142.0004
  -4061578.74649  -2887250.23549  24243516.1584   24243520.2914   24243518.2184
       209.0004        148.0004
 11 10  9  1 30  0.0000000  0  8G26G05G10G07G28G08G15G02
 -16692351.31949 -12987434.20249  21107339.8824   21107342.0564   21107339.4834
       236.0004        184.0004
 -20750556.64749 -16153597.52049  20640524.9244   20640528.3694   20640525.8604
       240.0004        205.0004
  -9182065.38449  -6883397.62349  22699969.2904   22699972.5694   22699968.6384
       227.0004        166.0004
 -17095589.86949 -13024161.42349  21670536.2484   21670538.6044   21670536.3054
       238.0004        190.0004
  -5531490.97949  -4273733.32149  23229532.5484   23229533.7504   23229531.0694
       219.0004        152.0004
 -22428389.51549 -17456925.89649  20515817.4814   20515820.6444   20515817.3934
       245.0004        203.0004
  -2331489.89549  -1802936.78149  24489921.8314   24489922.6874   24489921.2404
       207.0004        142.0004
  -3960543.69449  -2808521.65749  24262743.0144   24262745.6194   24262740.8594
       202.0004        132.0004
 11 10  9  1 30 30.0000000  0  8G26G05G10G07G28G08G15G02
 -16766150.90149 -13044940.35949  21093294.8424   21093299.1554   21093295.9454
       234.0004        185.0004
 -20748976.24449 -16152366.04849  20640827.1274   20640828.8844   20640827.0234
       241.0004        205.0004
  -9080093.95149  -6803939.37749  22719374.1324   22719376.1464   22719373.4534
       228.0004        165.0004
 -17024198.21449 -12968531.56549  21684121.9254   21684124.4294   21684121.9404
       238.0004        190.0004
  -5619317.77349  -4342169.75749  23212820.4274   23212820.8624   23212819.5284
       218.0004        154.0004
 -22415391.83449 -17446797.82649  20518291.3334   20518293.4704   20518290.5394
       244.0004        203.0004
  -2429416.33649  -1879242.99849  24471285.3224   24471287.0214   24471286.5904
       206.0004        138.0004
  -3859420.45649  -2729724.27449  24281991.3144   24281983.2334   24281985.6814
       205.0004        124.0004
 11 10  9  1 31  0.0000000  0  8G26G05G10G07G28G08G15G02
 -16839614.90949 -13102185.04149  21079316.8124   21079319.6534   21079317.1894
       237.0004        186.0004
 -20746823.09149 -16150688.26349  20641236.3424   20641239.1724   20641237.1564
       241.0004        205.0004
  -8977877.85749  -6724290.49549  22738825.9344   22738828.1444   22738824.5454
       228.0004        164.0004
 -16952471.17049 -12912640.37149  21697771.0424   21697773.1014   21697771.3624
       238.0004        190.0004
  -5706889.78549  -4410407.64549  23196153.5144   23196158.9424   23196154.9364
       217.0004        153.0004
 -22401898.85549 -17436283.81049  20520858.7374   20520861.2014   20520858.8164
       245.0004        203.0004
  -2527283.00149  -1955502.77749  24452661.1614   24452665.4124   24452663.1774
       206.0004        138.0004
  -3758212.49449  -2650860.89249  24301246.9284   24301250.8364   24301247.4264
       214.0004        148.0004
 11 10  9  1 31 30.0000000  0  8G26G05G10G07G28G08G15G02
 -16912742.61349 -13159167.65849  21065400.5094   21065404.0614   21065401.4114
       236.0004        188.0004
 -20744097.34649 -16148564.30949  20641755.1794   20641757.5884   20641755.1744
       241.0004        205.0004
  -8875419.79849  -6644453.06449  22758322.0134   22758324.5764   22758322.0594
       227.0004        166.0004
 -16880411.63649 -12856490.09349  21711483.1964   21711485.3604   21711483.6984
       237.0004        190.0004
  -5794204.89149  -4478445.36149  23179540.3104   23179542.0764   23179539.4754
       221.0004        155.0004
 -22387912.44249 -17425385.29449  20523520.2124   20523522.4854   20523519.9084
       244.0004        203.0004
  -2625090.02949  -2031715.99049  24434050.8354   24434052.1004   24434052.0294
       204.0004        141.0004
  -3656923.82049  -2571934.67949  24320521.1334   24320524.5634   24320522.1314
       209.0004        149.0004
 11 10  9  1 32  0.0000000  0  8G26G05G10G07G28G08G15G02
 -16985531.40349 -13215886.18749  21051550.3184   21051552.5314   21051550.1424
       238.0004        187.0004
 -20740797.42649 -16145992.95549  20642382.9614   20642385.6424   20642383.4404
       241.0004        204.0004
  -8772720.76449  -6564427.85849  22777864.6554   22777867.9704   22777864.7804
       228.0004        166.0004
 -16808020.43049 -12800081.36649  21725259.4544   21725261.1584   21725259.5014
       238.0004        190.0004
  -5881259.48749  -4546280.07649  23162974.8694   23162975.8754   23162973.5404
       221.0004        155.0004
 -22373431.99949 -17414101.82649  20526275.6084   20526278.3424   20526275.2754
       244.0004        203.0004
  -2722835.11949  -2107880.92449  24415448.4394   24415452.8454   24415451.9004
       202.0004        142.0004
  -3555555.56149  -2492946.51049  24339806.7004   24339817.4984   24339811.3544
       193.0004        128.0004
 11 10  9  1 32 30.0000000  0  8G26G05G10G07G28G08G15G02
 -17057980.61949 -13272340.11149  21037763.1044   21037765.7544   21037763.0924
       237.0004        187.0004
 -20736924.32549 -16142974.95749  20643120.2474   20643122.5774   20643120.6854
       241.0004        205.0004
  -8669783.55749  -6484217.05649  22797454.3254   22797456.0054   22797453.2684
       226.0004        163.0004
 -16735300.72249 -12743416.66749  21739097.0984   21739098.7784   21739097.6584
       238.0004        190.0004
  -5968051.58349  -4613910.23949  23146456.1444   23146459.0094   23146455.9754
       218.0004        153.0004
 -22358459.29849 -17402434.78449  20529124.5364   20529127.5064   20529124.2964
       244.0004        202.0004
  -2820518.23449  -2183997.57049  24396862.3864   24396863.7234   24396861.8614
       209.0004        139.0004
  -3454112.55249  -2413900.04049  24359116.1304   24359110.1934   24359114.5844
       214.0004        130.0004
 11 10  9  1 33  0.0000000  0  8G26G05G10G07G28G08G15G02
 -17130088.52949 -13328528.08749  21024041.2644   21024044.4234   21024041.0534
       237.0004        187.0004
 -20732476.74149 -16139509.32549  20643966.8554   20643968.9824   20643967.3134
       241.0004        205.0004
  -8566609.71149  -6403821.87449  22817086.5894   22817090.3794   22817085.5694
       225.0004        165.0004
 -16662253.77349 -12686496.97349  21752998.1054   21752999.7514   21752997.6104
       238.0004        190.0004
  -6054578.37249  -4681333.69049  23129990.8084   23129995.1194   23129991.1634
       218.0004        155.0004
 -22342994.90649 -17390384.59749  20532067.8044   20532070.3774   20532067.1954
       245.0004        203.0004
  -2918137.83849  -2260064.80049  24378286.3194   24378287.2654   24378286.4244
       207.0004        139.0004
  -3352597.14149  -2334796.92249  24378434.1604   24378438.6804   24378432.6334
       212.0004        145.0004
 11 10  9  1 33 30.0000000  0  8G26G05G10G07G28G08G15G02
 -17201854.03049 -13384449.24249  21010384.1654   21010387.5434   21010384.7444
       238.0004        187.0004
 -20727454.68949 -16135596.04049  20644921.0584   20644924.4934   20644921.8524
       239.0004        204.0004
  -8463201.60349  -6323244.14849  22836765.8544   22836769.0874   22836763.9204
       225.0004        163.0004
 -16588882.00749 -12629324.17349  21766959.3844   21766961.8954   21766960.0314
       237.0004        190.0004
  -6140837.22549  -4748548.34149  23113576.3774   23113580.7334   23113576.6884
       218.0004        155.0004
 -22327039.89649 -17377952.12149  20535103.4664   20535106.2904   20535103.5774
       245.0004        203.0004
  -3015693.51849  -2336082.17249  24359721.4544   24359722.5684   24359722.9334
       210.0004        143.0004
  -3251012.28149  -2255639.98249  24397759.1614   24397767.5854   24397760.1274
       189.0004        137.0004
 11 10  9  1 34  0.0000000  0  8G26G05G10G07G28G08G15G02
 -17273275.87249 -13440102.61849  20996793.7674   20996795.7284   20996793.2694
       237.0004        186.0004
 -20721858.47749 -16131235.36149  20645986.3284   20645989.4264   20645987.0284
       240.0004        204.0004
  -8359561.72949  -6242485.81549  22856486.7864   22856491.0204   22856486.2414
       223.0004        164.0004
 -16515187.95249 -12571900.21649  21780983.5814   21780984.9204   21780983.4984
       238.0004        189.0004
  -6226825.94049  -4815552.49449  23097215.8464   23097216.7904   23097214.0814
       220.0004        156.0004
 -22310595.82549 -17365138.54649  20538233.2644   20538235.3344   20538232.8614
       245.0004        203.0004
  -3113184.32049  -2412048.99949  24341170.5404   24341172.3684   24341169.5554
       208.0004        145.0004
  -3149361.57849  -2176431.80749  24417109.0434   24417110.2974   24417109.6064
       206.0004        139.0004
 11 10  9  1 34 30.0000000  0  8G26G05G10G07G28G08G15G02
 -17344352.51649 -13495487.01449  20983267.5764   20983270.2034   20983268.2594
       238.0004        187.0004
 -20715687.44249 -16126426.77949  20647162.2644   20647164.0464   20647162.3254
       241.0004        205.0004
  -8255691.94349  -6161548.33349  22876250.1954   22876255.2854   22876250.6664
       221.0004        162.0004
 -16441173.08649 -12514226.30749  21795068.3734   21795069.8204   21795068.4094
       237.0004        189.0004
  -6312541.58549  -4882343.87349  23080903.9764   23080904.8464   23080903.3844
       221.0004        155.0004
 -22293663.23549 -17351944.32049  20541454.9204   20541457.7084   20541454.9664
       244.0004        203.0004
  -3210608.88849  -2487964.20149  24322630.5864   24322631.1624   24322630.4424
       208.0004        140.0004
  -3047647.81549  -2097174.27449  24436461.1134   24436462.8564   24436462.4804
       207.0004        137.0004
 11 10  9  1 35  0.0000000  0  8G26G05G10G07G28G08G15G02
 -17415082.24549 -13550601.07549  20969808.2314   20969811.5924   20969808.1114
       237.0004        188.0004
 -20708941.10049 -16121169.88649  20648444.4144   20648447.8004   20648445.4214
       240.0004        205.0004
  -8151594.03749  -6080433.10549  22896060.9734   22896065.8264   22896060.1134
       224.0004        162.0004
 -16366839.27649 -12456303.86049  21809213.1614   21809215.0024   21809213.3104
       237.0004        188.0004
  -6397981.28049  -4948920.22649  23064644.4424   23064646.8604   23064644.7834
       221.0004        155.0004
 -22276243.14449 -17338370.20949  20544769.6554   20544772.7334   20544769.6044
       244.0004        203.0004
  -3307966.26049  -2563827.02549  24304104.8444   24304106.2604   24304105.5884
       210.0004        143.0004
  -2945873.78049  -2017869.70549  24455833.4774   24455830.6444   24455830.1364
       205.0004        134.0004
 11 10  9  1 35 30.0000000  0  8G26G05G10G07G28G08G15G02
 -17485463.52849 -13605443.61949  20956415.3324   20956418.4944   20956415.6904
       238.0004        188.0004
 -20701618.83249 -16115464.23749  20649838.8364   20649841.3914   20649839.4514
       242.0004        205.0004
  -8047269.79749  -5999141.53849  22915915.1124   22915917.1074   22915913.7494
       225.0004        162.0004
 -16292188.18349 -12398134.19049  21823418.5004   21823421.3334   21823418.5394
       237.0004        188.0004
  -6483142.08149  -5015279.26349  23048438.4884   23048441.5794   23048437.8414
       221.0004        155.0004
 -22258335.95649 -17324416.56149  20548177.3764   20548180.5494   20548177.5014
       244.0004        203.0004
  -3405255.00449  -2639636.45249  24285589.2954   24285591.7094   24285589.8964
       210.0004        143.0004
  -2844042.04749  -1938520.39249  24475206.2354   24475212.5394   24475206.9594
       198.0004        134.0004
 11 10  9  1 36  0.0000000  0  8G26G05G10G07G28G08G15G02
 -17555495.38549 -13660013.86849  20943087.5614   20943091.5544   20943088.1424
       237.0004        188.0004
 -20693721.32649 -16109310.35049  20651342.4194   20651343.9334   20651342.3244
       242.0004        205.0004
  -7942721.87249  -5917675.61849  22935807.6304   22935811.4004   22935808.0064
       222.0004        161.0004
 -16217222.69549 -12339719.53449  21837683.7344   21837686.1714   21837683.6694
       235.0004        187.0004
  -6568022.28549  -5081419.65349  23032286.1564   23032289.0804   23032285.6574
       222.0004        155.0004
 -22239943.55949 -17310084.81149  20551677.7304   20551680.5324   20551677.4194
       245.0004        203.0004
  -3502474.83849  -2715392.14549  24267088.0794   24267092.6434   24267090.4334
       208.0004        145.0004
  -2742156.66949  -1859129.24749  24494594.9614   24494596.6364   24494595.6834
       203.0004        139.0004
 11 10  9  1 36 30.0000000  0  8G26G05G10G07G28G08G15G02
 -17625177.07449 -13714311.28049  20929828.5944   20929831.7474   20929828.9764
       238.0004        189.0004
 -20685248.64749 -16102708.26449  20652952.8734   20652956.3664   20652953.4914
       239.0004        204.0004
  -7837952.70749  -5836037.33049  22955745.8684   22955749.3424   22955746.0894
       223.0004        160.0004
 -16141945.37049 -12281061.88649  21852008.1974   21852010.8524   21852009.0714
       235.0004        185.0004
  -6652619.69149  -5147339.68849  23016188.6444   23016190.7004   23016186.9714
       224.0004        158.0004
 -22221067.45449 -17295376.15549  20555270.1414   20555271.9344   20555269.6804
       246.0004        203.0004
  -3599625.31849  -2791093.74749  24248602.7524   24248605.3064   24248602.7484
       208.0004        146.0004
  -2640221.00449  -1779698.81449  24513992.9464   24513995.0674   24513993.8804
       201.0004        134.0004
 11 10  9  1 37  0.0000000  0  8G26G05G10G07G28G08G15G02
 -17694506.52649 -13768334.20449  20916636.1614   20916638.4844   20916636.0454
       238.0004        189.0004
 -20676200.08849 -16095657.44049  20654674.8034   20654677.9404   20654675.4894
       240.0004        204.0004
  -7732964.04349  -5754227.98649  22975723.6384   22975728.0644   22975723.8774
       222.0004        162.0004
 -16066357.41949 -12222162.18549  21866393.1394   21866394.3794   21866393.2864
       236.0004        186.0004
  -6736931.09449  -5213036.85049  23000144.3314   23000147.0964   23000143.9754
       223.0004        156.0004
 -22201707.95449 -17280290.82049  20558953.3144   20558956.1914   20558952.9544
       244.0004        202.0004
  -3696704.89749  -2866740.13749  24230128.6294   24230132.3374   24230130.8194
       209.0004        144.0004
  -2538237.20549  -1700230.94549  24533401.1884   24533403.7774   24533400.0334
       198.0004        134.0004
 11 10  9  1 37 30.0000000  0  8G26G05G10G07G28G08G15G02
 -17763482.57149 -13822081.75949  20903509.4124   20903512.9214   20903510.1714
       238.0004        189.0004
 -20666575.65849 -16088157.90149  20656507.2444   20656509.7194   20656507.7534
       241.0004        204.0004
  -7627757.90849  -5672249.22849  22995742.8704   22995747.6534   22995744.0454
       222.0004        161.0004
 -15990461.11949 -12163022.22149  21880834.9744   21880837.7054   21880835.9324
       235.0004        186.0004
  -6820954.08949  -5278509.28849  22984155.6384   22984156.2194   22984154.9064
       224.0004        158.0004
 -22181866.33449 -17264829.82149  20562729.1424   20562732.0194   20562729.4014
       244.0004        202.0004
  -3793712.52649  -2942330.48649  24211671.9624   24211671.9954   24211671.9714
       215.0004        147.0004
  -2436208.97849  -1620728.45249  24552815.0164   24552817.8134   24552817.4114
       199.0004        134.0004
 11 10  9  1 38  0.0000000  0  8G26G05G10G07G28G08G15G02
 -17832103.29849 -13875552.44249  20890451.8014   20890454.7294   20890452.4924
       240.0004        189.0004
 -20656374.31649 -16080208.81649  20658449.1234   20658450.6994   20658449.3744
       241.0004        205.0004
  -7522335.76749  -5590102.11849  23015805.4744   23015807.8264   23015803.9084
       223.0004        158.0004
 -15914258.17649 -12103643.31849  21895336.1564   21895338.1614   21895336.5684
       235.0004        185.0004
  -6904685.37949  -5343754.42049  22968222.3254   22968223.8534   22968221.6964
       225.0004        157.0004
 -22161543.35149 -17248993.71949  20566596.5044   20566599.0694   20566595.6884
       245.0004        203.0004
  -3890646.66249  -3017863.53749  24193222.9814   24193226.8144   24193223.2684
       206.0004        145.0004
  -2334138.14349  -1541192.69249  24572237.9464   24572242.3334   24572239.2044
       205.0004        135.0004
 11 10  9  1 38 30.0000000  0  8G26G05G10G07G28G08G15G02
 -17900368.06249 -13928745.76149  20877460.8674   20877464.7234   20877461.7714
       238.0004        189.0004
 -20645597.58549 -16071811.37449  20660498.5254   20660502.0464   20660499.4874
       240.0004        204.0004
  -7416701.01249  -5507789.34849  23035909.3974   23035911.3674   23035905.7814
       222.0004        158.0004
 -15837751.54449 -12044027.76049  21909895.0044   21909896.8474   21909895.1414
       235.0004        185.0004
  -6988123.36849  -5408771.00549  22952343.7414   22952346.6644   22952343.1084
       223.0004        157.0004
 -22140740.54649 -17232783.74549  20570555.7574   20570558.3454   20570555.3604
       245.0004        203.0004
  -3987507.35449  -3093339.30249  24174790.7214   24174795.0584   24174791.3664
       210.0004        145.0004
  -2232028.94649  -1461627.12049  24591672.1864   24591674.7774   24591670.5624
       201.0004        133.0004
 11 10  9  1 39  0.0000000  0  8G26G05G10G07G28G08G15G02
 -17968274.66349 -13981659.98749  20864539.8594   20864542.5254   20864539.6464
       240.0004        190.0004
 -20634244.20949 -16062964.60349  20662660.0754   20662662.0314   20662660.1894
       240.0004        204.0004
  -7310854.50149  -5425311.59049  23056049.9234   23056053.2324   23056049.2844
       221.0004        158.0004
 -15760942.10349 -11984176.27249  21924511.7644   21924513.3444   21924511.9344
       235.0004        186.0004
  -7071264.85249  -5473556.56049  22936523.2904   22936524.1104   22936522.7244
       225.0004        158.0004
 -22119458.51749 -17216200.33749  20574605.0204   20574608.1104   20574604.5434
       245.0004        203.0004
  -4084292.61049  -3168756.39249  24156373.1954   24156376.1934   24156373.6164
       209.0004        144.0004
  -2129883.70049  -1382033.48749  24611110.9634   24611108.0924   24611110.2454
       200.0004        132.0004
 11 10  9  1 39 30.0000000  0  8G26G05G10G07G28G08G15G02
 -18035822.48849 -14034294.64449  20851684.7514   20851688.6014   20851685.1404
       238.0004        190.0004
 -20622314.81049 -16053668.97849  20664928.9034   20664932.2234   20664930.0304
       239.0004        204.0004
  -7204799.32549  -5342671.20349  23076230.0764   23076233.8574   23076229.1504
       221.0004        158.0004
 -15683833.03449 -11924091.27349  21939184.4764   21939187.5394   21939184.8134
       234.0004        186.0004
  -7154107.89849  -5538109.55549  22920757.4834   22920759.2894   22920757.8104
       223.0004        160.0004
 -22097698.99249 -17199244.87049  20578745.7734   20578748.3654   20578745.9864
       246.0004        203.0004
  -4181002.35649  -3244114.62749  24137969.7404   24137972.0674   24137970.5404
       203.0004        142.0004
  -2027706.13449  -1302414.52449  24630547.5094   24630552.5054   24630548.0374
       201.0004        134.0004
 11 10  9  1 40  0.0000000  0  8G26G05G10G07G28G08G15G02
 -18103010.02549 -14086648.54749  20838899.6374   20838903.2524   20838899.6694
       239.0004        190.0004
 -20609809.56649 -16043924.63449  20667308.1094   20667311.9174   20667308.9604
       239.0004        203.0004
  -7098537.26049  -5259869.63849  23096450.7894   23096455.4014   23096450.6644
       221.0004        157.0004
 -15606425.94849 -11863774.07049  21953915.4094   21953917.2024   21953915.6484
       235.0004        185.0004
  -7236649.93349  -5602427.99749  22905052.6574   22905054.0154   22905051.5264
       226.0004        160.0004
 -22075463.42949 -17181918.44049  20582977.0384   20582979.6884   20582976.4344
       245.0004        202.0004
  -4277635.31449  -3319412.95049  24119580.8584   24119585.0244   24119580.7704
       207.0004        144.0004
  -1925498.78349  -1222772.42949  24650001.9144   24650000.8534   24650000.4594
       203.0004        133.0004
 11 10  9  1 40 30.0000000  0  8G26G05G10G07G28G08G15G02
 -18169835.68649 -14138720.47449  20826182.8814   20826186.7444   20826183.5864
       240.0004        190.0004
 -20596727.67849 -16033730.96849  20669798.5414   20669801.2354   20669799.3334
       240.0004        203.0004
  -6992070.31549  -5176908.37249  23116711.3114   23116715.0694   23116710.1454
       221.0004        157.0004
 -15528722.32049 -11803225.79449  21968700.6994   21968703.2804   21968702.2304
       234.0004        184.0004
  -7318887.74249  -5666509.36949  22889402.5954   22889403.3934   22889400.9554
       226.0004        161.0004
 -22052752.24849 -17164221.41549  20587299.1404   20587301.7434   20587298.9324
       246.0004        203.0004
  -4374190.23949  -3394650.52749  24101207.9444   24101211.1074   24101208.0554
       209.0004        147.0004
  -1823264.51949  -1143109.47049  24669460.5674   24669453.5004   24669459.5624
       209.0004        132.0004
 11 10  9  1 41  0.0000000  0  8G26G05G10G07G28G08G15G02
 -18236298.04949 -14190509.32249  20813536.1504   20813538.8724   20813536.3674
       240.0004        190.0004
 -20583069.30049 -16023088.08649  20672398.8254   20672400.4504   20672399.0534
       242.0004        204.0004
  -6885400.32649  -5093788.93849  23137008.9264   23137015.1534   23137008.9144
       222.0004        156.0004
 -15450724.44149 -11742448.22249  21983544.7254   21983545.5284   21983544.6904
       235.0004        183.0004
  -7400819.08649  -5730351.94749  22873810.3774   22873814.5224   22873809.7454
       223.0004        161.0004
 -22029566.32849 -17146154.45349  20591711.3014   20591713.6314   20591710.6214
       246.0004        202.0004
  -4470665.75849  -3469826.20349  24082849.5184   24082851.7004   24082848.5354
       208.0004        146.0004
  -1721006.42849  -1063427.77949  24688910.9274   24688914.9754   24688914.9124
       200.0004        131.0004
 11 10  9  1 41 30.0000000  0  8G26G05G10G07G28G08G15G02
 -18302395.48449 -14242013.81249  20800958.5514   20800960.5904   20800959.0454
       239.0004        190.0004
 -20568834.79149 -16011996.28349  20675107.3564   20675108.7474   20675107.4804
       241.0004        203.0004
  -6778529.48849  -5010512.98649  23157347.5104   23157351.0494   23157346.4534
       223.0004        158.0004
 -15372434.64349 -11681443.18749  21998442.3414   21998444.4164   21998442.4304
       235.0004        184.0004
  -7482441.38549  -5793953.71949  22858278.0024   22858280.6684   22858278.2664
       223.0004        160.0004
 -22005907.22349 -17127718.78849  20596213.3054   20596216.1364   20596213.0584
       245.0004        203.0004
  -4567060.99449  -3544939.32549  24064500.5014   24064508.6514   24064503.7784
       201.0004        144.0004
  -1618727.26849   -983729.70649  24708378.7464   24708381.9244   24708377.8854
       207.0004        133.0004
 11 10  9  1 42  0.0000000  0  8G26G05G10G07G28G08G15G02
 -18368127.04049 -14293233.19849  20788450.0854   20788452.6054   20788450.5334
       240.0004        190.0004
 -20554023.89149 -16000455.32049  20677924.5644   20677927.4954   20677925.2604
       240.0004        203.0004
  -6671460.07449  -4927082.30949  23177721.6654   23177724.9014   23177722.3334
       222.0004        156.0004
 -15293854.98849 -11620212.29149  22013395.5844   22013397.1714   22013395.7594
       236.0004        185.0004
  -7563752.35049  -5857312.88949  22842805.0244   22842807.9874   22842804.9104
       224.0004        161.0004
 -21981776.02949 -17108915.25449  20600805.4674   20600808.1594   20600804.7394
       245.0004        202.0004
  -4663375.33549  -3619989.42149  24046178.6454   24046180.1024   24046178.5814
       210.0004        148.0004
  -1516430.66349   -904018.08849  24727849.8324   24727847.1474   24727844.7484
       208.0004        133.0004
 11 10  9  1 42 30.0000000  0  8G26G05G10G07G28G08G15G02
 -18433491.80549 -14344166.76449  20776011.4924   20776014.1724   20776011.3354
       239.0004        190.0004
 -20538637.20949 -15988465.70349  20680852.0924   20680855.6064   20680852.9374
       239.0004        203.0004
  -6564194.69749  -4843498.92149  23198131.6844   23198137.8904   23198133.5334
       219.0004        155.0004
 -15214987.70749 -11558757.27149  22028402.8004   22028405.4154   22028403.6884
       235.0004        185.0004
  -7644749.83049  -5920427.76549  22827392.5744   22827394.7074   22827391.7934
       224.0004        162.0004
 -21957174.48849 -17089745.21849  20605486.3604   20605489.3994   20605486.4224
       244.0004        202.0004
  -4759607.90849  -3694975.80749  24027865.5364   24027866.4024   24027865.4014
       210.0004        147.0004
  -1414119.67449   -824295.26849  24747308.9284   24747314.8334   24747309.8884
       198.0004        133.0004
 11 10  9  1 43  0.0000000  0  8G26G05G10G07G28G08G15G02
 -18498488.00049 -14394813.13049  20763641.3734   20763645.7584   20763642.1264
       237.0004        189.0004
 -20522674.67349 -15976027.38749  20683891.4274   20683893.5684   20683891.3234
       241.0004        203.0004
  -6456734.94749  -4759764.07449  23218581.2014   23218586.8434   23218580.8844
       220.0004        157.0004
 -15135834.55049 -11497079.49149  22043465.4874   22043467.3904   22043465.5114
       235.0004        184.0004
  -7725430.70449  -5983295.95649  22812038.7374   22812040.0534   22812039.3634
       224.0004        163.0004
 -21932103.30249 -17070209.23349  20610256.3264   20610260.2314   20610256.8124
       243.0004        201.0004
  -4855757.59249  -3769897.56049  24009568.3394   24009568.9394   24009567.9444
       210.0004        144.0004
  -1311796.71549   -744563.15049  24766782.9574   24766785.7684   24766783.9264
       206.0004        135.0004
 11 10  9  1 43 30.0000000  0  8G26G05G10G07G28G08G15G02
 -18563114.11549 -14445171.12549  20751344.7904   20751348.3824   20751345.0024
       239.0004        190.0004
 -20506136.24549 -15963140.30449  20687036.8504   20687040.3224   20687037.6614
       240.0004        203.0004
  -6349083.11949  -4675879.56549  23239068.4384   23239071.4584   23239068.0684
       223.0004        158.0004
 -15056397.52549 -11435180.52349  22058581.2604   22058583.8464   22058582.0294
       234.0004        184.0004
  -7805792.87249  -6045915.80149  22796747.6364   22796749.7784   22796746.3404
       225.0004        163.0004
 -21906563.89249 -17050308.39049  20615118.3224   20615120.2834   20615117.6514
       246.0004        202.0004
  -4951822.91649  -3844753.62649  23991286.1904   23991290.2164   23991287.6064
       211.0004        145.0004
  -1209464.63249   -664823.85049  24786260.9314   24786261.3804   24786260.1554
       207.0004        131.0004
 11 10  9  1 44  0.0000000  0  8G26G05G10G07G28G08G15G02
 -18627368.47649 -14495239.44249  20739117.9644   20739120.7104   20739117.8114
       240.0004        191.0004
 -20489021.97849 -15949804.52649  20690294.8684   20690297.1164   20690295.1044
       241.0004        203.0004
  -6241241.39749  -4591847.09549  23259591.1304   23259591.6534   23259589.9564
       224.0004        155.0004
 -14976678.34949 -11373061.68849  22073751.9534   22073754.2264   22073752.1174
       235.0004        184.0004
  -7885833.99049  -6108285.45349  22781514.3414   22781518.4064   22781514.1734
       224.0004        164.0004
 -21880557.25649 -17030043.47549  20620066.0924   20620069.0164   20620066.2084
       245.0004        202.0004
  -5047802.96549  -3919543.23549  23973020.7054   23973026.1294   23973021.3074
       204.0004        146.0004
  -1107126.67649   -585080.00349  24805731.3064   24805728.6814   24805733.9744
       200.0004        126.0004
 11 10  9  1 44 30.0000000  0  8G26G05G10G07G28G08G15G02
 -18691250.10749 -14545017.32649  20726961.5514   20726964.7774   20726962.2164
       239.0004        191.0004
 -20471331.98249 -15936020.12749  20693661.5424   20693663.5414   20693662.0614
       241.0004        203.0004
  -6133211.30649  -4507667.82749  23280149.1444   23280149.7204
       224.0004        156.0004
 -14896679.60949 -11310725.02149  22088975.0194   22088976.5974   22088975.3304
       235.0004        183.0004
  -7965551.11449  -6170402.67049  22766344.5084   22766347.3554   22766344.7284
       224.0004        164.0004
 -21854084.43549 -17009415.29849  20625104.8284   20625106.9054   20625104.1734
       246.0004        202.0004
  -5143696.63949  -3994265.47549  23954771.5184   23954778.1264   23954773.4364
       210.0004        147.0004
  -1004785.60149   -505333.69149  24825201.3874   24825208.0994   24825203.4874
       196.0004        129.0004
 11 10  9  1 45  0.0000000  0  8G26G05G10G07G28G08G15G02
 -18754757.88049 -14594503.88449  20714876.8064   20714878.9514   20714876.6564
       239.0004        190.0004
 -20453067.06249 -15921787.73449  20697137.1304   20697138.8744   20697137.3344
       240.0004        203.0004
  -6024995.90149  -4423344.15849  23300741.0624   23300743.2974   23300739.5784
       223.0004        157.0004
 -14816403.31349 -11248172.03649  22104251.7214   22104253.1824   22104251.7514
       235.0004        183.0004
  -8044942.16349  -6232265.81749  22751238.0824   22751240.2224   22751236.7794
       225.0004        162.0004
 -21827147.25149 -16988425.28249  20630229.2844   20630232.8264   20630229.5214
       244.0004        201.0004
  -5239503.40049  -4068920.07649  23936544.1204   23936546.6454   23936543.7184
       212.0004        145.0004
   -902444.76649   -425587.63349  24844681.1884   24844683.3634   24844681.9704
       204.0004        131.0004
 11 10  9  1 45 30.0000000  0  8G26G05G10G07G28G08G15G02
 -18817890.19049 -14643697.87349  20702862.2624   20702865.7514   20702862.3034
       238.0004        191.0004
 -20434227.05849 -15907107.20949  20700720.2284   20700724.4484   20700721.2814
       239.0004        203.0004
  -5916596.71349  -4338877.29849  23321368.0634   23321371.4554   23321366.6144
       220.0004        153.0004
 -14735850.90349 -11185403.93549  22119580.2174   22119581.8644   22119580.2134
       235.0004        183.0004
  -8124004.54449  -6293872.84249  22736191.9424   22736194.7374   22736193.3004
       226.0004        164.0004
 -21799746.44349 -16967073.99849  20635445.1924   20635446.4894   20635444.4474
       246.0004        202.0004
  -5335221.67349  -4143505.75149  23918328.2814   23918331.4244   23918328.0164
       209.0004        146.0004
   -800106.61149   -345843.67549  24864157.8074   24864156.1384   24864155.4544
       209.0004        133.0004
 11 10  9  1 46  0.0000000  0  8G26G05G10G07G28G08G15G02
 -18880645.60849 -14692598.19249  20690920.2574   20690923.2754   20690920.5984
       238.0004        190.0004
 -20414811.91049 -15891978.53549  20704416.1314   20704418.6964   20704416.5234
       241.0004        203.0004
  -5808015.94049  -4254268.93149  23342030.2094   23342033.3734   23342030.6874
       219.0004        152.0004
 -14655024.66349 -11122422.45449  22134960.3534   22134962.1514   22134960.5674
       233.0004        180.0004
  -8202735.46349  -6355221.57349  22721211.2274   22721213.1624   22721210.4114
       227.0004        165.0004
 -21771883.26549 -16945362.42949  20640745.9504   20640749.0874   20640746.2064
       245.0004        202.0004
  -5430850.20749  -4218021.40049  23900130.0584   23900133.6074   23900130.0224
       208.0004        148.0004
   -697774.18149   -266104.11349  24883626.3934   24883631.5594   24883630.1144
       205.0004        135.0004
 11 10  9  1 46 30.0000000  0  8G26G05G10G07G28G08G15G02
 -18943023.34349 -14741204.20149  20679049.5554   20679053.2124   20679050.2924
       238.0004        191.0004
 -20394822.29049 -15876402.22849  20708220.6884   20708222.9024   20708220.9404
       240.0004        203.0004
  -5699256.34949  -4169521.19249  23362723.7364   23362730.0324   23362726.1184
       216.0004        153.0004
 -14573927.27549 -11059229.68449  22150393.0564   22150394.9834   22150393.2714
       233.0004        181.0004
  -8281133.31349  -6416310.77849  22706291.7514   22706294.1834   22706291.1694
       229.0004        165.0004
 -21743559.54049 -16923291.99149  20646136.9074   20646139.2694   20646136.4014
       246.0004        202.0004
  -5526388.73049  -4292466.99149  23881947.8984   23881953.3004   23881949.9134
       208.0004        147.0004
   -595450.83849   -186371.66949  24903097.5914   24903103.1984   24903098.2294
       205.0004        133.0004
 11 10  9  1 47  0.0000000  0  8G26G05G10G07G28G08G15G02
 -19005021.75549 -14789514.64449  20667252.7524   20667255.1844   20667253.2614
       240.0004        192.0004
 -20374258.51749 -15860378.51249  20712133.3234   20712136.0004   20712133.6104
       241.0004        203.0004
  -5590319.83749  -4084635.64849  23383455.3354   23383459.8824   23383454.6584
       217.0004        152.0004
 -14492560.43949 -10995826.96849  22165876.4044   22165878.9044   22165876.2924
       234.0004        181.0004
  -8359195.19849  -6477138.20149  22691437.7364   22691438.7584   22691437.1354
       227.0004        165.0004
 -21714776.29249 -16900863.48349  20651612.5994   20651616.1764   20651612.7304
       244.0004        201.0004
  -5621835.86249  -4366841.32149  23863786.8144   23863791.2274   23863787.8374
       212.0004        149.0004
   -493139.25449   -106648.39249  24922570.9174   24922573.1564   24922570.1724
       207.0004        131.0004
 11 10  9  1 47 30.0000000  0  8G26G05G10G07G28G08G15G02
 -19066638.80249 -14837527.91549  20655527.3374   20655530.7074   20655527.9794
       240.0004        193.0004
 -20353120.28749 -15843907.17449  20716155.2804   20716158.7744   20716156.4694
       241.0004        203.0004
  -5481207.42149  -3999613.03949  23404220.6824   23404223.0824   23404218.1554
       218.0004        151.0004
 -14410925.67149 -10932215.46649  22181411.3294   22181413.3244   22181411.0354
       233.0004        180.0004
  -8436918.27349  -6537701.60749  22676647.0474   22676650.0334   22676646.8974
       227.0004        166.0004
 -21685534.38349 -16878077.58249  20657178.3654   20657181.1334   20657178.2394
       246.0004        202.0004
  -5717190.02249  -4441143.25349  23845642.2234   23845645.3704   23845642.6584
       212.0004        148.0004
   -390841.67349    -26936.01249  24942038.2444   24942039.7814   24942036.8724
       201.0004        131.0004
 11 10  9  1 48  0.0000000  0  8G26G05G10G07G28G08G15G02
 -19127873.83549 -14885243.51349  20643875.3314   20643877.8264   20643875.4904
       240.0004        193.0004
 -20331408.50849 -15826988.92649  20720288.6854   20720290.2134   20720289.1274
       242.0004        203.0004
  -5371922.28749  -3914455.81749  23425016.9564   23425019.8114   23425016.4404
       218.0004        153.0004
 -14329025.45749 -10868397.11849  22196995.8884   22196998.3394   22196995.7694
       232.0004        180.0004
  -8514300.97349  -6597999.77749  22661921.7654   22661924.4414   22661922.5384
       227.0004        168.0004
 -21655835.72649 -16854935.77449  20662829.2704   20662832.1094   20662829.5264
       244.0004        201.0004
  -5812450.80849  -4515372.39949  23827515.9484   23827517.3154   23827515.6024
       214.0004        149.0004
   -288561.94049     52762.46649  24961498.2144   24961499.8954   24961500.0374
       198.0004        129.0004
 11 10  9  1 48 30.0000000  0  8G26G05G10G07G28G08G15G02
 -19188725.42349 -14932660.31049  20632295.4904   20632298.4184   20632295.4054
       241.0004        194.0004
 -20309123.23749 -15809623.78349  20724527.7674   20724530.6724   20724528.3494
       240.0004        202.0004
  -5262466.26049  -3829165.43549  23445843.8044   23445848.0504   23445843.6554
       215.0004        150.0004
 -14246861.57249 -10804373.33049  22212630.9534   22212633.5094   22212631.3434
       232.0004        180.0004
  -8591340.51249  -6658030.56249  22647260.7144   22647262.8274   22647260.5394
       226.0004        165.0004
 -21625680.97449 -16831438.56149  20668568.3404   20668570.7794   20668568.0184
       245.0004        201.0004
  -5907616.60149  -4589527.51049  23809406.1784   23809408.2474   23809405.5104
       214.0004        150.0004
   -186302.20449    132445.33349  24980959.1484   24980958.7624   24980959.4324
       199.0004        127.0004
 11 10  9  1 49  0.0000000  0  8G26G05G10G07G28G08G15G02
 -19249191.74049 -14979776.90249  20620788.5604   20620792.2674   20620788.7404
       240.0004        194.0004
 -20286264.63249 -15791811.89349  20728877.3934   20728880.3254   20728877.9194
       240.0004        202.0004
  -5152841.29649  -3743743.39149  23466705.7144   23466708.6344   23466704.8664
       215.0004        151.0004
 -14164435.70149 -10740145.38849  22228316.1664   22228318.5064   22228315.9504
       232.0004        178.0004
  -8668034.34549  -6717791.97149  22632668.2014   22632668.7854   22632667.7474
       229.0004        167.0004
 -21595071.58149 -16807587.09049  20674391.7254   20674395.2784   20674391.8634
       244.0004        201.0004
  -6002686.11049  -4663607.59349  23791313.4934   23791316.3254   23791313.6034
       212.0004        148.0004
    -84065.22749    212110.47449  25000413.2504   25000416.6614   25000409.8684
       194.0004        123.0004
 11 10  9  1 49 30.0000000  0  8G26G05G10G07G28G08G15G02
 -19309272.40049 -15026592.98549  20609354.6304   20609358.6604   20609355.4114
       239.0004        194.0004
 -20262833.66349 -15773554.00349  20733337.3564   20733339.7434   20733337.4534
       241.0004        202.0004
  -5043050.28649  -3658191.99649  23487597.1464   23487603.0104   23487597.9304
       215.0004        152.0004
 -14081750.68149 -10675715.51149  22244051.3634   22244053.5194   22244052.2164
       234.0004        180.0004
  -8744380.26049  -6777282.26849  22618138.7304   22618140.7134   22618137.9614
       227.0004        166.0004
 -21564009.71549 -16783383.03349  20680304.1794   20680305.9694   20680303.4354
       246.0004        202.0004
  -6097659.21049  -4737612.60849  23773241.8694   23773244.2354   23773241.5154
       214.0004        151.0004
     18145.15549    291754.87349  25019864.6114   25019863.0824   25019864.0434
       194.0004        123.0004
 11 10  9  1 50  0.0000000  0  8G26G05G10G07G28G08G15G02
 -19368965.47549 -15073107.05449  20597996.9314   20597999.3074   20597997.0734
       241.0004        194.0004
 -20238830.45649 -15754850.21849  20737904.7664   20737906.9834   20737905.2624
       240.0004        201.0004
  -4933094.81849  -3572512.43849  23508520.4944   23508526.0304   23508520.0104
       216.0004        150.0004
 -13998807.98149 -10611084.84149  22259835.1094   22259836.4664   22259835.4974
       234.0004        180.0004
  -8820375.63549  -6836499.41049  22603677.0074   22603679.8654   22603676.6034
       226.0004        166.0004
 -21532495.93949 -16758826.84649  20686300.1734   20686303.2194   20686300.0494
       245.0004        202.0004
  -6192533.99949  -4811540.97849  23755186.4524   23755190.0194   23755186.1764
       215.0004        149.0004
    120326.73649    371376.83249  25039309.0414                   25039310.8604
       193.0004        120.0004
 11 10  9  1 50 30.0000000  0  8G26G05G10G07G28G08G15G02
 -19428269.45049 -15119317.93149  20586711.2164   20586713.3634   20586711.8264
       241.0004        194.0004
 -20214255.63949 -15735701.02149  20742579.4684   20742583.2514   20742580.3394
       238.0004        200.0004
  -4822977.17049  -3486706.50349  23529475.3504   23529480.8104   23529475.7984
       218.0004        152.0004
 -13915609.46449 -10546254.83949  22275667.1234   22275668.8234   22275667.8194
       233.0004        178.0004
  -8896018.30649  -6895441.73449  22589283.3324   22589285.1354   22589283.3604
       228.0004        167.0004
 -21500531.64849 -16733919.60749  20692384.0294   20692385.2524   20692383.2714
       247.0004        202.0004
  -6287309.60949  -4885392.04349  23737153.3254   23737155.1664   23737151.4174
       212.0004        150.0004
    222476.88649    450974.34349  25058751.9574                   25058747.1184
       191.0004        117.0004
 11 10  9  1 51  0.0000000  0  8G26G05G10G07G28G08G15G02
 -19487184.08549 -15165225.44049  20575500.9554   20575503.0424   20575501.2824
       242.0004        195.0004
 -20189109.66349 -15716106.76249  20747365.6384   20747368.2954   20747366.1924
       240.0004        201.0004
  -4712700.25749  -3400776.44749  23550462.4004   23550464.7864   23550461.3864
       220.0004        153.0004
 -13832158.24249 -10481227.92149  22291547.7054   22291549.3844   22291547.8274
       233.0004        179.0004
  -8971306.45049  -6954107.80349  22574956.4324   22574958.6634   22574955.0334
       227.0004        166.0004
 -21468118.95649 -16708662.96149  20698550.6304   20698553.6024   20698550.4764
       246.0004        201.0004
  -6381985.64449  -4959165.52249  23719136.2164   23719139.5774   23719136.0364
       216.0004        150.0004
    324591.71449    530544.28049  25078179.7284                   25078180.1624
       195.0004        118.0004
 11 10  9  1 51 30.0000000  0  8G26G05G10G07G28G08G15G02
 -19545706.58649 -15210827.38249  20564363.7024   20564366.2584   20564364.1174
       240.0004        194.0004
 -20163391.96249 -15696067.00949  20752260.7994   20752262.6634   20752260.4904
       240.0004        201.0004
  -4602264.72249  -3314722.79749  23571477.3854   23571480.6314   23571476.1604
       220.0004        152.0004
 -13748454.57949 -10416004.29249  22307475.3904   22307476.4544   22307475.7474
       233.0004        178.0004
  -9046236.52849  -7012494.84549  22560697.3484   22560699.4454   22560696.5104
       228.0004        166.0004
 -21435257.68649 -16683056.77549  20704804.3124   20704807.0254   20704804.2104
       246.0004        202.0004
  -6476559.79349  -5032859.65849  23701138.7944   23701142.0574   23701137.6884
       211.0004        150.0004
    426669.78349     19205.57949  25097603.4444
       184.0004         74.0004
 11 10  9  1 52  0.0000000  0  8G26G05G10G07G28G08G15G02
 -19603836.43149 -15256123.34049  20553301.7564   20553305.1654   20553301.7494
       240.0004        194.0004
 -20137104.07349 -15675582.95549  20757262.6624   20757265.0174   20757262.8924
       240.0004        201.0004
  -4491673.52149  -3228547.88549  23592522.4864   23592524.9774   23592521.7054
       220.0004        149.0004
 -13664501.45649 -10350586.28149  22323451.6514   22323452.0944   22323451.7424
       234.0004        178.0004
  -9120807.11049  -7070601.76949  22546507.5174   22546508.3734   22546507.7134
       228.0004        167.0004
 -21401950.20849 -16657102.89349  20711142.5464   20711144.7024   20711142.1524
       246.0004        201.0004
  -6571031.48149  -5106473.88249  23683161.6824   23683165.0554   23683161.6104
       213.0004        152.0004
    528707.67649     98764.99549  25117021.9724
       185.0004        107.0004
 11 10  9  1 52 30.0000000  0  8G26G05G10G07G28G08G15G02
 -19661571.90649 -15301112.01349  20542315.3924   20542318.2004   20542315.3404
       240.0004        194.0004
 -20110246.26449 -15654654.79349  20762372.7784   20762375.8854   20762373.0684
       239.0004        201.0004
  -4380928.75549  -3142253.25449  23613596.2684   23613599.5454   23613595.4474
       220.0004        153.0004
 -13580300.60849 -10284975.23649  22339473.1414   22339474.9234   22339473.9964
       232.0004        177.0004
  -9195015.62749  -7128426.54849  22532385.8854   22532387.3004   22532385.5704
       230.0004        167.0004
 -21368197.69049 -16630802.22949  20717565.4934   20717568.0064   20717565.2534
       246.0004        201.0004
  -6665399.24649  -5180007.19649  23665201.9484   23665207.6134   23665204.2954
       212.0004        152.0004
    630702.39849    178365.03449  25136429.2534
       178.0004        104.0004
 11 10  9  1 53  0.0000000  0  8G26G05G10G07G28G08G15G02
 -19718912.18649 -15345792.73349  20531403.3964   20531406.8964   20531404.2534
       240.0004        195.0004
 -20082819.11049 -15633282.99749  20767592.0794   20767595.1934   20767592.7784
       240.0004        200.0004
  -4270032.49249  -3055840.59749  23634698.0254   23634703.4114   23634697.8324
       217.0004        149.0004
 -13495854.13349 -10219172.79049  22355543.4894   22355545.3254   22355543.4344
       231.0004        175.0004
  -9268859.86649  -7185967.51549  22518334.2244   22518333.9724   22518333.4514
       228.0004        166.0004
 -21334001.55849 -16604155.89349  20724072.7024   20724075.3704   20724072.5684
       246.0004        201.0004
  -6759662.76349  -5253459.24649  23647266.4304   23647270.3534   23647266.3164
       215.0004        155.0004
    732651.67649     12561.98949  25155829.9844
       175.0004         74.0004
 11 10  9  1 53 30.0000000  0  8G26G05G10G07G28G08G15G02
 -19775855.68349 -15390164.28349  20520567.4534   20520570.8834   20520567.6944
       240.0004        195.0004
 -20054822.97249 -15611467.84549  20772920.6614   20772922.7244   20772921.2734
       241.0004        202.0004
  -4158986.74849  -2969311.47749  23655828.7264   23655833.1794   23655829.7774
       216.0004        150.0004
 -13411163.96249 -10153180.46049  22371659.8154   22371660.8884   22371660.1664
       231.0004        175.0004
  -9342337.35849  -7243222.67149  22504350.4944   22504354.7284   22504351.0394
       227.0004        167.0004
 -21299363.29749 -16577165.03249  20730664.4884   20730666.5024   20730663.5714
       247.0004        201.0004
  -6853820.20649  -5326828.64649  23629346.9224   23629352.7474   23629348.8394
       213.0004        153.0004
    834552.78059     91933.17859  25175223.4104
       173.0004        105.0004
 11 10  9  1 54  0.0000000  0  8G26G05G10G07G28G08G15G02
 -19832401.46049 -15434225.91349  20509807.4974   20509810.6484   20509807.1904
       240.0004        195.0004
 -20026258.89949 -15589210.13349  20778354.6514   20778358.3504   20778355.9684
       240.0004        201.0004
  -4047794.30649  -2882668.02149  23676988.9444   23676993.5254   23676989.6594
       218.0004        149.0004
 -13326232.34649 -10086999.99149  22387821.1174   22387823.2924   22387821.9544
       232.0004        176.0004
  -9415446.12249  -7300190.52749  22490438.3354   22490441.1904   22490438.4284
       226.0004        166.0004
 -21264284.45849 -16549830.87049  20737339.1464   20737341.9864   20737338.9994
       246.0004        201.0004
  -6947870.85949  -5400114.80949  23611448.0814   23611454.5574   23611450.3304
       211.0004        151.0004
    936401.89659    171193.87259  25194604.1034
       173.0004        108.0004
 11 10  9  1 54 30.0000000  0  7G26G05G10G07G28G08G15
 -19888547.91649 -15477976.38549  20499123.9074   20499125.8324   20499123.3894
       241.0004        195.0004
 -19997127.32749 -15566510.21249  20783899.0504   20783901.9164   20783899.3674
       240.0004        202.0004
  -3936456.87249  -2795911.59349  23698176.4754   23698179.0204   23698175.4474
       215.0004        147.0004
 -13241061.16949 -10020632.85749  22404028.8114   22404031.2884   22404029.8084
       231.0004        176.0004
  -9488183.71249  -7356869.13549  22476597.0114   22476599.2484   22476597.2924
       227.0004        166.0004
 -21228766.41649 -16522154.46949  20744098.6844   20744100.9834   20744097.9114
       246.0004        201.0004
  -7041813.44549  -5473316.83049  23593573.6504   23593578.0244   23593574.9274
       213.0004        153.0004
 11 10  9  1 55  0.0000000  0  7G26G05G10G07G28G08G15
 -19944293.09449 -15521414.18149  20488515.3354   20488518.0754   20488515.5234
       240.0004        195.0004
 -19967427.91449 -15543367.82549  20789550.8514   20789553.5904   20789551.4064
       241.0004        202.0004
  -3824975.91649  -2709043.33149  23719389.6164   23719394.9484   23719390.5824
       215.0004        148.0004
 -13155651.65649  -9954080.00149  22420281.6694   22420284.0504   22420282.5424
       231.0004        175.0004
  -9560547.29449  -7413256.32349  22462826.7004   22462829.3814   22462826.6624
       227.0004        166.0004
 -21192810.01149 -16494136.49449  20750939.3484   20750943.1064   20750939.7874
       245.0004        200.0004
  -7135646.24649  -5546433.27149  23575718.3984   23575722.0374   23575718.0314
       210.0004        153.0004
 11 10  9  1 55 30.0000000  0  7G26G05G10G07G28G08G15
 -19999636.60949 -15564538.98949  20477984.2784   20477985.7444   20477984.1404
       241.0004        195.0004
 -19937162.44649 -15519784.35849  20795310.6974   20795312.5494   20795310.8054
       241.0004        201.0004
  -3713354.65149  -2622065.74249  23740629.4304   23740634.7864   23740630.1094
       214.0004        147.0004
 -13070006.51249  -9887343.52049  22436579.8424   22436582.1214   22436580.2074
       232.0004        177.0004
  -9632535.32549  -7469350.86049  22449127.9644   22449130.7434   22449127.5034
       229.0004        167.0004
 -21156417.40049 -16465778.60349  20757866.5944   20757868.3264   20757865.9344
       247.0004        201.0004
  -7229369.13749  -5619464.00849  23557883.0754   23557888.5084   23557883.6224
       214.0004        156.0004
 11 10  9  1 56  0.0000000  0  7G26G05G10G07G28G08G15
 -20054576.85349 -15607349.56549  20467528.4854   20467531.4664   20467528.7804
       240.0004        195.0004
 -19906331.01749 -15495759.88149  20801177.1564   20801179.6964   20801177.8214
       241.0004        201.0004
  -3601594.76749  -2534980.11949  23761897.3034   23761902.1414   23761896.6964
       212.0004        146.0004
 -12984127.48749  -9820424.82149  22452921.8334   22452924.6614   22452921.8864
       231.0004        176.0004
  -9704145.22549  -7525150.77349  22435501.2714   22435503.5824   22435500.8804
       229.0004        168.0004
 -21119589.56649 -16437081.59549  20764873.5304   20764876.3304   20764873.3654
       245.0004        200.0004
  -7322980.28749  -5692407.75749  23540070.1164   23540074.7104   23540071.4384
       214.0004        157.0004
 11 10  9  1 56 30.0000000  0  7G26G05G10G07G28G08G15
 -20109112.71049 -15649845.03649  20457150.0674   20457154.2884   20457150.9724
       240.0004        196.0004
 -19874934.80349 -15471295.31249  20807151.1144   20807154.1694   20807151.9164
       240.0004        200.0004
  -3489698.86549  -2447788.54049  23783189.5304   23783197.0204   23783192.1324
       211.0004        146.0004
 -12898016.90649  -9753325.68149  22469308.4794   22469310.2424   22469309.4064
       232.0004        177.0004
  -9775375.09149  -7580654.55049  22421946.2264   22421949.0164   22421946.9074
       229.0004        169.0004
 -21082328.30649 -16408046.84149  20771964.4854   20771967.0824   20771964.3754
       246.0004        200.0004
  -7416478.88349  -5765263.75849  23522277.7724   23522280.4614   23522277.9514
       213.0004        153.0004
 11 10  9  1 57  0.0000000  0  7G26G05G10G07G28G08G15
 -20163242.62449 -15692024.17949  20446850.0064   20446853.5534   20446850.0684
       240.0004        195.0004
 -19842973.92049 -15446390.74049  20813233.0464   20813236.0964   20813233.8844
       240.0004        201.0004
  -3377668.44449  -2360492.13149  23804509.9404   23804514.3214   23804509.7334
       214.0004        146.0004
 -12811676.04449  -9686047.09449  22485739.1814   22485740.4584   22485739.0004
       234.0004        179.0004
  -9846222.12049  -7635859.99749  22408465.0534   22408467.4694   22408464.9954
       229.0004        170.0004
 -21044634.67749 -16378675.17949  20779136.7444   20779139.8144   20779136.7044
       245.0004        199.0004
  -7509863.07849  -5838030.62449  23504507.2844   23504510.7934   23504508.1434
       216.0004        156.0004
 11 10  9  1 57 30.0000000  0  7G26G05G10G07G28G08G15
 -20216965.23349 -15733885.94449  20436626.4014   20436630.3464   20436626.8424
       240.0004        196.0004
 -19810449.24449 -15421046.85549  20819423.1144   20819425.1984   20819423.5924
       240.0004        201.0004
  -3265505.96549  -2273092.80849  23825852.7114   23825858.8494   23825853.0314
       211.0004        143.0004
 -12725106.97349  -9618590.66849  22502211.3764   22502214.7964   22502211.8014
       231.0004        176.0004
  -9916684.37049  -7690765.62349  22395056.3874   22395057.5274   22395055.9834
       231.0004        169.0004
 -21006509.99149 -16348967.62949  20786392.5564   20786394.8254   20786392.3394
       246.0004        200.0004
  -7603132.01349  -5910707.71049  23486759.6034   23486763.1354   23486759.8924
       216.0004        157.0004
 11 10  9  1 58  0.0000000  0  7G26G05G10G07G28G08G15
 -20270279.70449 -15775429.68349  20426483.3774   20426484.9454   20426482.8604
       243.0004        198.0004
 -19777361.77249 -15395264.42249  20825718.7954   20825721.7984   20825719.7074
       240.0004        200.0004
  -3153213.85149  -2185592.48649  23847221.5864   23847225.9374   23847221.4404
       215.0004        146.0004
 -12638312.22949  -9550958.41849  22518728.6944   22518730.1224   22518728.6144
       230.0004        175.0004
  -9986759.85149  -7745369.87049  22381721.6724   22381723.7874   22381721.1544
       231.0004        170.0004
 -20967956.13449 -16318925.65149  20793728.6174   20793731.3384   20793727.6994
       245.0004        199.0004
  -7696285.19349  -5983294.55349  23469032.4184   23469036.9944   23469033.4244
       213.0004        156.0004
 11 10  9  1 58 30.0000000  0  7G26G05G10G07G28G08G15
 -20323184.30049 -15816654.04149  20416414.9694   20416417.5564   20416415.1614
       243.0004        198.0004
 -19743711.86349 -15369043.73549  20832123.0264   20832125.4374   20832123.4344
       241.0004        200.0004
  -3040793.77949  -2097992.43849  23868613.8484   23868618.0844   23868615.0194
       213.0004        143.0004
 -12551293.10549  -9483151.31949  22535287.1774   22535289.9904   22535287.8584
       229.0004        175.0004
 -10056446.16149  -7799670.87449  22368460.5964   22368463.1074   22368461.0084
       231.0004        170.0004
 -20928974.34649 -16288550.24449  20801146.1864   20801149.4814   20801146.5374
       245.0004        199.0004
  -7789320.80549  -6055789.79749  23451328.4564   23451332.3034   23451329.3504
       216.0004        156.0004
 11 10  9  1 59  0.0000000  0  7G26G05G10G07G28G08G15
 -20375678.08349 -15857558.27949  20406426.6314   20406428.4274   20406426.2234
       243.0004        198.0004
 -19709500.65549 -15342385.65849  20838632.5814   20838635.6274   20838633.0384
       240.0004        200.0004
  -2928248.24449  -2010294.63949  23890030.7284   23890036.3914   23890031.9784
       212.0004        145.0004
 -12464051.82149  -9415171.10349  22551887.7794   22551891.2584   22551889.1264
       228.0004        174.0004
 -10125741.44049  -7853667.16849  22355274.1684   22355276.5434   22355274.5774
       231.0004        173.0004
 -20889566.45049 -16257842.78249  20808645.4854   20808648.2044   20808645.0254
       244.0004        198.0004
  -7882237.89949  -6128192.71949  23433647.4204   23433649.6524   23433648.2734
       217.0004        158.0004
 11 10  9  1 59 30.0000000  0  7G26G05G10G07G28G08G15
 -20427759.49049 -15898141.17949  20396514.6674   20396517.5844   20396515.0324
       242.0004        198.0004
 -19674728.34349 -15315290.36849  20845249.6944   20845252.1244   20845250.1094
       240.0004        200.0004
  -2815578.80449  -1922500.31349  23911472.7084   23911476.2384   23911471.3674
       216.0004        146.0004
 -12376589.79349  -9347018.88849  22568533.1564   22568534.0304   22568533.1644
       229.0004        175.0004
 -10194642.82249  -7907356.53949  22342163.0244   22342165.1594   22342162.4934
       231.0004        172.0004
 -20849733.17549 -16226803.86449  20816225.6094   20816228.3324   20816225.3934
       245.0004        199.0004
  -7975034.63149  -6200501.82349  23415988.0704   23415990.5774   23415988.7174
       218.0004        157.0004
 11 10  9  2  0  0.0000000  0  8G26G05G10G07G28G08G15G21
 -20479427.44349 -15938401.92349  20386682.2264   20386685.2164   20386682.5414
       243.0004        198.0004
 -19639396.64049 -15287759.18549  20851972.6754   20851975.9504   20851973.5614
       240.0004        201.0004
  -2702788.55049  -1834611.85749  23932937.3114   23932939.2134   23932934.6224
       216.0004        145.0004
 -12288909.72749  -9278696.76249  22585217.5394   22585219.6064   22585218.3374
       229.0004        174.0004
 -10263148.56449  -7960737.61249  22329125.9384   22329128.9754   22329125.9894
       230.0004        173.0004
 -20809477.00649 -16195435.41349  20823886.8124   20823888.6874   20823885.8134
       246.0004        199.0004
  -8067710.92349  -6272717.06749  23398353.3484   23398356.5604   23398353.9264
       219.0004        158.0004
   -112456.14449    -82206.47649  24964848.2284   24964849.2354
       207.0004        131.0004
 11 10  9  2  0 30.0000000  0  8G26G05G10G07G28G08G15G21
 -20530680.39549 -15978339.29349  20376929.4124   20376931.9454   20376929.7974
       244.0004        198.0004
 -19603506.17649 -15259792.60149  20858802.9524   20858805.4644   20858803.1224
       241.0004        200.0004
  -2589878.94649  -1746630.36449  23954421.1264   23954424.4324   23954420.6384
       215.0004        145.0004
 -12201012.85549  -9210205.70449  22601944.0564   22601945.3674   22601943.6324
       229.0004        173.0004
 -10331256.14049  -8013808.43449  22316165.9854   22316168.1504   22316165.8234
       232.0004        172.0004
 -20768798.56649 -16163737.93049  20831626.5364   20831628.9564   20831626.7074
       245.0004        198.0004
  -8160264.73549  -6344836.91249  23380741.9034   23380742.4584   23380741.6924
       221.0004        158.0004
   -151003.64349   -112243.43149  24957512.5724   24957513.7894   24957512.3264
       207.0004        133.0004
 11 10  9  2  1  0.0000000  0  8G26G05G10G07G28G08G15G21
 -20581517.69649 -16017952.76849  20367255.4984   20367258.1234   20367255.5114
       243.0004        198.0004
 -19567057.57949 -15231391.11249  20865739.3294   20865741.6224   20865739.6514
       242.0004        201.0004
  -2476852.76049  -1658558.03249  23975928.9704   23975934.1394   23975929.0054
       213.0004        143.0004
 -12112901.86649  -9141547.80849  22618710.1624   22618712.4434   22618710.4084
       227.0004        171.0004
 -10398964.38049  -8066568.08349  22303281.8174   22303284.2414   22303281.6864
       233.0004        175.0004
 -20727699.89949 -16131712.99049  20839447.6624   20839450.4654   20839447.6224
       245.0004        198.0004
  -8252695.57949  -6416860.92149  23363151.1124   23363153.1444   23363151.9124
       217.0004        156.0004
   -189074.09749   -141908.71449  24950268.0214   24950269.6274   24950265.8534
       205.0004        134.0004
 11 10  9  2  1 30.0000000  0  8G26G05G10G07G28G08G15G21
 -20631938.09149 -16057241.38749  20357660.5424   20357663.6594   20357660.7384
       242.0004        198.0004
 -19530051.78649 -15202555.44849  20872781.1124   20872783.6694   20872781.5984
       242.0004        200.0004
  -2363711.85949  -1570396.31349  23997458.0564   23997462.3434   23997456.9514
       211.0004        144.0004
 -12024578.50749  -9072724.43149  22635517.0194   22635520.1664   22635518.5414
       228.0004        174.0004
 -10466270.67949  -8119014.54349  22290473.7914   22290475.2174   22290474.3764
       233.0004        175.0004
 -20686182.29049 -16099361.60549  20847348.2344   20847351.2444   20847348.0674
       245.0004        198.0004
  -8345001.94549  -6488787.92249  23345587.0644   23345587.9314   23345586.7634
       220.0004        158.0004
   -226666.30949   -171201.33549  24943114.8504   24943112.1774   24943115.3164
       210.0004        133.0004
 11 10  9  2  2  0.0000000  0  8G26G05G10G07G28G08G15G21
 -20681939.78349 -16096203.73049  20348146.4634   20348148.8894   20348146.1114
       244.0004        198.0004
 -19492489.42049 -15173286.07849  20879929.4014   20879931.1744   20879929.4494
       242.0004        200.0004
  -2250458.36749  -1482146.87849  24019011.4694   24019015.7204   24019010.1384
       213.0004        146.0004
 -11936044.30749  -9003736.77749  22652365.6664   22652367.7344   22652365.5744
       229.0004        173.0004
 -10533172.85049  -8171146.06349  22277743.2134   22277744.7904   22277742.7164
       233.0004        175.0004
 -20644247.47349 -16066685.11249  20855328.7804   20855330.7644   20855328.0084
       245.0004        198.0004
  -8437182.38749  -6560616.77549  23328045.0464   23328047.4404   23328045.1124
       220.0004        160.0004
   -263778.54749   -200119.90849  24936051.1224   24936052.8704   24936051.4174
       207.0004        134.0004
 11 10  9  2  2 30.0000000  0  8G26G05G10G07G28G08G15G21
 -20731521.29549 -16134838.66849  20338710.7474   20338713.9074   20338710.6544
       243.0004        199.0004
 -19454371.55249 -15143583.85949  20887181.9714   20887184.5884   20887182.6504
       242.0004        200.0004
  -2137094.23549  -1393811.25349  24040583.1714   24040587.0044   24040583.8724
       215.0004        145.0004
 -11847300.93749  -8934586.10749  22669252.8904   22669253.7814   22669253.3524
       230.0004        173.0004
 -10599668.51849  -8222960.86149  22265088.7574   22265090.0324   22265089.5884
       233.0004        173.0004
 -20601896.23149 -16033684.14449  20863387.2834   20863389.9034   20863386.8414
       245.0004        197.0004
  -8529235.53249  -6632346.48449  23310526.7644   23310528.6224   23310528.2494
       218.0004        158.0004
   -300409.87249   -228663.82749  24929078.2624   24929082.2244   24929079.0584
       202.0004        134.0004
 11 10  9  2  3  0.0000000  0  8G26G05G10G07G28G08G15G21
 -20780682.04449 -16173145.74649  20329355.4374   20329358.7634   20329355.9344
       242.0004        198.0004
 -19415699.27449 -15113449.64349  20894542.5574   20894544.1954   20894542.6284
       243.0004        199.0004
  -2023621.69749  -1305391.12349  24062176.9964   24062181.1294   24062175.0914
       215.0004        144.0004
 -11758350.53549  -8865274.12249  22686180.0444   22686181.6494   22686180.0604
       231.0004        171.0004
 -10665755.62349  -8274457.28849  22252513.3794   22252514.5094   22252512.1534
       233.0004        174.0004
 -20559130.39049 -16000360.11049  20871525.7574   20871528.2364   20871525.2464
       246.0004        198.0004
  -8621160.40149  -6703976.21549  23293034.5794   23293036.3634   23293035.1624
       221.0004        158.0004
   -336560.00749   -256832.67549  24922203.3034   24922204.1324   24922203.1064
       212.0004        136.0004
 11 10  9  2  3 30.0000000  0  8G26G05G10G07G28G08G15G21
 -20829420.53049 -16211123.78049  20320081.1934   20320083.6634   20320081.2004
       243.0004        199.0004
 -19376473.62949 -15082884.20849  20902006.1394   20902008.1784   20902006.5294
       242.0004        199.0004
  -1910042.86849  -1216888.17649  24083790.9774   24083795.2364   24083790.5954
       214.0004        143.0004
 -11669195.25849  -8795802.48249  22703146.3124   22703147.0654   22703146.0504
       231.0004        171.0004
 -10731432.38249  -8325633.96249  22240014.7194   22240016.9744   22240014.2334
       232.0004        175.0004
 -20515951.85749 -15966714.50149  20879742.1734   20879744.4614   20879741.5934
       245.0004        197.0004
  -8712955.84749  -6775505.09949  23275567.6194   23275569.8904   23275567.5474
       222.0004        161.0004
   -372227.11249   -284625.12649  24915415.4954   24915414.5494   24915414.9324
       207.0004        136.0004
 11 10  9  2  4  0.0000000  0  8G26G05G10G07G28G08G15G21
 -20877735.51349 -16248771.81649  20310886.8934   20310890.1034   20310887.1074
       243.0004        199.0004
 -19336695.28049 -15051888.11049  20909575.3524   20909578.3934   20909575.7714
       241.0004        200.0004
  -1796360.31449  -1128304.39349  24105423.7574   24105425.3454   24105422.9854
       213.0004        143.0004
 -11579836.79349  -8726172.49649  22720150.0944   22720151.8764   22720149.7954
       230.0004        171.0004
 -10796696.56849  -8376489.15649  22227595.6704   22227598.3994   22227595.8654
       233.0004        175.0004
 -20472361.94949 -15932748.34049  20888036.7294   20888039.5054   20888036.7064
       245.0004        198.0004
  -8804620.50549  -6846932.06549  23258123.1774   23258125.8654   23258122.7864
       219.0004        160.0004
   -407410.57949   -312040.77749  24908719.2614   24908721.5624   24908717.1084
       208.0004        136.0004
 11 10  9  2  4 30.0000000  0  8G26G05G10G07G28G08G15G21
 -20925625.85249 -16286088.95849  20301773.3374   20301776.2474   20301773.6524
       242.0004        198.0004
 -19296365.52549 -15020462.34249  20917249.7574   20917252.2114   20917250.7104
       241.0004        200.0004
  -1682575.94949  -1039641.28149  24127075.6024   24127078.7974   24127075.4264
       214.0004        143.0004
 -11490277.01749  -8656385.68149  22737191.9904   22737193.7104   22737192.9994
       229.0004        173.0004
 -10861546.25749  -8427021.35349  22215254.4344   22215256.8134   22215254.9924
       232.0004        175.0004
 -20428362.30049 -15898462.89249  20896410.1714   20896412.5244   20896409.7044
       246.0004        199.0004
  -8896153.12049  -6918256.14649  23240705.0724   23240706.4714   23240705.8054
       220.0004        158.0004
   -442109.35349   -339078.79649  24902117.4014   24902118.9504   24902117.2434
       212.0004        140.0004
 11 10  9  2  5  0.0000000  0  8G26G05G10G07G28G08G15G21
 -20973090.44549 -16323074.35449  20292740.8994   20292744.1794   20292741.6904
       242.0004        198.0004
 -19255485.65549 -14988607.91049  20925029.9404   20925031.9474   20925029.5684
       242.0004        200.0004
  -1568692.16649   -950900.71249  24148748.4124   24148750.5614   24148747.1674
       213.0004        144.0004
 -11400518.08849  -8586443.67549  22754272.4704   22754275.1254   22754272.0524
       228.0004        170.0004
 -10925979.57249  -8477229.12049  22202994.1594   22202996.5054   22202993.8114
       234.0004        176.0004
 -20383954.67649 -15863859.54849  20904860.3124   20904863.0034   20904859.8804
       245.0004        198.0004
  -8987553.01949  -6989476.84049  23223311.7694   23223314.3304   23223312.7044
       219.0004        158.0004
   -476322.80949   -365738.63649  24895605.2394   24895606.8504   24895606.6314
       208.0004        139.0004
 11 10  9  2  5 30.0000000  0  8G26G05G10G07G28G08G15G21
 -21020127.88549 -16359726.90749  20283790.1014   20283793.4114   20283790.7214
       242.0004        198.0004
 -19214056.23849 -14956325.26449  20932913.0314   20932915.6714   20932913.3414
       241.0004        199.0004
  -1454710.79049   -862084.08549  24170438.0774   24170440.8244   24170436.2394
       212.0004        143.0004
 -11310561.61249  -8516347.73349  22771390.7154   22771392.1414   22771391.2154
       228.0004        169.0004
 -10989994.10649  -8527110.56549  22190811.9894   22190814.8864   22190812.0664
       232.0004        176.0004
 -20339140.29349 -15828939.25549  20913388.5234   20913390.5174   20913388.1934
       246.0004        199.0004
  -9078818.55249  -7060592.80949  23205945.1724   23205947.5314   23205945.0344
       220.0004        161.0004
   -510049.05649   -392018.81749  24889188.0504   24889190.0084   24889187.4604
       211.0004        139.0004
 11 10  9  2  6  0.0000000  0  8G26G05G10G07G28G08G15G21
 -21066736.90349 -16396045.61349  20274921.0794   20274923.9224   20274921.1084
       242.0004        198.0004
 -19172078.16549 -14923615.09349  20940900.7364   20940903.8814   20940901.3774
       242.0004        199.0004
  -1340633.72949   -773192.92449  24192147.8324   24192147.2084   24192146.0714
       213.0004        140.0004
 -11220409.33949  -8446099.21649  22788546.5854   22788548.4094   22788546.2584
       227.0004        170.0004
 -11053587.85849  -8576664.12449  22178710.6664   22178712.9084   22178710.9844
       233.0004        176.0004
 -20293920.69849 -15793703.20549  20921993.6024   20921996.1184   20921993.2084
       246.0004        199.0004
  -9169948.05149  -7131602.75849  23188602.6734   23188604.9514   23188602.8504
       217.0004        159.0004
   -543287.29549   -417918.77449  24882863.1304   24882865.8464   24882862.6424
       211.0004        137.0004
 11 10  9  2  6 30.0000000  0  8G26G05G10G07G28G08G15G21
 -21112916.37849 -16432029.61249  20266133.5044   20266136.4754   20266133.8874
       242.0004        199.0004
 -19129552.77149 -14890478.43549  20948993.9844   20948996.1374   20948994.0484
       242.0004        200.0004
  -1226463.13149   -684228.83449  24213873.7554   24213875.2674   24213871.8594
       214.0004        140.0004
 -11130063.18449  -8375699.64549  22805738.0824   22805741.5584   22805738.9344
       226.0004        171.0004
 -11116759.07449  -8625888.42449  22166690.5564   22166693.0084   22166689.3924
       234.0004        176.0004
 -20248297.53049 -15758152.69049  20930674.8904   20930677.6934   20930674.8234
       246.0004        198.0004
  -9260940.68649  -7202506.10149  23171287.9704   23171288.5104   23171287.8054
       219.0004        158.0004
   -576037.20149   -443438.17049  24876631.3754   24876631.5804   24876631.0514
       213.0004        139.0004
 11 10  9  2  7  0.0000000  0  8G26G05G10G07G28G08G15G21
 -21158665.37149 -16467678.17749  20257427.7054   20257430.5504   20257427.7054
       242.0004        198.0004
 -19086481.41649 -14856916.35349  20957190.2484   20957192.4334   20957190.4244
       244.0004        200.0004
  -1112201.80149   -595194.06449  24235618.0034   24235617.3524   24235613.9624
       212.0004        138.0004
 -11039525.16249  -8305150.55549  22822966.7084   22822969.8394   22822967.5864
       226.0004        169.0004
 -11179506.12349  -8674782.21249  22154749.0454   22154751.2614   22154749.2204
       232.0004        176.0004
 -20202272.52349 -15722289.05249  20939433.8454   20939435.9804   20939433.2244
       246.0004        198.0004
  -9351795.47749  -7273302.03949  23153997.3834   23154001.7154   23153998.3284
       218.0004        161.0004
   -608297.75249   -468576.25149  24870492.6934   24870493.4584   24870493.1434
       211.0004        137.0004
 11 10  9  2  7 30.0000000  0  8G26G05G10G07G28G08G15G21
 -21203982.06449 -16502989.88049  20248803.9824   20248807.0774   20248804.3044
       242.0004        199.0004
 -19042864.91449 -14822929.48349  20965489.7014   20965492.0484   20965490.1664
       241.0004        199.0004
   -997851.60549   -506090.02849  24257374.2374   24257378.4964   24257371.8334
       207.0004        138.0004
 -10948797.08549  -8234453.36849  22840232.8304   22840234.7384   22840232.4294
       225.0004        166.0004
 -11241826.32449  -8723343.39149  22142889.1164   22142892.2794   22142889.9054
       232.0004        176.0004
 -20155847.09649 -15686113.39249  20948268.6254   20948270.8684   20948268.1554
       247.0004        200.0004
  -9442510.62649  -7343989.11849  23136735.0084   23136740.1024   23136736.8794
       219.0004        161.0004
   -640067.47749   -493331.82149  24864443.5744   24864448.1924   24864445.6894
       205.0004        137.0004
 11 10  9  2  8  0.0000000  0  8G26G05G10G07G28G08G15G21
 -21248865.10549 -16537963.67749  20240263.2214   20240266.1994   20240263.2724
       243.0004        199.0004
 -18998704.02249 -14788518.41149  20973892.7204   20973895.8924   20973893.7464
       242.0004        199.0004
   -883414.10749   -416918.01249  24279150.8254   24279153.1904   24279149.3254
       209.0004        137.0004
 -10857879.88649  -8163608.81449  22857533.1534   22857534.8804   22857533.1044
       223.0004        165.0004
 -11303717.28249  -8771570.09049  22131113.4694   22131115.3054   22131112.6324
       232.0004        175.0004
 -20109022.15949 -15649626.43749  20957178.1864   20957180.9024   20957178.3154
       246.0004        199.0004
  -9533084.51449  -7414566.13549  23119501.4984   23119502.8514   23119500.5134
       220.0004        161.0004
   -671345.38749   -517704.17049  24858491.8394   24858497.1194   24858492.2924
       203.0004        135.0004
 11 10  9  2  8 30.0000000  0  8G26G05G10G07G28G08G15G21
 -21293314.39249 -16572599.47949  20231805.4674   20231807.9034   20231805.1784
       243.0004        199.0004
 -18954000.66749 -14753684.63749  20982399.8894   20982402.9684   20982400.3354
       242.0004        199.0004
   -768892.54049   -327680.44249  24300943.4254   24300947.3174   24300938.8894
       208.0004        135.0004
 -10766776.95449  -8092619.52749  22874869.2734   22874871.6404   22874870.4114
       224.0004        169.0004
 -11365178.46549  -8819461.88549  22119417.0444   22119418.4314   22119416.8734
       232.0004        174.0004
 -20061800.46149 -15612830.30149  20966164.3924   20966167.0654   20966164.1404
       246.0004        199.0004
  -9623516.94949  -7485032.96249  23102292.1844   23102294.1464   23102291.8104
       219.0004        161.0004
   -702131.37949   -541693.27649  24852635.3284   24852638.3364   24852635.3084
       206.0004        134.0004
 11 10  9  2  9  0.0000000  0  8G26G05G10G07G28G08G15G21
 -21337328.37049 -16606896.08549  20223429.5624   20223432.3864   20223429.4564
       243.0004        199.0004
 -18908756.13049 -14718429.17149  20991009.5044   20991012.3874   20991010.3134
       239.0004        198.0004
   -654288.65749   -238378.72749  24322750.6294   24322757.5744   24322751.1164
       207.0004        137.0004
 -10675489.55849  -8021486.52049  22892241.5604   22892244.2324   22892241.4184
       226.0004        170.0004
 -11426207.07949  -8867016.64449  22107803.2344   22107805.5994   22107804.4394
       232.0004        175.0004
 -20014183.20349 -15575725.95249  20975225.8254   20975228.4794   20975225.4284
       246.0004        199.0004
  -9713806.30149  -7555388.27049  23085108.0014   23085112.0994   23085110.1424
       216.0004        159.0004
   -732424.20149   -565297.96849  24846870.8884   24846871.3844   24846871.3064
       208.0004        136.0004
 11 10  9  2  9 30.0000000  0  8G26G05G10G07G28G08G15G21
 -21380905.33749 -16640852.16849  20215136.6304   20215139.4194   20215137.2474
       242.0004        200.0004
 -18862970.91349 -14682752.39249  20999722.4554   20999725.1034   20999722.8844
       239.0004        198.0004
   -539604.13749   -149014.20349  24344575.0224   24344581.1864   24344576.0084
       210.0004        137.0004
 -10584019.01649  -7950210.80649  22909647.9854   22909650.0984   22909648.1834
       227.0004        171.0004
 -11486801.23749  -8914232.84649  22096272.8934   22096275.1434   22096272.4404
       233.0004        175.0004
 -19966171.72549 -15538314.41249  20984362.0424   20984364.6014   20984362.1144
       246.0004        198.0004
  -9803950.80949  -7625630.71549  23067954.9584   23067960.0364   23067957.6624
       220.0004        163.0004
   -762223.10649   -588517.83749  24841198.7524   24841203.7834   24841200.3024
       203.0004        136.0004
 11 10  9  2 10  0.0000000  0  8G26G05G10G07G28G08G15G21
 -21424044.44949 -16674467.05849  20206928.2574   20206930.7304   20206928.2644
       244.0004        200.0004
 -18816646.22649 -14646655.25649  21008537.5754   21008540.2494   21008538.0234
       239.0004        197.0004
   -424841.29849    -59588.61749  24366415.0424   24366416.9584   24366414.2934
       209.0004        133.0004
 -10492367.37549  -7878793.97449  22927088.4054   22927090.7984   22927089.7174
       227.0004        169.0004
 -11546959.07049  -8961109.06049  22084825.5104   22084827.9864   22084825.3854
       234.0004        175.0004
 -19917767.55449 -15500596.87349  20993573.3734   20993575.5204   20993572.6984
       244.0004        198.0004
  -9893949.52749  -7695759.55949  23050831.9234   23050832.9514   23050830.8524
       219.0004        162.0004
   -791527.17049   -611352.16349  24835623.4884   24835625.9664   24835624.2134
       205.0004        134.0004
 11 10  9  2 10 30.0000000  0  8G26G05G10G07G28G08G15G21
 -21466744.61449 -16707739.91249  20198802.9634   20198804.6544   20198802.6184
       244.0004        200.0004
 -18769783.67949 -14610139.00549  21017454.3994   21017458.0164   21017455.6814
       238.0004        197.0004
   -310002.58449     29896.10349  24388266.1594   24388273.6174   24388265.5094
       205.0004        138.0004
 -10400536.79949  -7807237.69549  22944563.2604   22944565.3514   22944562.9774
       227.0004        168.0004
 -11606678.97349  -9007644.04049  22073460.9364   22073462.5374   22073460.5354
       233.0004        176.0004
 -19868972.65449 -15462574.87949  21002857.5634   21002860.7624   21002857.4834
       242.0004        197.0004
  -9983801.04849  -7765773.70549  23033731.1284   23033733.0054   23033732.9364
       222.0004        161.0004
   -820335.67649   -633800.33649  24830144.0894   24830141.9444   24830142.1364
       208.0004        134.0004
 11 10  9  2 11  0.0000000  0  8G26G05G10G07G28G08G15G21
 -21509004.00749 -16740669.30949  20190760.1814   20190763.2684   20190760.8444
       242.0004        200.0004
 -18722384.11349 -14573204.28749  21026474.9614   21026477.6624   21026475.6784
       239.0004        197.0004
   -195089.55849    119438.68049  24410136.1324   24410136.6464   24410133.5414
       213.0004        139.0004
 -10308528.23449  -7735542.71649  22962072.1474   22962073.4974   22962073.1944
       228.0004        169.0004
 -11665958.45449  -9053835.82649  22062178.8954   22062182.3704   22062179.9824
       232.0004        175.0004
 -19819787.76649 -15424248.99849  21012218.4204   21012221.2994   21012218.0814
       243.0004        198.0004
 -10073503.73149  -7835671.88749  23016662.0004   23016664.9164   23016662.6654
       223.0004        163.0004
   -848647.28449   -655861.32349  24824755.6234   24824757.2844   24824755.0834
       206.0004        132.0004
 11 10  9  2 11 30.0000000  0  8G26G05G10G07G28G08G15G21
 -21550822.00749 -16773254.75849  20182803.0054   20182805.5994   20182802.7044
       243.0004        200.0004
 -18674449.41449 -14535852.59249  21035597.2164   21035599.2974   21035597.2904
       239.0004        197.0004
    -80105.05149    209036.99249  24432016.5224   24432022.2454   24432013.9914
       209.0004        138.0004
 -10216344.54249  -7663711.28649  22979613.7814   22979615.9434   22979612.9484
       227.0004        169.0004
 -11724796.06849  -9099683.30649  22050984.1764   22050985.8174   22050983.5634
       233.0004        176.0004
 -19770215.23949 -15385621.06949  21021650.9214   21021653.5434   21021651.0194
       243.0004        197.0004
 -10163056.83349  -7905453.48849  22999620.5414   22999624.1174   22999621.8424
       221.0004        165.0004
   -876462.26949   -677535.31149  24819461.0744   24819464.4184   24819462.0264
       205.0004        130.0004
 11 10  9  2 12  0.0000000  0  8G26G05G10G07G28G08G15G21
 -21592198.23049 -16805495.96749  20174928.8114   20174932.0554   20174929.4014
       243.0004        200.0004
 -18625981.27249 -14498085.23149  21044819.8894   21044822.8884   21044820.4984
       238.0004        197.0004
     34948.59549    298689.15249  24453911.4044   24453912.5964   24453909.3344
       212.0004        139.0004
 -10123987.34949  -7591744.66449  22997188.5634   22997191.1404   22997189.4234
       228.0004        169.0004
 -11783190.38849  -9145185.35449  22039871.6784   22039874.0824   22039871.5274
       234.0004        177.0004
 -19720256.86049 -15346692.45949  21031158.3014   21031160.4934   21031158.0784
       243.0004        197.0004
 -10252459.45649  -7975117.84449  22982608.6734   22982610.9224   22982607.6824
       222.0004        163.0004
   -903779.94649   -698821.86549  24814262.9964   24814264.2294   24814263.8994
       205.0004        130.0004
 11 10  9  2 12 30.0000000  0  8G26G05G10G07G28G08G15G21
 -21633130.28149 -16837391.06749  20167140.0604   20167142.7714   20167140.0714
       243.0004        200.0004
 -18576979.52349 -14459902.06549  21054144.9154   21054147.3954   21054145.4834
       239.0004        197.0004
    150070.02849    388394.16049  24475816.7404   24475821.2134   24475815.3884
       209.0004        139.0004
 -10031457.80249  -7519643.73149  23014796.1374   23014798.2934   23014797.2484
       226.0004        167.0004
 -11841138.82749  -9190339.95949  22028844.9044   22028847.0314   22028844.8934
       235.0004        177.0004
 -19669913.84349 -15307464.14449  21040737.8164   21040741.1874   21040737.6244
       242.0004        197.0004
 -10341709.29449  -8044663.15449  22965625.1594   22965626.8094   22965624.7834
       223.0004        163.0004
   -930598.24749   -719719.26549  24809160.7884   24809160.4974   24809160.0664
       205.0004        131.0004
 11 10  9  2 13  0.0000000  0  8G26G05G10G07G28G08G15G21
 -21673617.95949 -16868939.90349  20159435.2574   20159438.6574   20159435.6484
       243.0004        201.0004
 -18527446.64449 -14421305.02649  21063569.1894   21063573.1454   21063570.5664
       237.0004        197.0004
    265256.39849    478149.74649  24497737.3544   24497740.2194   24497736.2464
       209.0004        139.0004
  -9938758.41249  -7447410.45749  23032436.6904   23032439.0344   23032436.8924
       225.0004        164.0004
 -11898640.33549  -9235146.30649  22017902.2094   22017904.9624   22017902.0754
       233.0004        177.0004
 -19619188.59749 -15267937.98449  21050390.4184   21050393.1624   21050390.4394
       242.0004        197.0004
 -10430805.73849  -8114088.96649  22948671.4884   22948673.1554   22948670.6114
       225.0004        167.0004
   -956917.91949   -740228.06249  24804148.7214   24804154.2794   24804152.6804
       204.0004        132.0004
 11 10  9  2 13 30.0000000  0  8G26G05G10G07G28G08G15G21
 -21713659.20849 -16900140.87549  20151816.3414   20151818.6414   20151816.3684
       243.0004        201.0004
 -18477382.89349 -14382294.33149  21073098.2174   21073100.2464   21073098.3954
       239.0004        197.0004
    380506.34449    567954.84949  24519669.3674   24519672.0434   24519667.6954
       210.0004        140.0004
  -9845890.01949  -7375045.48449  23050109.2804   23050112.3804   23050109.3864
       224.0004        163.0004
 -11955692.08649  -9279602.20449  22007046.2144   22007047.2784   22007045.9244
       235.0004        179.0004
 -19568081.07649 -15228113.94449  21060116.3384   21060118.2674   21060116.0954
       243.0004        196.0004
 -10519746.57449  -8183393.46649  22931744.7074   22931748.7564   22931744.9004
       221.0004        167.0004
   -982736.94549   -760346.80249  24799238.7324   24799238.1004   24799238.6964
       205.0004        132.0004
 11 10  9  2 14  0.0000000  0  8G26G05G10G07G28G08G15G21
 -21753254.03249 -16930993.98249  20144281.4234   20144284.1254   20144281.7744
       243.0004        201.0004
 -18426791.36449 -14342872.37749  21082724.5364   21082727.5834   21082725.2164
       238.0004        196.0004
    495816.57349    657806.94949  24541610.6124   24541614.4144   24541610.4664
       212.0004        137.0004
  -9752855.71149  -7302551.25749  23067812.8994   23067815.3064   23067813.0814
       224.0004        166.0004
 -12012293.65249  -9323707.31049  21996275.1064   21996277.0814   21996274.9774
       235.0004        179.0004
 -19516594.89649 -15187994.85049  21069913.8964   21069917.0544   21069913.3934
       242.0004        196.0004
 -10608531.89049  -8252576.78649  22914849.9504   22914851.1144   22914850.6904
       224.0004        166.0004
  -1008056.13249   -780075.96949  24794418.2024   24794421.5774   24794417.3814
       205.0004        132.0004
 11 10  9  2 14 30.0000000  0  8G26G05G10G07G28G08G15G21
 -21792400.37149 -16961497.61849  20136831.9934   20136835.2944   20136832.1924
       243.0004        201.0004
 -18375672.09749 -14303039.20049  21092451.7714   21092454.7894   21092452.2404
       238.0004        196.0004
    611186.18849    747705.37749  24563565.1914   24563567.7624   24563563.4824
       211.0004        137.0004
  -9659656.14549  -7229928.24449  23085547.4514   23085551.4704   23085548.2594
       222.0004        165.0004
 -12068442.16849  -9367459.38249  21985590.5014   21985592.5104   21985589.9674
       236.0004        179.0004
 -19464730.57849 -15147581.10149  21079783.1904   21079785.3964   21079782.3584
       241.0004        195.0004
 -10697159.20749  -8321637.03649  22897985.4084   22897986.7824   22897985.3864
       223.0004        165.0004
  -1032873.60549   -799414.21649  24789698.9494   24789701.3584   24789699.5634
       206.0004        134.0004
 11 10  9  2 15  0.0000000  0  8G26G05G10G07G28G08G15G21
 -21831097.34449 -16991651.09549  20129468.4834   20129471.1454   20129468.2494
       243.0004        201.0004
 -18324026.76149 -14262796.10149  21102279.7834   21102282.4834   21102280.4394
       238.0004        195.0004
    726612.36449    837647.82449  24585529.1314   24585533.9914   24585528.5774
       206.0004        138.0004
  -9566293.41249  -7157178.07549  23103313.6944   23103316.5224   23103314.3004
       222.0004        163.0004
 -12124135.95849  -9410857.12649  21974992.0004   21974994.1154   21974991.6204
       235.0004        179.0004
 -19412489.50949 -15106873.79049  21089723.9954   21089726.7074   21089723.3044
       241.0004        194.0004
 -10785627.60849  -8390573.41849  22881149.0634   22881153.2054   22881149.4804
       223.0004        167.0004
  -1057188.88749   -818361.17449  24785068.6454   24785073.7694   24785069.1984
       207.0004        135.0004
 11 10  9  2 15 30.0000000  0  8G26G05G10G07G28G08G15G21
 -21869343.63549 -17021453.39649  20122190.3494   20122193.0964   20122190.4834
       243.0004        201.0004
 -18271856.49549 -14222143.96149  21112207.4094   21112210.5764   21112208.0654
       237.0004        196.0004
    842093.51749    927633.10049  24607505.5634   24607508.5844   24607506.5094
       209.0004        139.0004
  -9472768.90449  -7084301.88349  23121111.2904   23121113.3424   23121110.1784
       221.0004        160.0004
 -12179373.21449  -9453899.13449  21964480.9024   21964482.3534   21964480.7294
       235.0004        180.0004
 -19359873.65349 -15065874.43349  21099736.2064   21099739.2894   21099735.6094
       240.0004        194.0004
 -10873935.04849  -8459384.37949  22864345.7754   22864348.3184   22864345.5584
       223.0004        168.0004
  -1081001.27049   -836916.25049  24780539.7874   24780540.2294   24780538.7814
       210.0004        139.0004
 11 10  9  2 16  0.0000000  0  8G26G05G10G07G28G08G15G21
 -21907138.69849 -17050904.08549  20114997.9764   20115000.5904   20114997.9424
       243.0004        200.0004
 -18219163.45549 -14181084.46749  21122235.8604   21122237.8674   21122235.4524
       239.0004        196.0004
    957626.98649   1017659.17049  24629489.5364   24629492.9564   24629487.7454
       208.0004        136.0004
  -9379085.15849  -7011301.57349  23138938.4624   23138940.7024   23138939.2554
       222.0004        163.0004
 -12234153.05149  -9496584.69949  21954057.5434   21954058.0664   21954056.7024
       235.0004        180.0004
 -19306885.12749 -15024584.68349  21109819.9464   21109822.7444   21109820.0324
       242.0004        195.0004
 -10962081.20949  -8528069.66849  22847572.4514   22847574.4094   22847572.4854
       225.0004        168.0004
  -1104311.04149   -855079.61849  24776103.2284   24776106.0234   24776103.7874
       208.0004        138.0004
 11 10  9  2 16 30.0000000  0  8G26G05G10G07G28G08G15G21
 -21944481.14949 -17080002.08849  20107891.7464   20107894.7644   20107891.8634
       244.0004        201.0004
 -18165948.80249 -14139618.52349  21132360.9574   21132364.2984   21132362.0074
       239.0004        196.0004
   1073210.63849   1107724.36649  24651485.1654   24651486.7744   24651484.8314
       209.0004        137.0004
  -9285243.62449  -6938178.30149  23156796.5084   23156798.5704   23156797.7454
       225.0004        164.0004
 -12288473.22449  -9538912.08849  21943719.2554   21943722.0494   21943719.8394
       235.0004        179.0004
 -19253525.02349 -14983005.38949  21119974.3064   21119976.6234   21119973.9334
       242.0004        194.0004
 -11050064.41749  -8596627.98449  22830828.1154   22830830.5824   22830829.0764
       224.0004        166.0004
  -1127117.61849   -872850.93249  24771762.8614   24771764.9914   24771760.7154
       209.0004        137.0004
 11 10  9  2 17  0.0000000  0  8G26G05G10G07G28G08G15G21
 -21981370.15649 -17108746.76349  20100872.9504   20100875.1894   20100872.6044
       243.0004        201.0004
 -18112214.31349 -14097747.50849  21142586.5394   21142589.3744   21142587.4394
       239.0004        196.0004
   1188842.21249   1197826.89149  24673489.8884   24673491.4494   24673489.1134
       208.0004        135.0004
  -9191246.14749  -6864933.51049  23174684.8334   23174685.6314   23174684.6754
       226.0004        163.0004
 -12342332.10949  -9580880.02349  21933470.6324   21933473.1414   21933470.4644
       235.0004        180.0004
 -19199795.07849 -14941137.90549  21130197.6754   21130201.0964   21130197.7824
       241.0004        193.0004
 -11137883.39749  -8665058.35149  22814117.4514   22814121.5664   22814117.7024
       223.0004        169.0004
  -1149419.79449   -890229.23649  24767519.7234   24767519.0624   24767518.9674
       205.0004        135.0004
 11 10  9  2 17 30.0000000  0  8G26G05G10G07G28G08G15G21
 -22017803.82849 -17137136.62549  20093938.9694   20093941.4654   20093939.5644
       243.0004        201.0004
 -18057960.56149 -14055471.86649  21152910.4034   21152913.7704   21152910.6114
       239.0004        197.0004
   1304520.44049   1287965.73849  24695499.3344   24695506.4684   24695499.6164
       203.0004        134.0004
  -9097093.67949  -6791567.96449  23192599.6394   23192601.7134   23192600.5664
       223.0004        162.0004
 -12395727.66749  -9622486.93949  21923309.8214   21923312.0554   21923309.5674
       235.0004        181.0004
 -19145696.33149 -14898983.03649  21140493.2294   21140496.0114   21140492.7324
       242.0004        194.0004
 -11225536.38649  -8733359.34049  22797437.2284   22797440.8274   22797438.0544
       222.0004        169.0004
  -1171216.69349   -907213.82049  24763372.6614   24763372.3714   24763372.1414
       205.0004        136.0004
 11 10  9  2 18  0.0000000  0  8G26G05G10G07G28G08G15G21
 -22053782.15149 -17165171.67649  20087092.4834   20087095.4944   20087092.6364
       243.0004        201.0004
 -18003190.51649 -14012793.94149  21163334.3464   21163336.1404   21163334.6304
       242.0004        197.0004
   1420242.08049   1378138.39549  24717523.5384   24717529.0884   24717523.7274
       203.0004        133.0004
  -9002789.14649  -6718083.93349  23210545.8194   23210547.9454   23210545.8384
       224.0004        162.0004
 -12448659.00649  -9663732.11949  21913236.7054   21913239.8144   21913236.8644
       235.0004        182.0004
 -19091231.52049 -14856542.93549  21150857.2324   21150859.7304   21150856.9994
       241.0004        193.0004
 -11313022.65049  -8801530.40949  22780789.1874   22780791.1394   22780788.9134
       224.0004        167.0004
  -1192509.29649   -923805.37249  24759317.7174   24759319.6824   24759316.9224
       205.0004        134.0004
 11 10  9  2 18 30.0000000  0  8G26G05G10G07G28G08G15G21
 -22089303.24049 -17192850.43749  20080333.0594   20080335.9544   20080333.4664
       244.0004        202.0004
 -17947903.93349 -13969713.49249  21173854.5944   21173856.9504   21173855.1694
       240.0004        197.0004
   1536005.97549   1468344.01549  24739547.7254   24739554.1634   24739548.5964
       199.0004        130.0004
  -8908333.13549  -6644481.87349  23228519.5874   23228523.0244   23228519.8064
       220.0004        162.0004
 -12501123.63049  -9704613.62249  21903253.5704   21903256.0564   21903253.0334
       236.0004        182.0004
 -19036401.46649 -14813818.21749  21161291.5044   21161294.0394   21161291.0864
       243.0004        194.0004
 -11400340.08449  -8869569.95749  22764172.5394   22764176.0814   22764173.2914
       224.0004        169.0004
  -1213295.75049   -940002.57649  24755365.8634   24755365.7224   24755364.7994
       206.0004        135.0004
 11 10  9  2 19  0.0000000  0  8G26G05G10G07G28G08G15G21
 -22124366.45749 -17220172.41549  20073660.7464   20073663.5614   20073660.8824
       244.0004        201.0004
 -17892103.61349 -13926232.73149  21184472.0464   21184475.1864   21184472.9734
       239.0004        197.0004
   1651809.27349   1558580.37849  24761588.6594   24761593.9344   24761587.5294
       204.0004        134.0004
  -8813727.88049  -6570763.52449  23246522.2684   23246524.6604   23246523.2264
       221.0004        161.0004
 -12553120.32649  -9745130.51749  21893359.5184   21893361.0864   21893358.8854
       236.0004        182.0004
 -18981208.13449 -14770810.43449  21171794.0104   21171797.2184   21171793.9274
       242.0004        195.0004
 -11487487.66349  -8937477.13349  22747590.1034   22747591.6864   22747590.1124
       224.0004        169.0004
  -1233576.16849   -955805.49749  24751503.2844   24751506.3244   24751504.0734
       205.0004        136.0004
 11 10  9  2 19 30.0000000  0  8G26G05G10G07G28G08G15G21
 -22158970.81249 -17247136.84149  20067075.3254   20067078.7554   20067075.6714
       243.0004        202.0004
 -17835791.16749 -13882352.92649  21195188.9374   21195191.2174   21195189.0054
       240.0004        196.0004
   1767649.98849   1648845.79449  24783631.7764   24783639.7014   24783630.5014
       201.0004        132.0004
  -8718975.64749  -6496930.61349  23264551.9974   23264555.1884   23264553.1574
       220.0004        161.0004
 -12604647.91349  -9785281.87049  21883553.1674   21883556.4374   21883553.6964
       236.0004        183.0004
 -18925653.66849 -14727521.24149  21182365.9854   21182368.7254   21182365.5894
       242.0004        195.0004
 -11574464.22749  -9005251.05349  22731040.2374   22731041.5514   22731039.3074
       227.0004        171.0004
  -1253350.11849   -971213.73749  24747742.5824   24747743.7424   24747740.9544
       208.0004        137.0004
 11 10  9  2 20  0.0000000  0  8G26G05G10G07G28G08G15G21
 -22193114.92249 -17273742.63449  20060578.7644   20060581.4144   20060578.7044
       243.0004        202.0004
 -17778967.64149 -13838074.87549  21206001.5194   21206004.3694   21206002.5404
       240.0004        197.0004
   1883526.34849   1739138.99249  24805684.6364   24805683.5904   24805687.1424
       205.0004        131.0004
  -8624077.44549  -6422983.97749  23282610.7794   23282614.1374   23282612.0974
       221.0004        162.0004
 -12655704.17649  -9825065.93849  21873837.0734   21873839.7174   21873836.9854
       235.0004        182.0004
 -18869738.90349 -14683951.30349  21193005.7274   21193008.8474   21193005.9804
       242.0004        194.0004
 -11661268.15849  -9072890.45749  22714519.2434   22714523.8424   22714520.6054
       222.0004        169.0004
  -1272616.85349   -986226.74649  24744075.6194   24744077.1614   24744075.0374
       207.0004        137.0004
 11 10  9  2 20 30.0000000  0  8G26G05G10G07G28G08G15G21
 -22226798.26649 -17299989.39049  20054168.9714   20054171.4774   20054168.9714
       244.0004        202.0004
 -17721634.68749 -13793399.86349  21216912.1834   21216914.3954   21216912.6954
       240.0004        196.0004
   1999435.64849   1829457.95249  24827738.4224   24827741.3764   24827738.6514
       206.0004        133.0004
  -8529035.12449  -6348925.05449  23300699.1184   23300700.8484   23300698.6174
       221.0004        164.0004
 -12706287.94349  -9864481.84449  21864211.9504   21864214.2384   21864210.9774
       235.0004        182.0004
 -18813465.80849 -14640102.13649  21203714.8954   21203716.8774   21203714.4544
       244.0004        194.0004
 -11747898.40749  -9140394.53349  22698035.4194   22698037.0894   22698036.2414
       225.0004        169.0004
  -1291376.38349  -1000844.50949  24740505.1944   24740509.3464   24740504.6204
       206.0004        137.0004
 11 10  9  2 21  0.0000000  0  8G26G05G10G07G28G08G15G21
 -22260018.99749 -17325875.66549  20047847.7364   20047849.9604   20047847.7094
       244.0004        203.0004
 -17663793.56949 -13748328.87549  21227919.0374   21227921.3114   21227919.1754
       239.0004        196.0004
   2115376.42149   1919801.39049  24849802.6094   24849806.6614   24849802.9324
       205.0004        135.0004
  -8433849.90749  -6274754.78549  23318812.3514   23318813.9744   23318811.6324
       221.0004        163.0004
 -12756396.88849  -9903527.74549  21854677.2804   21854678.4214   21854676.3614
       237.0004        182.0004
 -18756835.94949 -14595974.96849  21214490.8624   21214494.2224   21214490.4454
       242.0004        194.0004
 -11834352.69149  -9207761.48449  22681584.5344   22681585.6734   22681583.6134
       226.0004        169.0004
  -1309627.44449  -1015066.08149  24737032.7074   24737035.0484   24737032.5884
       206.0004        136.0004
 11 10  9  2 21 30.0000000  0  8G26G05G10G07G28G08G15G21
 -22292776.52849 -17351401.00749  20041613.2074   20041616.1074   20041613.5104
       244.0004        202.0004
 -17605446.61549 -13702863.73449  21239020.5174   21239024.3034   21239021.7594
       238.0004        195.0004
   2231346.06349   2010167.30649  24871870.1314   24871873.8244   24871866.8774
       204.0004        133.0004
  -8338524.14849  -6200475.03549  23336950.8314   23336953.8154   23336952.0724
       222.0004        162.0004
 -12806030.21049  -9942203.04349  21845231.3064   21845233.1574   21845231.5784
       237.0004        183.0004
 -18699851.15049 -14551571.24049  21225334.8244   21225337.4024   21225334.5844
       242.0004        194.0004
 -11920630.24249  -9274990.72849  22665164.7164   22665167.4344   22665165.3064
       224.0004        169.0004
  -1327370.26249  -1028891.63349  24733656.8234   24733657.3424   24733656.3654
       206.0004        137.0004
 11 10  9  2 22  0.0000000  0  8G26G05G10G07G28G08G15G21
 -22325069.46449 -17376564.32349  20035468.0794   20035471.0504   20035468.3154
       244.0004        202.0004
 -17546594.64049 -13657005.07149  21250221.2344   21250223.8294   21250221.2114
       239.0004        196.0004
   2347343.07249   2100554.53949  24893944.3344   24893946.8984   24893943.3164
       209.0004        133.0004
  -8243058.79949  -6126086.45549  23355117.8114   23355120.3614   23355117.9104
       220.0004        160.0004
 -12855185.49649  -9980505.82949  21835878.2754   21835879.8424   21835878.3134
       237.0004        183.0004
 -18642512.27149 -14506891.59649  21236246.3464   21236248.8324   21236245.6654
       243.0004        193.0004
 -12006729.28949  -9342080.87149  22648781.5054   22648784.4134   22648782.3824
       226.0004        170.0004
  -1344604.19549  -1042320.68249  24730375.6224   24730378.9514   24730375.1874
       206.0004        137.0004
 11 10  9  2 22 30.0000000  0  8G26G05G10G07G28G08G15G21
 -22356897.77749 -17401365.59849  20029411.7094   20029414.2964   20029411.6674
       244.0004        202.0004
 -17487240.43649 -13610755.04949  21261515.5394   21261518.2394   21261515.9914
       240.0004        196.0004
   2463364.25949   2190960.66849  24916023.5524   24916027.9064   24916021.3984
       206.0004        135.0004
  -8147456.40849  -6051591.11349  23373310.2124   23373312.9804   23373311.0434
       219.0004        159.0004
 -12903862.47449 -10018435.93549  21826614.9224   21826616.4654   21826614.8304
       236.0004        183.0004
 -18584822.48249 -14461938.51749  21247223.9494   21247226.5294   21247223.7634
       242.0004        193.0004
 -12092649.13749  -9409031.40349  22632432.3654   22632433.6624   22632432.0294
       226.0004        169.0004
  -1361329.99649  -1055353.75749  24727193.6934   24727195.4414   24727192.8224
       210.0004        139.0004
 11 10  9  2 23  0.0000000  0  8G26G05G10G07G28G08G15G21
 -22388259.93349 -17425803.63149  20023442.9434   20023445.9874   20023443.4534
       244.0004        203.0004
 -17427385.24549 -13564114.66449  21272905.7724   21272908.1554   21272906.3734
       240.0004        196.0004
   2579408.14249   2281384.44649  24938102.6664   24938108.7194   24938102.2374
       203.0004        134.0004
  -8051718.33249  -5976990.03549  23391529.9214   23391531.4824   23391530.3314
       219.0004        158.0004
 -12952059.08449 -10055991.71549  21817443.0414   21817445.0344   21817443.3794
       236.0004        183.0004
 -18526782.93849 -14416712.90449  21258268.8614   21258270.9314   21258268.1774
       243.0004        193.0004
 -12178388.15549  -9475840.99449  22616114.6854   22616118.0744   22616116.1184
       225.0004        171.0004
  -1377546.81249  -1067990.26849  24724108.8534   24724110.1164   24724108.0724
       212.0004        139.0004
 11 10  9  2 23 30.0000000  0  8G26G05G10G07G28G08G15G21
 -22419154.68049 -17449877.46049  20017565.1034   20017567.0294   20017564.9434
       246.0004        203.0004
 -17367030.43049 -13517084.95449  21284391.4964   21284393.0544   21284391.4984
       240.0004        196.0004
   2695472.59049   2371824.24949  24960191.1514   24960193.2324   24960190.9394
       205.0004        135.0004
  -7955845.79949  -5902284.20249  23409773.0634   23409776.0044   23409773.6304
       220.0004        159.0004
 -12999773.82849 -10093172.00849  21808363.4774   21808365.3974   21808363.1664
       236.0004        183.0004
 -18468394.87349 -14371215.71349  21269379.9004   21269381.8354   21269379.0814
       242.0004        192.0004
 -12263944.30349  -9542508.10849  22599835.2424   22599837.5554   22599834.9704
       226.0004        171.0004
  -1393253.99549  -1080229.66749  24721118.5164   24721121.8994   24721119.0044
       211.0004        139.0004
 11 10  9  2 24  0.0000000  0  8G26G05G10G07G28G08G15G21
 -22449581.16349 -17473586.40249  20011774.5564   20011777.2844   20011774.5794
       244.0004        203.0004
 -17306177.96249 -13469667.45849  21295970.3274   21295973.1574   21295970.9784
       238.0004        196.0004
   2811555.80449   2462278.66449  24982278.6014   24982286.6024   24982280.0004
       203.0004        135.0004
  -7859840.97549  -5827475.24549  23428041.3134   23428044.3204   23428042.7964
       220.0004        158.0004
 -13047004.98349 -10129975.49149  21799375.3214   21799377.5564   21799375.6814
       235.0004        183.0004
 -18409660.09949 -14325448.35549  21280556.7244   21280558.8614   21280556.3904
       243.0004        192.0004
 -12349316.76549  -9609032.08249  22583589.8844   22583590.9424   22583589.1114
       227.0004        171.0004
  -1408451.58749  -1092072.00449  24718227.3914   24718227.1434   24718227.0364
       213.0004        138.0004
 11 10  9  2 24 30.0000000  0  8G26G05G10G07G28G08G15G21
 -22479538.67349 -17496929.90949  20006073.9984   20006076.3504   20006073.9854
       245.0004        204.0004
 -17244829.86449 -13421863.77049  21307644.8444   21307647.4504   21307645.2384
       238.0004        195.0004
   2927655.28049   2552745.81249  25004375.9744   25004376.9214   25004374.7014
       209.0004        134.0004
  -7763705.50349  -5752564.50049  23446335.7874   23446338.8354   23446336.4074
       219.0004        157.0004
 -13093751.57949 -10166401.38649  21790479.7594   21790481.9084   21790479.8104
       236.0004        184.0004
 -18350580.39849 -14279412.23249  21291798.9234   21291801.5894   21291798.8804
       242.0004        192.0004
 -12434504.02349  -9675411.76549  22567379.1304   22567380.1614   22567378.7534
       226.0004        173.0004
  -1423139.28249  -1103516.99249  24715433.2774   24715432.8554   24715432.7474
       209.0004        139.0004
 11 10  9  2 25  0.0000000  0  8G26G05G10G07G28G08G15G21
 -22509025.38149 -17519906.56049  20000462.5464   20000465.0154   20000462.8874
       245.0004        203.0004
 -17182986.89549 -13373674.45749  21319413.0264   21319415.9104   21319413.2794
       237.0004        195.0004
   3043769.59649   2643224.51749  25026470.5314   25026475.2414   25026469.7834
       207.0004        136.0004
  -7667440.31049  -5677552.66849  23464655.0854   23464656.1554   23464654.6334
       219.0004        157.0004
 -13140011.45649 -10202448.02649  21781677.3684   21781679.6774   21781676.9584
       236.0004        183.0004
 -18291156.38249 -14233107.80949  21303107.3474   21303109.4604   21303106.9944
       241.0004        192.0004
 -12519503.99649  -9741645.48749  22551203.0034   22551205.8424   22551204.1594
       227.0004        172.0004
  -1437316.02349  -1114563.81349  24712734.6394   24712736.0484   24712734.2334
       209.0004        137.0004
 11 10  9  2 25 30.0000000  0  8G26G05G10G07G28G08G15G21
 -22538041.76249 -17542516.72449  19994941.0044   19994943.6884   19994941.2934
       245.0004        204.0004
 -17120652.19149 -13325101.97749  21331274.1634   21331278.0404   21331274.7364
       237.0004        194.0004
   3159895.47849   2733712.17649  25048568.6904   25048573.5074   25048569.2914
       209.0004        136.0004
  -7571048.21449  -5602441.96149  23482997.8034   23483000.5374   23482996.9594
       219.0004        156.0004
 -13185784.43649 -10238115.25949  21772966.4364   21772968.7944   21772966.5744
       236.0004        183.0004
 -18231391.32049 -14186537.63249  21314479.5794   21314482.1654   21314479.9474
       241.0004        192.0004
 -12604316.64949  -9807733.25849  22535063.9434   22535066.0174   22535064.4884
       227.0004        172.0004
  -1450982.91749  -1125213.35649  24710133.7844   24710135.8764   24710133.5934
       208.0004        136.0004
 11 10  9  2 26  0.0000000  0  8G26G05G10G07G28G08G15G21
 -22566585.62449 -17564758.69649  19989509.9284   19989511.9844   19989510.0444
       246.0004        204.0004
 -17057826.55549 -13276146.96349  21343230.2254   21343233.6314   21343230.6364
       238.0004        194.0004
   3276031.54049   2824207.82149  25070668.7374   25070670.8944   25070667.7874
       207.0004        134.0004
  -7474529.62049  -5527232.70149  23501362.4404   23501367.0924   23501362.9434
       215.0004        155.0004
 -13231068.20849 -10273401.30749  21764350.0934   21764352.1204   21764349.4674
       236.0004        184.0004
 -18171286.29649 -14139702.55849  21325917.2804   21325919.8274   21325917.0554
       239.0004        191.0004
 -12688939.45649  -9873673.09449  22518958.9374   22518963.5204   22518962.2454
       226.0004        174.0004
  -1464139.23949  -1135465.04349  24707630.8774   24707630.4484   24707630.0684
       206.0004        137.0004
 11 10  9  2 26 30.0000000  0  8G26G05G10G07G28G08G15G21
 -22594656.56449 -17586632.14449  19984167.4284   19984170.1974   19984167.7524
       245.0004        204.0004
 -16994512.25649 -13226811.15849  21355278.2544   21355281.7294   21355278.7044
       237.0004        194.0004
   3392175.22149   2914709.39749  25092769.1014   25092771.4144   25092766.0534
       204.0004        133.0004
  -7377886.98649  -5451926.75549  23519752.9394   23519757.5774   23519754.0414
       218.0004        156.0004
 -13275861.88149 -10308305.43049  21755824.7164   21755827.8164   21755824.8974
       235.0004        182.0004
 -18110843.01049 -14092603.90049  21337419.1574   21337421.9104   21337418.9544
       239.0004        191.0004
 -12773371.34649  -9939464.16949  22502892.9124   22502895.7374   22502894.6034
       224.0004        173.0004
  -1476785.02849  -1145318.93749  24705222.2164   24705226.7344   24705222.0044
       202.0004        137.0004
 11 10  9  2 27  0.0000000  0  8G26G05G10G07G28G08G15G21
 -22622253.77249 -17608136.46849  19978915.6884   19978918.8664   19978915.9664
       245.0004        204.0004
 -16930710.74249 -13177095.72849  21367420.0494   21367422.3434   21367420.4944
       237.0004        194.0004
   3508324.81749   3005215.54149  25114874.4194   25114876.4934   25114874.9944
       204.0004        131.0004
  -7281121.85349  -5376525.37449  23538168.2854   23538170.6054   23538168.7724
       220.0004        157.0004
 -13320163.71449 -10342826.34349  21747395.3574   21747396.9864   21747394.9694
       236.0004        183.0004
 -18050062.89549 -14045242.79549  21348985.3284   21348988.4174   21348985.3774
       239.0004        191.0004
 -12857611.00149 -10005105.45549  22486864.6434   22486866.4844   22486864.7974
       228.0004        174.0004
  -1488919.73149  -1154774.54149  24702914.3104   24702919.1704   24702913.4384
       202.0004        136.0004
 11 10  9  2 27 30.0000000  0  8G26G05G10G07G28G08G15G21
 -22649375.45449 -17629270.23549  19973755.0714   19973757.7244   19973755.2894
       246.0004        204.0004
 -16866423.60649 -13127001.87049  21379653.3144   21379655.6184   21379653.8094
       237.0004        193.0004
   3624478.74849   3095725.07649  25136974.5744   25136978.3064   25136970.1304
       194.0004        121.0004
  -7184235.23249  -5301029.32549  23556604.9334   23556607.0094   23556605.1014
       218.0004        156.0004
 -13363971.92249 -10376962.58149  21739058.5854   21739060.3754   21739058.0264
       236.0004        182.0004
 -17988947.50849 -13997620.42049  21360615.8634   21360617.8884   21360615.4524
       240.0004        191.0004
 -12941656.27649 -10070595.26349  22470870.1144   22470873.2524   22470870.7244
       228.0004        174.0004
  -1500542.99949  -1163831.69649  24700702.6884   24700703.1744   24700699.7794
       206.0004        135.0004
 11 10  9  2 28  0.0000000  0  8G26G05G10G07G28G08G15G21
 -22676021.68149 -17650033.53249  19968684.8244   19968686.8414   19968684.8364
       246.0004        204.0004
 -16801653.51949 -13076531.68849  21391978.3904   21391980.8944   21391978.7524
       237.0004        193.0004
   3740633.95049   3186235.57849  25159081.5794   25159083.3324   25159079.7074
       203.0004        127.0004
  -7087229.28649  -5225440.29549  23575066.3024   23575066.8374   23575066.4244
       219.0004        154.0004
 -13407286.08049 -10410713.84449  21730816.7714   21730819.1534   21730815.9864
       237.0004        183.0004
 -17927499.24149 -13949738.66049  21372308.6834   21372311.4104   21372308.5584
       239.0004        191.0004
 -13025506.09049 -10135932.76949  22454915.2664   22454918.2794   22454915.7054
       229.0004        175.0004
  -1511655.87549  -1172491.19449  24698587.8794   24698589.2454   24698586.7944
       206.0004        138.0004
