     2.11           OBSERVATION DATA    G (GPS)             RINEX VERSION / TYPE
teqc  2013Mar15                         20160913 13:06:34UTCPGM / RUN BY / DATE
OSX ker:10.8.0|Core 2 Duo|gcc 4.2 -m64|OSX ker:10.8.0+|=+   COMMENT
Linux 2.4.21-27.ELsmp|Opteron|gcc -static|Linux x86_64|=+   COMMENT
HEADER CHANGED BY EPN CB ON 2011-10-10                      COMMENT
TO BE CONFORM WITH THE INFORMATION IN                       COMMENT
ftp://epncb.oma.be/pub/station/log/brus.log                 COMMENT
                                                            COMMENT
teqc  2010Oct21                         20111010 00:01:17UTCCOMMENT
teqc  2010Oct21                         20111010 00:01:02UTCCOMMENT
teqc  2010Oct21                         20111009 01:01:01UTCCOMMENT
BIT 2 OF LLI FLAGS DATA COLLECTED UNDER A/S CONDITION       COMMENT
 SNR is mapped to RINEX snr flag value [0-9]                COMMENT
  L1 & L2: min(max(int(snr_dBHz/6), 0), 9)                  COMMENT
pseudorange smoothing corrections not applied               COMMENT
COORDINATES IN ETRF2000                                     COMMENT
Forced Modulo Decimation to 30 seconds                      COMMENT
BRUS                                                        MARKER NAME
13101M004                                                   MARKER NUMBER
Carine Bruyninx     ROB                                     OBSERVER / AGENCY
RT919994505         ASHTECH Z-XII3T     1L01-1D04           REC # / TYPE / VERS
CR519994604         ASH701945B_M    NONE                    ANT # / TYPE
  4027894.0130   307045.5980  4919474.9120                  APPROX POSITION XYZ
        3.9702        0.0000        0.0000                  ANTENNA: DELTA H/E/N
     1     1                                                WAVELENGTH FACT L1/2
     7    L1    L2    C1    P2    P1    S1    S2            # / TYPES OF OBSERV
    30.0000                                                 INTERVAL
teqc windowed: start @ 2011 Oct  9 18:00:00.000             COMMENT
teqc windowed: delta = 21600.000 sec                        COMMENT
  2011    10     9    18     0    0.0000000     GPS         TIME OF FIRST OBS
                                                            END OF HEADER
 11 10  9 18  0  0.0000000  0 10G17G28G32G19G01G14G09G11G22G20
  -3989098.82349  -3091256.27649  24179075.9494   24179081.2904   24179078.3054
       214.0004        154.0004
  -7017043.54549  -5455117.53949  23565375.7334   23565378.1424   23565375.7984
       218.0004        149.0004
 -21023406.97749 -16365730.07149  20517649.0374   20517651.4594   20517648.4894
       245.0004        201.0004
  -8955780.83949  -6944159.66049  22983786.4854   22983789.5694   22983785.1964
       223.0004        168.0004
 -14136735.25949 -10998346.76049  20365434.5924   20365440.1264   20365434.4134
       246.0004        210.0004
  -6253687.67349  -4478664.80449  22527547.4704   22527549.9834   22527547.5654
       225.0004        166.0004
   1392374.54149     87624.23449  25121190.4664
       179.0004        108.0004
 -22393394.73049 -17168887.23249  20133886.8224   20133888.5034   20133886.6484
       238.0004        201.0004
   -486170.20849     56590.33349  24737653.1104
       185.0004         74.0004
 -16968825.27549 -12648667.12849  21639930.1084   21639933.7914   21639930.1714
       233.0004        182.0004
 11 10  9 18  0 30.0000000  0 10G17G28G32G19G01G14G09G11G22G20
  -4089349.68849  -3169373.76749  24159999.8734   24160004.0724   24159999.5104
       212.0004        151.0004
  -6986019.97349  -5430943.34749  23571279.7364   23571280.9184   23571279.8904
       218.0004        150.0004
 -21048297.31249 -16385125.10249  20512912.5784   20512915.3804   20512911.4504
       244.0004        201.0004
  -8853838.16549  -6864723.85349  23003186.6794   23003187.5824   23003184.2424
       225.0004        168.0004
 -14164216.42149 -11019760.65049  20360204.8054   20360210.8204   20360204.6664
       245.0004        210.0004
  -6218067.15149  -4450908.54549  22534326.4444   22534329.7354   22534326.5524
       226.0004        166.0004
   1435176.00559     20337.84259  25129335.2164
       182.0004         74.0004
 -22373014.74949 -17153006.73349  20137764.7504   20137766.5054   20137764.4334
       237.0004        201.0004
   -385815.77149    134815.99749  24756751.1874
       189.0004        108.0004
 -17048955.01749 -12711105.82649  21624682.2954   21624685.6784   21624682.1934
       233.0004        181.0004
 11 10  9 18  1  0.0000000  0 10G17G28G32G19G01G14G09G11G22G20
  -4189394.98449  -3247331.10749  24140961.8144   24140965.8054   24140961.8154
       211.0004        145.0004
  -6954500.21949  -5406382.50549  23577277.4414   23577279.6704   23577276.5814
       216.0004        149.0004
 -21072702.57149 -16404142.16349  20508266.7664   20508270.8974   20508266.7834
       242.0004        201.0004
  -8751665.36549  -6785108.73149  23022630.6964   23022631.5554   23022629.0144
       227.0004        168.0004
 -14191315.35749 -11040876.69549  20355048.7314   20355054.0644   20355048.6624
       246.0004        210.0004
  -6181887.05849  -4422716.25849  22541210.1294   22541213.7774   22541211.4534
       225.0004        166.0004
   1478558.13659     54042.71159  25137591.0184
       170.0004        108.0004
 -22352156.91549 -17136753.88249  20141734.1624   20141736.0584   20141733.6554
       238.0004        201.0004
   -285411.89449    213083.88449  24775858.8574
       184.0004        111.0004
 -17128752.79449 -12773285.87249  21609498.6194   21609500.7094   21609497.7894
       235.0004        183.0004
 11 10  9 18  1 30.0000000  0 10G17G28G32G19G01G14G09G11G22G20
  -4289231.99049  -3325126.13549  24121963.9344   24121966.9814   24121962.2074
       208.0004        144.0004
  -6922484.55549  -5381435.27449  23583368.5824   23583371.6884   23583367.8234
       214.0004        148.0004
 -21096622.20349 -16422780.81149  20503716.5434   20503719.0494   20503715.5524
       244.0004        201.0004
  -8649264.19949  -6705315.66049  23042118.0844   23042117.9554   23042115.1784
       228.0004        169.0004
 -14218030.71749 -11061693.84749  20349964.3484   20349970.4164   20349964.2714
       244.0004        210.0004
  -6145148.27849  -4394088.62949  22548203.8424   22548204.9364   22548202.4124
       228.0004        167.0004
   1522519.92459     88168.77959  25145954.8794
       173.0004        110.0004
 -22330821.00549 -17120128.50149  20145793.7744   20145795.7544   20145793.5734
       237.0004        201.0004
   -184959.41649     50229.77449  24794970.7744
       179.0004         74.0004
 -17208216.78049 -12835205.80849  21594375.9384   21594379.0664   21594375.8754
       235.0004        182.0004
 11 10  9 18  2  0.0000000  0 10G17G28G32G19G01G14G09G11G22G20
  -4388858.95649  -3402757.46149  24103005.0174   24103008.8934   24103005.0314
       210.0004        148.0004
  -6889975.88249  -5356103.88149  23589556.3524   23589558.2304   23589555.0884
       213.0004        148.0004
 -21120057.29449 -16441041.90549  20499255.3834   20499259.6744   20499255.3984
       243.0004        201.0004
  -8546637.76049  -6625347.05949  23061645.2854   23061646.9444   23061643.9814
       224.0004        168.0004
 -14244362.48049 -11082212.09749  20344952.8794   20344959.4874   20344953.2624
       244.0004        210.0004
  -6107852.66449  -4365027.11249  22555298.9264   22555302.3284   22555299.9104
       227.0004        166.0004
   1567058.91259     18241.61359  25154435.9264
       168.0004         74.0004
 -22309008.02149 -17103131.36949  20149944.0174   20149946.8264   20149944.0204
       237.0004        201.0004
    -84460.99749    128511.73249  24814092.6134
       177.0004        107.0004
 -17287346.68349 -12896865.43649  21579316.9084   21579321.5664   21579316.6464
       233.0004        182.0004
 11 10  9 18  2 30.0000000  0  9G17G28G32G19G01G14G11G22G20
  -4488272.15549  -3480222.26149  24084088.3784   24084090.6794   24084088.2344
       212.0004        150.0004
  -6856974.92149  -5330388.85249  23595835.0894   23595837.8894   23595834.9664
       214.0004        148.0004
 -21143006.74649 -16458924.59249  20494888.6764   20494892.2014   20494888.7214
       243.0004        201.0004
  -8443786.65249  -6545203.36349  23081215.1384   23081218.4164   23081214.4204
       223.0004        166.0004
 -14270308.54349 -11102429.80149  20340016.5984   20340022.2004   20340016.4294
       245.0004        210.0004
  -6070000.55149  -4335531.95349  22562502.1624   22562503.2654   22562502.0234
       226.0004        164.0004
 -22286716.86649 -17085761.64349  20154186.5544   20154188.4934   20154186.4854
       239.0004        201.0004
     16083.56759    206822.52059  24833227.3134
       179.0004        107.0004
 -17366140.24849 -12958262.96949  21564324.1704   21564327.3174   21564323.2674
       234.0004        183.0004
 11 10  9 18  3  0.0000000  0  9G17G28G32G19G01G14G11G22G20
  -4587469.30749  -3557518.69149  24065210.3214   24065213.8644   24065211.3344
       215.0004        154.0004
  -6823483.26149  -5304291.47949  23602208.0604   23602211.9624   23602208.1504
       212.0004        147.0004
 -21165471.40049 -16476429.48649  20490615.3054   20490617.4034   20490613.7254
       244.0004        201.0004
  -8340713.68049  -6464886.79549  23100831.5534   23100832.5924   23100830.3074
       224.0004        167.0004
 -14295868.47749 -11122346.62249  20335152.5224   20335158.2084   20335152.6104
       245.0004        210.0004
  -6031593.85049  -4305604.64749  22569810.9294   22569813.2244   22569810.3784
       225.0004        164.0004
 -22263948.47849 -17068020.04549  20158519.6824   20158521.3924   20158519.2534
       238.0004        201.0004
    116672.10349     43727.42549  24852372.6904
       172.0004         74.0004
 -17444596.58749 -13019397.74149  21549394.8424   21549397.6444   21549394.1484
       234.0004        183.0004
 11 10  9 18  3 30.0000000  0  9G17G28G32G19G01G14G11G22G20
  -4686448.35549  -3634645.18649  24046375.4744   24046379.6654   24046376.6434
       213.0004        156.0004
  -6789502.76149  -5277813.17649  23608676.2374   23608678.4374   23608676.1854
       215.0004        149.0004
 -21187451.32349 -16493556.69249  20486430.6494   20486434.4614   20486430.6424
       242.0004        201.0004
  -8237420.94149  -6384399.00649  23120486.9374   23120489.2904   23120485.8974
       221.0004        167.0004
 -14321041.50649 -11141961.95549  20330362.5544   20330367.9264   20330362.0324
       245.0004        210.0004
  -5992634.03849  -4275246.31549  22577225.7124   22577227.7084   22577225.1534
       227.0004        166.0004
 -22240703.33549 -17049906.95049  20162941.9364   20162944.3584   20162942.3434
       237.0004        201.0004
    217303.13559    122165.97559  24871525.0164
       174.0004        107.0004
 -17522714.73549 -13080268.97949  21534528.4414   21534532.5024   21534527.7014
       232.0004        183.0004
 11 10  9 18  4  0.0000000  0  9G17G28G32G19G01G14G11G22G20
  -4785207.15049  -3711600.01549  24027584.0264   24027585.8124   24027583.9934
       216.0004        153.0004
  -6755035.45149  -5250955.51849  23615233.9924   23615236.0124   23615233.1194
       214.0004        147.0004
 -21208947.25749 -16510306.75449  20482341.3974   20482344.1724   20482340.8964
       244.0004        201.0004
  -8133911.06549  -6303742.03149  23140183.6464   23140185.4434   23140183.1694
       222.0004        165.0004
 -14345827.15349 -11161275.43049  20325644.6994   20325651.3734   20325644.9324
       244.0004        210.0004
  -5953122.81749  -4244458.34549  22584742.9844   22584745.3234   22584743.1764
       225.0004        167.0004
 -22216981.80949 -17031422.64349  20167456.3914   20167458.6344   20167456.1254
       238.0004        201.0004
    317974.92759    200646.15859  24890676.1684
       171.0004        107.0004
 -17600493.98549 -13140876.14949  21519726.1814   21519731.0434   21519726.3324
       231.0004        183.0004
 11 10  9 18  4 30.0000000  0  8G17G28G32G19G01G14G11G20
  -4883741.99349  -3788380.35449  24008833.9674   24008834.9784   24008832.2634
       214.0004        150.0004
  -6720081.86449  -5223718.97849  23621883.7364   23621887.1784   23621884.2734
       210.0004        145.0004
 -21229958.28649 -16526678.95449  20478342.8004   20478345.7714   20478341.8034
       243.0004        201.0004
  -8030185.16749  -6222916.67649  23159922.7684   23159923.1924   23159922.1934
       225.0004        164.0004
 -14370223.42649 -11180285.49549  20321003.0664   20321008.9094   20321002.5874
       245.0004        210.0004
  -5913060.61349  -4213241.03549  22592368.2804   22592369.5234   22592367.1254
       227.0004        168.0004
 -22192783.27449 -17012566.65449  20172062.1484   20172063.4154   20172061.8424
       238.0004        201.0004
 -17677931.87549 -13201217.31649  21504991.9654   21504994.5174   21504991.3004
       233.0004        183.0004
 11 10  9 18  5  0.0000000  0  8G17G28G32G19G01G14G11G20
  -4982051.65349  -3864985.22749  23990124.5704   23990126.4224   23990123.6524
       214.0004        150.0004
  -6684644.89749  -5196105.78249  23628627.3804   23628632.9744   23628628.1194
       211.0004        145.0004
 -21250486.00449 -16542674.57449  20474435.5654   20474439.8244   20474436.0044
       243.0004        201.0004
  -7926246.28249  -6141925.35449  23179701.0674   23179702.8114   23179699.5284
       222.0004        165.0004
 -14394230.77849 -11198992.51049  20316434.7504   20316440.4914   20316434.5194
       245.0004        210.0004
  -5872450.18349  -4181596.54749  22600095.0824   22600097.5284   22600095.0494
       227.0004        166.0004
 -22168109.25149 -16993340.14049  20176757.1184   20176758.8134   20176756.7704
       238.0004        201.0004
 -17755028.62249 -13261292.66549  21490321.2344   21490324.1734   21490320.5154
       234.0004        184.0004
 11 10  9 18  5 30.0000000  0  8G17G28G32G19G01G14G11G20
  -5080132.50749  -3941411.85549  23971459.6734   23971462.7804   23971460.5394
       217.0004        151.0004
  -6648725.25749  -5168116.48149  23635463.2884   23635467.3234   23635462.6424
       213.0004        147.0004
 -21270529.56649 -16558292.92449  20470623.1824   20470625.9164   20470622.2564
       244.0004        201.0004
  -7822095.65949  -6060769.11849  23199518.4904   23199523.2354   23199519.4404
       221.0004        166.0004
 -14417847.31349 -11217394.99249  20311940.5584   20311946.2024   20311940.4614
       245.0004        210.0004
  -5831291.97449  -4149525.19849  22607927.4144   22607929.6344   22607927.5554
       225.0004        165.0004
 -22142958.88849 -16973742.45049  20181542.1764   20181544.2784   20181542.5844
       237.0004        200.0004
 -17831782.00749 -13321100.46649  21475715.3384   21475718.5074   21475714.7174
       234.0004        184.0004
 11 10  9 18  6  0.0000000  0  8G17G28G32G19G01G14G11G20
  -5177982.46449  -4017658.55049  23952839.4574   23952842.5634   23952840.0664
       217.0004        152.0004
  -6612324.97049  -5139752.65249  23642392.1504   23642392.9714   23642390.1424
       212.0004        147.0004
 -21290089.66249 -16573534.53549  20466899.6244   20466903.3164   20466899.0714
       243.0004        201.0004
  -7717735.86349  -5979449.83749  23219378.7524   23219380.9404   23219378.1524
       224.0004        165.0004
 -14441072.51049 -11235492.53449  20307520.5304   20307526.7494   20307520.6934
       245.0004        211.0004
  -5789587.63249  -4117028.29449  22615862.4944   22615866.4904   22615863.0654
       224.0004        166.0004
 -22117332.83849 -16953774.09949  20186418.7714   20186421.0434   20186418.7494
       237.0004        200.0004
 -17908191.15949 -13380640.03049  21461174.0354   21461178.1684   21461174.1634
       234.0004        185.0004
 11 10  9 18  6 30.0000000  0  8G17G28G32G19G01G14G11G20
  -5275599.47949  -4093723.70549  23934263.4584   23934267.5224   23934264.0084
       213.0004        154.0004
  -6575446.16249  -5111015.93449  23649407.0154   23649413.4924   23649408.7964
       210.0004        148.0004
 -21309166.78349 -16588399.82449  20463268.8814   20463273.4254   20463268.9454
       242.0004        201.0004
  -7613169.09649  -5897969.26549  23239276.5574   23239280.4274   23239276.3554
       221.0004        163.0004
 -14463905.72649 -11253284.65649  20303175.5944   20303181.9354   20303175.9234
       245.0004        211.0004
  -5747339.04949  -4084107.30549  22623904.0754   22623906.1544   22623902.4904
       228.0004        167.0004
 -22091231.75449 -16933435.60249  20191386.6094   20191388.1544   20191386.2294
       238.0004        200.0004
 -17984255.29149 -13439910.75049  21446700.8414   21446704.0134   21446700.2294
       235.0004        186.0004
 11 10  9 18  7  0.0000000  0  8G17G28G32G19G01G14G11G20
  -5372980.32849  -4169604.79949  23915734.0664   23915736.7104   23915733.7334
       214.0004        152.0004
  -6538090.17149  -5081907.39349  23656515.5654   23656521.8984   23656517.1984
       211.0004        148.0004
 -21327761.14649 -16602888.91749  20459731.5584   20459734.7504   20459730.7904
       243.0004        201.0004
  -7508397.64149  -5816329.22149  23259213.9534   23259218.5664   23259214.5374
       221.0004        165.0004
 -14486345.97949 -11270770.56049  20298905.8234   20298911.4934   20298905.5304
       245.0004        210.0004
  -5704547.64849  -4050763.32649  22632045.4764   22632046.8864   22632045.8654
       226.0004        166.0004
 -22064655.82649 -16912727.07249  20196442.9394   20196445.3124   20196442.8734
       237.0004        200.0004
 -18059973.18849 -13498911.67349  21432292.3474   21432295.5234   21432291.4254
       236.0004        186.0004
 11 10  9 18  7 30.0000000  0  8G17G28G32G19G01G14G11G20
  -5470122.73649  -4245300.13349  23897246.9294   23897250.3004   23897247.8604
       215.0004        153.0004
  -6500258.48249  -5052428.16049  23663716.7814   23663719.9764   23663714.6474
       212.0004        146.0004
 -21345872.54849 -16617001.68649  20456283.8504   20456287.9564   20456283.7464
       242.0004        201.0004
  -7403422.77349  -5734530.68449  23279191.7034   23279195.0264   23279190.8124
       224.0004        168.0004
 -14508391.96549 -11287949.24349  20294710.5584   20294716.0014   20294710.2694
       245.0004        211.0004
  -5661214.51049  -4016997.21449  22640292.3354   22640294.2384   22640291.7534
       227.0004        166.0004
 -22037604.84649 -16891648.39349  20201590.6704   20201592.9204   20201590.8874
       238.0004        200.0004
 -18135342.89349 -13557641.27049  21417949.4224   21417951.8854   21417948.9094
       236.0004        186.0004
 11 10  9 18  8  0.0000000  0  8G17G28G32G19G01G14G11G20
  -5567024.45049  -4320807.90949  23878806.8464   23878810.2344   23878808.0664
       218.0004        154.0004
  -6461953.62449  -5022580.24249  23671003.3264   23671009.2104   23671003.5774
       208.0004        144.0004
 -21363502.00649 -16630738.90449  20452929.9084   20452933.5634   20452929.6134
       243.0004        201.0004
  -7298247.71949  -5652576.13949  23299206.0014   23299206.7424   23299205.0384
       223.0004        161.0004
 -14530043.55949 -11304820.61249  20290589.9544   20290596.0954   20290589.7594
       245.0004        210.0004
  -5617341.81549  -3982810.69049  22648639.8654   22648642.5674   22648640.6154
       225.0004        164.0004
 -22010079.82549 -16870200.34849  20206829.1724   20206831.0144   20206829.1774
       238.0004        200.0004
 -18210364.40049 -13616099.56349  21403672.7274   21403675.6324   21403672.4704
       234.0004        187.0004
 11 10  9 18  8 30.0000000  0  8G17G28G32G19G01G14G11G20
  -5663682.80349  -4396126.08749  23860414.0034   23860417.2264   23860414.4174
       219.0004        153.0004
  -6423177.00149  -4992364.71549  23678383.7854   23678386.4494   23678383.5094
       210.0004        143.0004
 -21380649.78949 -16644100.77849  20449666.9454   20449670.4214   20449666.2304
       243.0004        201.0004
  -7192874.39149  -5570467.08349  23319257.1894   23319259.0674   23319256.2704
       219.0004        160.0004
 -14551299.72249 -11321383.86049  20286544.9394   20286551.1154   20286545.4334
       245.0004        210.0004
  -5572930.76549  -3948204.66349  22657092.6434   22657094.2934   22657091.9354
       227.0004        165.0004
 -21982080.90949 -16848383.01749  20212156.5674   20212158.6744   20212156.9354
       237.0004        200.0004
 -18285036.20949 -13674285.33249  21389463.8844   21389466.3994   21389463.8834
       237.0004        188.0004
 11 10  9 18  9  0.0000000  0  8G17G28G32G19G01G14G11G20
  -5760094.74849  -4471252.25249  23842067.2274   23842070.7554   23842067.8204
       217.0004        154.0004
  -6383929.85549  -4961782.53249  23685851.1094   23685855.7404   23685851.4924
       212.0004        145.0004
 -21397315.62149 -16657087.13949  20446495.6834   20446499.0204   20446495.3624
       243.0004        202.0004
  -7087304.25449  -5488204.66649  23339346.3204   23339350.1944   23339345.8774
       221.0004        165.0004
 -14572159.06049 -11337637.91049  20282576.4664   20282582.0514   20282576.3104
       245.0004        211.0004
  -5527982.77049  -3913180.22549  22665643.8234   22665647.5284   22665643.4874
       223.0004        164.0004
 -21953608.24249 -16826196.54449  20217575.6594   20217577.2144   20217575.0544
       238.0004        200.0004
 -18359356.81149 -13732197.43449  21375321.4774   21375324.0424   21375320.6844
       237.0004        187.0004
 11 10  9 18  9 30.0000000  0  8G17G28G32G19G01G14G11G20
  -5856258.33349  -4546184.88249  23823769.5994   23823771.2464   23823769.3764
       217.0004        155.0004
  -6344214.84249  -4930835.78149  23693408.5384   23693414.8234   23693408.6364
       211.0004        147.0004
 -21413500.41849 -16669698.63849  20443416.4474   20443418.9974   20443415.7044
       244.0004        202.0004
  -6981540.03349  -5405791.04649  23359470.7434   23359475.8384   23359472.8274
       221.0004        163.0004
 -14592621.28549 -11353582.48849  20278681.6824   20278687.8944   20278681.8644
       245.0004        211.0004
  -5482499.99049  -3877739.06149  22674301.0954   22674303.1034   22674301.1854
       228.0004        165.0004
 -21924662.34149 -16803641.28849  20223082.9174   20223085.3724   20223083.1064
       238.0004        200.0004
 -18433325.45949 -13789835.29749  21361244.8244   21361247.4024   21361243.9314
       236.0004        188.0004
 11 10  9 18 10  0.0000000  0  8G17G28G32G19G01G14G11G20
  -5952170.89049  -4620921.87249  23805517.2884   23805520.2174   23805515.9354
       215.0004        154.0004
  -6304033.58249  -4899525.72149  23701056.8674   23701060.1304   23701056.6404
       211.0004        146.0004
 -21429204.47949 -16681935.56949  20440427.3104   20440430.6334   20440426.9444
       243.0004        202.0004
  -6875583.68149  -5323227.71149  23379634.8924   23379637.3304   23379634.9544
       222.0004        162.0004
 -14612685.49849 -11369216.93249  20274863.7224   20274869.8584   20274863.9864
       245.0004        211.0004
  -5436484.02349  -3841882.47249  22683055.6404   22683059.3684   22683055.6404
       224.0004        165.0004
 -21895243.71649 -16780717.68149  20228681.1054   20228683.6594   20228681.1294
       237.0004        200.0004
 -18506941.10449 -13847198.11749  21347235.5564   21347239.1764   21347236.2494
       237.0004        187.0004
 11 10  9 18 10 30.0000000  0  8G17G28G32G19G01G14G11G20
  -6047829.55049  -4695461.03549  23787311.9384   23787316.4524   23787313.5494
       214.0004        154.0004
  -6263387.39249  -4867853.39649  23708789.9964   23708793.8654   23708791.2414
       212.0004        144.0004
 -21444427.97949 -16693798.04849  20437530.2744   20437533.8084   20437530.2474
       244.0004        202.0004
  -6769437.18849  -5240516.17549  23399836.7704   23399836.6914   23399835.7074
       225.0004        162.0004
 -14632350.54749 -11384540.33249  20271122.3384   20271127.7894   20271122.3374
       246.0004        211.0004
  -5389935.79149  -3805611.11049  22691914.2674   22691916.3744   22691914.7084
       226.0004        164.0004
 -21865352.67349 -16757425.95849  20234368.9164   20234371.5224   20234368.6574
       236.0004        199.0004
 -18580202.15749 -13904284.61249  21333296.5104   21333298.3684   21333295.5194
       238.0004        188.0004
 11 10  9 18 11  0.0000000  0  8G17G28G32G19G01G14G11G20
  -6143231.80049  -4769800.42849  23769158.6614   23769161.8614   23769158.9494
       218.0004        156.0004
  -6222278.46549  -4835820.49349  23716613.8384   23716618.4274   23716612.1044
       214.0004        144.0004
 -21459171.19649 -16705286.26749  20434725.1534   20434727.9214   20434724.2174
       244.0004        201.0004
  -6663102.55549  -5157658.04849  23420070.2704   23420073.3084   23420069.7684
       221.0004        162.0004
 -14651615.54049 -11399552.00249  20267456.6034   20267461.6044   20267456.2294
       246.0004        211.0004
  -5342856.93449  -3768926.25849  22700872.7574   22700875.9354   22700872.9514
       225.0004        164.0004
 -21834989.27749 -16733766.16649  20240147.0774   20240149.3644   20240147.3024
       238.0004        199.0004
 -18653107.71249 -13961094.07249  21319423.0474   21319424.9144   21319422.1384
       239.0004        189.0004
 11 10  9 18 11 30.0000000  0  8G17G28G32G19G01G14G11G20
  -6238375.55649  -4843938.37349  23751053.4014   23751056.3414   23751053.3064
       218.0004        154.0004
  -6180709.09949  -4803428.80749  23724524.4654   23724529.2044   23724525.1234
       212.0004        144.0004
 -21473435.14349 -16716401.01949  20432010.1294   20432013.8544   20432009.8914
       243.0004        202.0004
  -6556582.67049  -5074655.62449  23440339.8734   23440342.8044   23440339.5784
       218.0004        160.0004
 -14670480.32649 -11414251.80449  20263865.1604   20263872.1414   20263865.4734
       245.0004        211.0004
  -5295249.92849  -3731829.87749  22709932.6314   22709935.1754   22709933.7374
       225.0004        165.0004
 -21804154.60249 -16709739.14949  20246015.0644   20246017.1894   20246014.9314
       238.0004        200.0004
 -18725657.35249 -14017626.21449  21305616.2904   21305619.3824   21305615.6764
       237.0004        188.0004
 11 10  9 18 12  0.0000000  0  8G17G28G32G19G01G14G11G20
  -6333257.95849  -4917872.70749  23732996.8314   23733000.6024   23732997.6344
       216.0004        155.0004
  -6138680.76149  -4770679.44349  23732519.5234   23732527.8994   23732520.0394
       210.0004        146.0004
 -21487219.75249 -16727142.23849  20429386.8224   20429390.6854   20429386.6274
       243.0004        201.0004
  -6449879.10049  -4991510.03449  23460644.8824   23460647.9254   23460644.7594
       220.0004        159.0004
 -14688943.58749 -11428638.73249  20260352.5604   20260358.5494   20260352.1994
       246.0004        211.0004
  -5247116.10049  -3694322.98149  22719091.9504   22719095.5344   22719091.5084
       224.0004        164.0004
 -21772848.68049 -16685344.93249  20251972.0964   20251974.3334   20251972.1114
       238.0004        199.0004
 -18797849.40049 -14073879.71749  21291877.6054   21291881.4624   21291877.4324
       236.0004        189.0004
 11 10  9 18 12 30.0000000  0  8G17G28G32G19G01G14G11G20
  -6427877.01249  -4991601.79349  23714990.7114   23714996.2754   23714991.6024
       216.0004        156.0004
  -6096196.24949  -4737574.69149  23740607.9044   23740609.4784   23740607.5244
       214.0004        145.0004
 -21500526.17649 -16737510.84849  20426854.4174   20426858.2814   20426854.7724
       243.0004        201.0004
  -6342994.68849  -4908223.51349  23480984.5114   23480987.2474   23480983.0784
       219.0004        159.0004
 -14707005.19649 -11442712.69649  20256916.1084   20256921.4364   20256915.7994
       246.0004        211.0004
  -5198457.78249  -3656407.38449  22728351.8634   22728353.1804   22728351.6834
       225.0004        164.0004
 -21741072.50449 -16660584.28049  20258019.4604   20258021.0184   20258019.1354
       238.0004        199.0004
 -18869683.36849 -14129854.21349  21278209.0044   21278211.5874   21278208.5264
       236.0004        188.0004
 11 10  9 18 13  0.0000000  0  8G17G28G32G19G01G14G11G20
  -6522228.85649  -5065122.68349  23697037.8034   23697041.7454   23697037.6924
       219.0004        159.0004
  -6053256.03749  -4704114.82249  23748779.2944   23748782.8364   23748779.1044
       214.0004        145.0004
 -21513353.62949 -16747506.21849  20424414.5084   20424417.1724   20424414.0204
       244.0004        201.0004
  -6235930.34049  -4824796.82849  23501357.5074   23501360.3974   23501356.8294
       217.0004        160.0004
 -14724663.09349 -11456472.08249  20253555.2254   20253560.8654   20253555.4424
       245.0004        211.0004
  -5149275.34449  -3618083.36249  22737710.7374   22737711.9044   22737710.1564
       225.0004        164.0004
 -21708825.51249 -16635456.76049  20264155.9754   20264157.5484   20264155.9104
       239.0004        200.0004
 -18941156.84249 -14185547.79749  21264608.2664   21264610.9554   21264608.2244
       237.0004        189.0004
 11 10  9 18 13 30.0000000  0  8G17G28G32G19G01G14G11G20
  -6616311.86149  -5138434.06549  23679134.2094   23679138.7834   23679134.5014
       218.0004        162.0004
  -6009862.97249  -4670302.03649  23757035.7284   23757039.1454   23757034.3514
       209.0004        142.0004
 -21525703.25249 -16757129.26049  20422063.8384   20422067.1694   20422063.2154
       243.0004        202.0004
  -6128689.03549  -4741232.21649  23521765.5404   23521767.8834   23521764.1304
       219.0004        159.0004
 -14741917.25449 -11469916.86349  20250271.2624   20250277.6244   20250271.3324
       245.0004        211.0004
  -5099571.30949  -3579352.90249  22747168.9254   22747171.1334   22747168.5564
       225.0004        164.0004
 -21676108.96149 -16609963.35949  20270381.6794   20270383.3444   20270381.5064
       238.0004        200.0004
 -19012270.06449 -14240960.65649  21251075.3964   21251078.5284   21251075.1144
       237.0004        189.0004
 11 10  9 18 14  0.0000000  0  8G17G28G32G19G01G14G11G20
  -6710123.52249  -5211534.02849  23661282.1144   23661285.8344   23661282.4534
       216.0004        159.0004
  -5966019.16649  -4636138.09749  23765377.1874   23765381.5664   23765377.6044
       210.0004        142.0004
 -21537576.02949 -16766380.75749  20419804.0574   20419807.9124   20419804.0644
       242.0004        201.0004
  -6021273.18749  -4657531.60749  23542206.2134   23542206.9064   23542205.5924
       218.0004        157.0004
 -14758767.16849 -11483046.66049  20247065.6234   20247071.4684   20247065.6584
       246.0004        211.0004
  -5049347.82749  -3540217.70849  22756726.7634   22756729.2804   22756725.8604
       225.0004        164.0004
 -21642923.52949 -16584104.57549  20276696.1884   20276698.2884   20276696.2614
       237.0004        200.0004
 -19083021.69549 -14296091.76049  21237610.3754   21237614.9434   21237610.9124
       235.0004        188.0004
 11 10  9 18 14 30.0000000  0  8G17G28G32G19G01G14G11G20
  -6803661.25949  -5284420.56149  23643483.9694   23643486.1654   23643483.5874
       216.0004        157.0004
  -5921726.46149  -4601624.32849  23773810.2184   23773809.8904   23773808.6604
       214.0004        143.0004
 -21548972.05349 -16775260.75049  20417637.4644   20417639.3784   20417636.0484
       244.0004        202.0004
  -5913684.78449  -4573696.50049  23562680.4094   23562682.7134   23562679.5124
       219.0004        158.0004
 -14775211.73249 -11495860.59549  20243936.8574   20243941.9034   20243936.5794
       246.0004        211.0004
  -4998606.32549  -3500678.86049  22766382.1584   22766384.2804   22766381.2714
       225.0004        164.0004
 -21609269.28649 -16557880.49549  20283100.4054   20283102.8094   20283100.7864
       238.0004        199.0004
 -19153410.72849 -14350940.33649  21224216.7024   21224219.4914   21224216.5084
       237.0004        189.0004
 11 10  9 18 15  0.0000000  0  8G17G28G32G19G01G14G11G20
  -6896921.62349  -5357090.95449  23625737.2764   23625739.0374   23625737.3834
       219.0004        156.0004
  -5876986.04049  -4566761.70949  23782321.0474   23782323.7584   23782321.4204
       214.0004        145.0004
 -21559891.03449 -16783769.02749  20415557.9194   20415561.4684   20415557.7134
       243.0004        202.0004
  -5805925.14449  -4489728.00949  23583186.8754   23583187.7924   23583185.2844
       221.0004        160.0004
 -14791249.45349 -11508357.50349  20240883.4864   20240890.2544   20240883.7474
       244.0004        211.0004
  -4947347.84049  -3460737.18349  22776135.6984   22776139.2884   22776136.6894
       223.0004        163.0004
 -21575146.03349 -16531290.95349  20289594.0124   20289596.3554   20289593.8174
       239.0004        200.0004
 -19223435.40949 -14405504.99349  21210891.8804   21210894.1714   21210891.3744
       236.0004        189.0004
 11 10  9 18 15 30.0000000  0  8G17G28G32G19G01G14G11G20
  -6989903.06949  -5429544.02149  23608041.7804   23608044.8254   23608043.1254
       220.0004        158.0004
  -5831801.07549  -4531552.64849  23790920.0494   23790923.6984   23790919.5744
       212.0004        143.0004
 -21570334.55049 -16791906.81849  20413571.6224   20413574.0934   20413571.0374
       244.0004        202.0004
  -5697997.33649  -4405628.48049  23603721.8144   23603725.1964   23603722.9584
       217.0004        158.0004
 -14806880.55549 -11520537.56849  20237909.5324   20237915.8254   20237909.3754
       246.0004        211.0004
  -4895575.31749  -3420394.95949  22785988.5584   22785990.5754   22785988.3304
       225.0004        163.0004
 -21540555.31249 -16504337.15149  20296176.5694   20296178.3864   20296176.1294
       238.0004        199.0004
 -19293095.53749 -14459785.53649  21197636.1654   21197638.5494   21197635.4094
       238.0004        189.0004
 11 10  9 18 16  0.0000000  0  8G17G28G32G19G01G14G11G20
  -7082602.88449  -5501777.62749  23590400.7444   23590404.5894   23590402.8974
       218.0004        161.0004
  -5786173.44749  -4495998.72249  23799603.2704   23799606.5934   23799603.2984
       209.0004        143.0004
 -21580303.10949 -16799674.51049  20411674.3064   20411677.2234   20411673.6074
       244.0004        202.0004
  -5589903.54049  -4321399.57249  23624293.2944   23624295.9804   23624292.8514
       221.0004        159.0004
 -14822104.16249 -11532400.11749  20235013.2544   20235018.7214   20235012.8704
       246.0004        211.0004
  -4843290.30649  -3379653.38549  22795938.0164   22795939.7704   22795937.7264
       224.0004        163.0004
 -21505497.93149 -16477019.70849  20302847.3954   20302849.6894   20302847.4814
       238.0004        199.0004
 -19362390.21149 -14513781.34849  21184448.8564   21184452.0094   21184448.5974
       235.0004        189.0004
 11 10  9 18 16 30.0000000  0  8G17G28G32G19G01G14G11G20
  -7175018.15049  -5573789.49049  23572815.3664   23572819.3484   23572816.8344
       216.0004        160.0004
  -5740104.55749  -4460100.93049  23808369.6234   23808371.9584   23808369.5714
       209.0004        143.0004
 -21589796.78349 -16807072.16949  20409866.6874   20409870.7914   20409867.2154
       243.0004        202.0004
  -5481645.61849  -4237042.78449  23644895.5114   23644897.7494   23644894.7654
       222.0004        160.0004
 -14836919.10549 -11543944.21749  20232193.6444   20232199.4524   20232193.8104
       246.0004        211.0004
  -4790494.10749  -3338513.48449  22805984.2214   22805986.2944   22805984.0194
       223.0004        161.0004
 -21469973.42849 -16449338.28149  20309607.2784   20309609.7814   20309607.4624
       238.0004        199.0004
 -19431318.05149 -14567491.33249  21171332.9254   21171335.9394   21171333.0574
       237.0004        190.0004
 11 10  9 18 17  0.0000000  0  8G17G28G32G19G01G14G11G20
  -7267146.18849  -5645577.51749  23555285.8474   23555288.1784   23555284.4384
       217.0004        158.0004
  -5693596.62849  -4423861.01949  23817218.1804   23817220.4384   23817218.5424
       209.0004        139.0004
 -21598816.04949 -16814100.16349  20408151.5404   20408154.4854   20408150.6544
       244.0004        201.0004
  -5373225.58749  -4152559.71349  23665527.2444   23665526.9234   23665525.6234
       219.0004        156.0004
 -14851324.54549 -11555169.21949  20229452.3334   20229458.1774   20229452.2704
       245.0004        211.0004
  -4737188.77049  -3296976.81349  22816127.7504   22816130.1264   22816127.3864
       223.0004        160.0004
 -21433982.49749 -16421293.39449  20316456.1654   20316458.6444   20316456.1094
       238.0004        199.0004
 -19499877.78549 -14620914.44649  21158287.5184   21158289.3624   21158286.3824
       238.0004        190.0004
 11 10  9 18 17 30.0000000  0  9G23G17G28G32G19G01G14G11G20
   -337409.39049   -235487.68149  25340127.5374
       204.0004        108.0004
  -7358984.96749  -5717140.17549  23537807.0544   23537810.6354   23537809.1754
       216.0004        156.0004
  -5646652.48149  -4387281.19349  23826154.2754   23826153.7964   23826154.1344
       213.0004        141.0004
 -21607362.04049 -16820759.37249  20406524.9274   20406528.0164   20406524.2284
       244.0004        202.0004
  -5264646.11149  -4067952.37249  23686188.4384   23686190.2974   23686186.6414
       220.0004        157.0004
 -14865320.23549 -11566074.94149  20226788.7614   20226794.9824   20226789.2124
       246.0004        211.0004
  -4683376.70849  -3255045.33749  22826367.3804   22826370.4384   22826367.1554
       222.0004        162.0004
 -21397526.21249 -16392885.90249  20323394.0464   20323395.8114   20323393.5824
       239.0004        199.0004
 -19568068.97949 -14674050.37949  21145310.2794   21145313.0304   21145309.5294
       238.0004        190.0004
 11 10  9 18 18  0.0000000  0  9G23G17G28G32G19G01G14G11G20
   -450432.15949    -53594.05749  25318617.3684
       208.0004         74.0004
  -7450531.40449  -5788475.02449  23520389.8494   23520390.6034   23520389.0394
       220.0004        157.0004
  -5599273.58149  -4350362.57749  23835169.9054   23835172.1294   23835169.0404
       211.0004        141.0004
 -21615434.81849 -16827049.81449  20404988.7494   20404991.8544   20404988.2444
       243.0004        201.0004
  -5155908.93649  -3983222.13849  23706881.6384   23706880.6514   23706878.6064
       223.0004        156.0004
 -14878905.01449 -11576660.49449  20224204.2624   20224209.7844   20224204.3414
       246.0004        211.0004
  -4629059.20149  -3212720.00149  22836704.8634   22836706.9964   22836705.3964
       223.0004        161.0004
 -21360604.83149 -16364116.00149  20330420.6534   20330421.7514   20330420.3184
       239.0004        200.0004
 -19635890.25649 -14726898.09849  21132403.6584   21132406.6304   21132403.4564
       237.0004        190.0004
 11 10  9 18 18 30.0000000  0  8G17G28G32G19G01G14G11G20
  -7541783.43549  -5859580.50349  23503023.0644   23503026.0504   23503023.9344
       218.0004        159.0004
  -5551462.18749  -4313107.00049  23844264.6624   23844270.8244   23844265.9454
       206.0004        140.0004
 -21623035.36949 -16832972.28449  20403542.2404   20403545.3924   20403541.3164
       243.0004        201.0004
  -5047016.59749  -3898371.00649  23727603.1694   23727603.1254   23727601.7464
       221.0004        157.0004
 -14892078.46449 -11586925.51749  20221696.9024   20221702.9074   20221696.8324
       245.0004        211.0004
  -4574238.60749  -3170002.66449  22847136.9494   22847138.7744   22847137.2004
       224.0004        162.0004
 -21323219.27749 -16334984.41049  20337534.0134   20337536.1334   20337534.2374
       239.0004        200.0004
 -19703341.07649 -14779457.14449  21119568.5784   21119571.5854   21119567.9014
       237.0004        191.0004
 11 10  9 18 19  0.0000000  0  8G17G28G32G19G01G14G11G20
  -7632737.86649  -5930454.04549  23485715.9074   23485718.2294   23485715.3494
       218.0004        159.0004
  -5503220.02649  -4275515.76949  23853449.6044   23853449.8744   23853449.0484
       215.0004        143.0004
 -21630163.65449 -16838526.76549  20402184.7344   20402188.9924   20402184.7404
       242.0004        201.0004
  -4937970.67449  -3813400.21549  23748354.3864   23748354.0274   23748351.7434
       222.0004        155.0004
 -14904839.18349 -11596868.92149  20219268.5984   20219274.6764   20219268.5674
       246.0004        211.0004
  -4518916.09349  -3126894.18449  22857663.3034   22857665.4624   22857663.6044
       223.0004        161.0004
 -21285369.42349 -16305491.01249  20344736.8284   20344738.7014   20344736.5414
       239.0004        199.0004
 -19770419.58749 -14831726.06849  21106804.5614   21106806.5814   21106803.5494
       238.0004        191.0004
 11 10  9 18 19 30.0000000  0  9G23G17G28G32G19G01G14G11G20
    -54423.79449    -24276.06349  25254049.9874
       213.0004         74.0004
  -7723392.78049  -6001094.19249  23468462.3844   23468466.3994   23468463.5974
       214.0004        158.0004
  -5454550.18149  -4237591.23849  23862709.9824   23862712.4054   23862707.5874
       211.0004        143.0004
 -21636821.23149 -16843714.47949  20400919.6104   20400922.2384   20400918.6604
       244.0004        201.0004
  -4828774.27749  -3728312.14149  23769131.4044   23769133.7754   23769131.0684
       218.0004        155.0004
 -14917187.26549 -11606490.78249  20216919.1974   20216925.1084   20216919.2634
       246.0004        211.0004
  -4463094.44549  -3083396.77549  22868285.6024   22868289.1104   22868285.0444
       222.0004        161.0004
 -21247056.69849 -16275636.92649  20352027.6274   20352029.2394   20352027.6644
       239.0004        200.0004
 -19837125.72849 -14883704.84049  21094110.4394   21094113.3494   21094109.8914
       238.0004        192.0004
 11 10  9 18 20  0.0000000  0  9G23G17G28G32G19G01G14G11G20
   -167596.93849   -112458.22049  25232513.3464
       209.0004        108.0004
  -7813745.37949  -6071498.77549  23451269.5724   23451273.0794   23451270.1894
       218.0004        158.0004
  -5405454.25549  -4199334.76049  23872053.2654   23872054.1804   23872052.3804
       215.0004        145.0004
 -21643008.15749 -16848535.44849  20399741.2264   20399744.5614   20399740.5494
       242.0004        201.0004
  -4719428.96049  -3643108.03549  23789938.3284   23789940.7734   23789938.4604
       217.0004        156.0004
 -14929121.55149 -11615790.20649  20214648.2304   20214653.5204   20214647.8874
       245.0004        211.0004
  -4406775.35649  -3039511.76049  22879004.6684   22879005.8564   22879004.1554
       223.0004        161.0004
 -21208281.15349 -16245422.20749  20359406.3764   20359407.9714   20359405.7204
       238.0004        199.0004
 -19903458.36349 -14935392.57549  21081487.6684   21081490.3154   21081486.6754
       238.0004        192.0004
 11 10  9 18 20 30.0000000  0  8G17G28G32G19G01G14G11G20
  -7903792.24449  -6141665.12249  23434134.1454   23434138.3664   23434133.6824
       216.0004        158.0004
  -5355933.97149  -4160747.58749  23881476.6684   23881476.2334   23881475.4034
       216.0004        139.0004
 -21648724.51449 -16852989.74049  20398653.2044   20398656.9814   20398653.0894
       242.0004        201.0004
  -4609936.17849  -3557789.03349  23810774.1584   23810777.4054   23810773.7914
       217.0004        154.0004
 -14940640.76749 -11624766.20149  20212455.8944   20212461.6714   20212455.9404
       246.0004        211.0004
  -4349960.03049  -2995240.07749  22889814.9264   22889816.7974   22889813.1824
       222.0004        160.0004
 -21169042.99849 -16214847.02249  20366873.2614   20366874.9874   20366872.9274
       240.0004        200.0004
 -19969415.85449 -14986787.99849  21068935.8774   21068938.9394   21068935.6314
       238.0004        192.0004
 11 10  9 18 21  0.0000000  0  9G23G17G28G32G19G01G14G11G20
   -394036.45649    -16869.09949  25189419.0994
       214.0004         74.0004
  -7993532.13049  -6211592.26149  23417057.3844   23417059.6134   23417057.4514
       218.0004        156.0004
  -5305992.47549  -4121832.12449  23890976.8044   23890984.4534   23890976.7044
       207.0004        137.0004
 -21653972.19649 -16857078.81849  20397655.3154   20397658.2904   20397654.8924
       243.0004        201.0004
  -4500299.48549  -3472357.92649  23831637.2924   23831640.0304   23831637.1744
       215.0004        152.0004
 -14951745.36949 -11633419.12649  20210342.9724   20210348.7334   20210343.1274
       246.0004        212.0004
  -4292651.64749  -2950584.19349  22900721.2544   22900722.0124   22900720.5054
       225.0004        162.0004
 -21129344.04049 -16183912.76049  20374427.2004   20374429.5704   20374427.2764
       239.0004        199.0004
 -20034998.37149 -15037891.23049  21056455.7704   21056459.0164   21056455.6984
       238.0004        192.0004
 11 10  9 18 21 30.0000000  0  9G23G17G28G32G19G01G14G11G20
   -507298.41949   -105128.48849  25167868.3084
       208.0004        102.0004
  -8082961.64849  -6281277.57549  23400040.9784   23400042.8294   23400040.9664
       221.0004        160.0004
  -5255631.27149  -4082589.68149  23900562.7254   23900565.2644   23900563.3204
       212.0004        142.0004
 -21658751.05149 -16860802.58149  20396745.8054   20396748.8984   20396745.5174
       243.0004        201.0004
  -4390520.34949  -3386815.75949  23852530.3414   23852531.4294   23852528.1404
       219.0004        153.0004
 -14962433.94549 -11641747.88749  20208308.6474   20208314.6394   20208308.8554
       246.0004        211.0004
  -4234851.24849  -2905544.90349  22911719.1424   22911721.4444   22911719.7724
       224.0004        162.0004
 -21089184.52049 -16152619.63549  20382069.2134   20382071.5174   20382069.5174
       239.0004        200.0004
 -20100204.03849 -15088700.80749  21044047.9304   21044050.5454   21044047.6154
       239.0004        192.0004
 11 10  9 18 22  0.0000000  0  8G17G28G32G19G01G14G11G20
  -8172078.26349  -6350719.05349  23383082.1754   23383084.1434   23383081.5874
       220.0004        163.0004
  -5204852.64449  -4043021.99249  23910225.9424   23910227.6154   23910223.3184
       210.0004        142.0004
 -21663061.83849 -16864161.61849  20395926.0694   20395928.5014   20395925.4214
       244.0004        201.0004
  -4280601.01849  -3301164.39349  23873449.8174   23873447.8274   23873445.4774
       219.0004        153.0004
 -14972705.77049 -11649751.90149  20206354.1184   20206359.9834   20206353.8944
       245.0004        211.0004
  -4176561.13349  -2860124.00849  22922812.1314   22922812.6994   22922811.0114
       223.0004        160.0004
 -21048564.78049 -16120967.88849  20389799.8244   20389801.0004   20389799.0414
       240.0004        200.0004
 -20165032.20749 -15139216.22049  21031712.0464   21031714.3974   21031711.4544
       239.0004        193.0004
 11 10  9 18 22 30.0000000  0  9G23G17G28G32G19G01G14G11G20
   -733895.63549     -9595.34849  25124748.4544
       213.0004         74.0004
  -8260879.58849  -6419914.85749  23366182.7164   23366185.7854   23366182.4004
       220.0004        162.0004
  -5153659.10349  -4003130.95449  23919965.6174   23919968.7924   23919965.8714
       209.0004        141.0004
 -21666905.43049 -16867156.61949  20395193.9374   20395197.0044   20395193.2744
       243.0004        201.0004
  -4170543.76149  -3215405.55449  23894391.5844   23894390.8684   23894387.8284
       217.0004        150.0004
 -14982560.25449 -11657430.71549  20204478.8634   20204484.5114   20204478.8124
       246.0004        211.0004
  -4117783.39449  -2814323.16549  22933997.1594   22933999.3334   22933997.0464
       224.0004        160.0004
 -21007485.64849 -16088958.18449  20397615.8784   20397618.6434   20397615.9954
       239.0004        200.0004
 -20229482.00949 -15189436.83449  21019447.0564   21019450.0394   21019446.4614
       238.0004        193.0004
 11 10  9 18 23  0.0000000  0  8G17G28G32G19G01G14G11G20
  -8349363.34549  -6488863.20349  23349345.9104   23349347.3484   23349345.4514
       221.0004        161.0004
  -5102052.81149  -3962918.24849  23929787.4004   23929790.8704   23929784.8174
       208.0004        141.0004
 -21670282.52249 -16869788.10749  20394550.8344   20394554.1454   20394550.5744
       242.0004        201.0004
  -4060350.94149  -3129541.05249  23915360.1674   23915359.0824   23915356.7974
       214.0004        148.0004
 -14991996.85849 -11664783.90449  20202683.5394   20202689.0774   20202683.4614
       246.0004        211.0004
  -4058520.12349  -2768143.98149  22945273.8634   22945276.5814   22945274.5524
       223.0004        161.0004
 -20965947.88649 -16056591.11349  20405519.8264   20405522.7524   20405520.1424
       239.0004        200.0004
 -20293552.77349 -15239362.08949  21007254.3444   21007257.7804   21007254.0444
       238.0004        193.0004
 11 10  9 18 23 30.0000000  0  9G23G17G28G32G19G01G14G11G20
   -960575.01649   -186232.12349  25081609.6654
       208.0004        111.0004
  -8437526.38549  -6557561.66149  23332568.6874   23332570.9854   23332569.4174
       222.0004        161.0004
  -5050035.45049  -3922385.34549  23939686.1484   23939689.0934   23939685.0374
       209.0004        138.0004
 -21673193.43349 -16872056.33349  20393997.9934   20394000.3664   20393996.9844
       243.0004        201.0004
  -3950024.25749  -3043572.25649  23936352.2404   23936355.4204   23936351.8654
       218.0004        152.0004
 -15001014.49349 -11671810.62449  20200966.4534   20200973.3384   20200966.7754
       245.0004        211.0004
  -3998772.87149  -2721587.65149  22956644.6794   22956647.1684   22956644.0474
       223.0004        160.0004
 -20923951.78649 -16023866.89549  20413512.1454   20413514.3084   20413511.9444
       241.0004        200.0004
 -20357242.70549 -15288990.57749  20995134.6744   20995137.7404   20995134.3154
       238.0004        193.0004
 11 10  9 18 24  0.0000000  0  9G23G17G28G32G19G01G14G11G20
  -1073939.60449     -3695.45849  25060041.4774
       216.0004         74.0004
  -8525366.51849  -6626008.49349  23315852.2484   23315854.9564   23315853.5974
       219.0004        160.0004
  -4997610.33549  -3881534.66249  23949662.7254   23949662.6624   23949664.9324
       211.0004        139.0004
 -21675639.56649 -16873962.38549  20393532.0984   20393535.0734   20393531.5934
       242.0004        201.0004
  -3839566.27549  -2957501.17449  23957370.4474   23957373.8014   23957371.4654
       214.0004        152.0004
 -15009612.87949 -11678510.65649  20199330.8964   20199336.6774   20199330.5304
       245.0004        211.0004
  -3938544.22349  -2674656.21749  22968104.4214   22968106.7024   22968105.0644
       222.0004        157.0004
 -20881498.59949 -15990786.49249  20421591.1774   20421592.7064   20421590.8694
       240.0004        200.0004
 -20420552.13449 -15338322.55949  20983088.3034   20983090.1124   20983087.3664
       241.0004        192.0004
 11 10  9 18 24 30.0000000  0  8G17G28G32G19G01G14G11G20
  -8612880.38749  -6694201.08549  23299200.3204   23299202.4964   23299199.2404
       223.0004        165.0004
  -4944779.14649  -3840367.44749  23959714.4004   23959719.2554   23959712.5214
       210.0004        142.0004
 -21677620.96749 -16875506.31549  20393154.8984   20393158.2964   20393154.6214
       243.0004        201.0004
  -3728978.76949  -2871329.14049  23978414.5994   23978417.2414   23978415.4014
       213.0004        151.0004
 -15017790.98049 -11684883.20449  20197775.4164   20197780.7234   20197775.0134
       247.0004        211.0004
  -3877835.96949  -2627351.08049  22979658.7254   22979661.1324   22979658.5094
       225.0004        161.0004
 -20838588.52149 -15957350.06549  20429755.3124   20429758.2634   20429755.8094
       239.0004        199.0004
 -20483479.44549 -15387356.80849  20971112.9544   20971115.8084   20971112.2434
       239.0004        193.0004
 11 10  9 18 25  0.0000000  0  9G23G17G28G32G19G01G14G11G20
  -1300708.61849   -180399.65749  25016883.1804
       204.0004        106.0004
  -8700066.56349  -6762138.34949  23282609.8114   23282610.7894   23282610.5274
       224.0004        164.0004
  -4891544.48849  -3798885.98349  23969846.1554   23969848.5114   23969845.5584
       210.0004        139.0004
 -21679139.01249 -16876689.18049  20392866.1684   20392869.2514   20392865.6514
       243.0004        201.0004
  -3618264.51649  -2785058.28049  23999479.9394   23999486.9464   23999481.9454
       208.0004        149.0004
 -15025548.61549 -11690928.11549  20196299.5014   20196304.3764   20196299.0864
       246.0004        211.0004
  -3816650.76949  -2579674.30449  22991299.9204   22991303.0684   22991300.2264
       220.0004        157.0004
 -20795222.78649 -15923558.58949  20438008.6444   20438010.6474   20438008.6514
       241.0004        200.0004
 -20546024.28249 -15436093.02049  20959211.1344   20959214.1744   20959210.7094
       240.0004        193.0004
 11 10  9 18 25 30.0000000  0  8G17G28G32G19G01G14G11G20
  -8786922.55249  -6829818.30749  23266081.5934   23266083.3584   23266081.2904
       223.0004        165.0004
  -4837908.72449  -3757091.90949  23980052.8184   23980053.4114   23980052.6854
       207.0004        138.0004
 -21680194.41049 -16877511.55049  20392664.7714   20392667.9474   20392664.6794
       242.0004        201.0004
  -3507425.81149  -2698690.51849  24020575.0254   24020578.8484   24020573.9714
       212.0004        152.0004
 -15032885.16349 -11696644.89949  20194902.2414   20194908.1954   20194902.1484
       245.0004        211.0004
  -3754990.28049  -2531627.18149  23003033.7894   23003036.1614   23003033.5634
       223.0004        157.0004
 -20751402.17549 -15889412.66049  20446347.2344   20446349.3494   20446347.0654
       240.0004        200.0004
 -20608185.79449 -15484530.53749  20947382.0394   20947384.7334   20947381.7464
       239.0004        194.0004
 11 10  9 18 26  0.0000000  0  8G17G28G32G19G01G14G11G20
  -8873444.71149  -6897238.15849  23249614.8364   23249618.4614   23249616.5664
       222.0004        163.0004
  -4783874.08849  -3714987.02449  23990334.2324   23990337.7834   23990333.0544
       208.0004        139.0004
 -21680787.82949 -16877973.92849  20392552.2164   20392555.1674   20392551.5534
       243.0004        200.0004
  -3396464.53149  -2612227.23549  24041690.8614   24041694.8724   24041691.1214
       216.0004        155.0004
 -15039799.75649 -11702032.89149  20193586.2784   20193592.4144   20193586.3524
       246.0004        211.0004
  -3692856.66349  -2483211.35849  23014858.1294   23014859.7964   23014856.6444
       222.0004        158.0004
 -20707127.32049 -15854912.78149  20454772.4264   20454774.6204   20454772.3684
       240.0004        199.0004
 -20669962.65049 -15532668.32649  20935626.8594   20935629.4074   20935626.0784
       240.0004        194.0004
 11 10  9 18 26 30.0000000  0  9G23G17G28G32G19G01G14G11G20
  -1640926.21649   -173014.38949  24952145.5544
       209.0004        130.0004
  -8959630.97049  -6964396.24849  23233214.6344   23233218.4534   23233214.5814
       224.0004        164.0004
  -4729442.38149  -3672572.76249  24000692.4704   24000695.8974   24000693.4474
       207.0004        141.0004
 -21680919.35749 -16878076.39649  20392526.7754   20392529.9584   20392526.5704
       242.0004        200.0004
  -3285382.35749  -2525669.73249  24062830.2754   24062832.3764   24062827.4264
       214.0004        150.0004
 -15046291.13449 -11707091.10349  20192351.5924   20192357.2714   20192351.4954
       246.0004        211.0004
  -3630251.39449  -2434428.03449  23026769.6924   23026772.9874   23026769.3574
       219.0004        158.0004
 -20662398.21849 -15820058.91949  20463284.4354   20463286.2904   20463284.2524
       240.0004        200.0004
 -20731353.27449 -15580505.15249  20923944.4154   20923947.1894   20923943.8364
       240.0004        194.0004
 11 10  9 18 27  0.0000000  0  9G23G17G28G32G19G01G14G11G20
  -1754339.76349   -261388.51449  24930562.7684   24930571.7414
       207.0004        128.0004
  -9045478.90049  -7031290.73849  23216879.7304   23216881.3554   23216880.0194
       224.0004        165.0004
  -4674616.59349  -3629851.42249  24011123.7914   24011126.9194   24011124.7154
       206.0004        136.0004
 -21680590.64849 -16877820.24149  20392589.3494   20392592.6214   20392589.5924
       242.0004        200.0004
  -3174181.99749  -2439020.13749  24083990.8174   24083992.9164   24083989.9384
       218.0004        151.0004
 -15052359.38249 -11711819.59449  20191196.8014   20191202.4094   20191196.6274
       245.0004        211.0004
  -3567177.37249  -2385279.43649  23038774.5284   23038775.1964   23038773.3584
       222.0004        158.0004
 -20617216.73649 -15784852.56049  20471881.9314   20471883.7784   20471881.8064
       240.0004        200.0004
 -20792358.17149 -15628041.40249  20912335.2334   20912337.6634   20912334.6924
       240.0004        195.0004
 11 10  9 18 27 30.0000000  0  9G23G17G28G32G19G01G14G11G20
  -1867753.21149   -349762.44449  24908977.1124   24908979.1914   24908976.8424
       203.0004        133.0004
  -9130985.68149  -7097919.36749  23200607.6234   23200610.5034   23200608.5974
       221.0004        165.0004
  -4619398.68549  -3586824.48049  24021633.1244   24021631.6414   24021634.1054
       209.0004        134.0004
 -21679801.97549 -16877205.68249  20392740.3624   20392742.4684   20392739.2874
       243.0004        200.0004
  -3062865.53549  -2352280.06949  24105173.9994   24105177.8404   24105172.5754
       216.0004        152.0004
 -15058003.45249 -11716217.54449  20190122.0154   20190128.2204   20190122.0024
       245.0004        211.0004
  -3503636.34949  -2335766.92749  23050865.3294   23050867.5064   23050865.4534
       220.0004        157.0004
 -20571582.90749 -15749293.72449  20480565.7574   20480567.8174   20480565.8294
       240.0004        199.0004
 -20852975.83849 -15675275.92149  20900800.2364   20900802.7174   20900799.4684
       240.0004        194.0004
 11 10  9 18 28  0.0000000  0  9G23G17G28G32G19G01G14G11G20
  -1981164.36449   -438134.45649  24887396.1074   24887402.7664   24887394.9174
       200.0004        133.0004
  -9216148.96749  -7164280.31849  23184401.7034   23184404.2194   23184399.9494
       220.0004        163.0004
  -4563791.31849  -3543494.02349  24032214.5884   24032217.8664   24032214.0624
       210.0004        140.0004
 -21678554.41549 -16876233.53649  20392976.6874   20392980.1794   20392976.1414
       242.0004        200.0004
  -2951435.49049  -2265451.54449  24126377.6844   24126380.0354   24126377.3234
       216.0004        152.0004
 -15063223.05849 -11720284.76249  20189129.2504   20189134.8534   20189129.3184
       246.0004        211.0004
  -3439630.69049  -2285892.37349  23063044.5084   23063047.5344   23063044.9404
       220.0004        157.0004
 -20525497.93749 -15713383.37549  20489335.6704   20489337.5854   20489335.6754
       241.0004        199.0004
 -20913205.81349 -15722208.34749  20889338.6774   20889341.0544   20889338.2374
       241.0004        195.0004
 11 10  9 18 28 30.0000000  0  9G23G17G28G32G19G01G14G11G20
  -2094570.90049   -526503.08049  24865819.1744   24865824.7524   24865819.5244
       210.0004        130.0004
  -9300966.03349  -7230371.51549  23168260.4034   23168262.8334   23168261.3364
       222.0004        164.0004
  -4507796.91449  -3499862.07149  24042868.7854   24042871.8534   24042869.5964
       206.0004        136.0004
 -21676848.76849 -16874904.45049  20393301.1104   20393304.9024   20393301.5324
       242.0004        201.0004
  -2839893.63049  -2178535.82649  24147604.6674   24147606.3954   24147602.8814
       216.0004        148.0004
 -15068017.36449 -11724020.57649  20188217.1954   20188222.4744   20188217.0674
       246.0004        211.0004
  -3375162.27449  -2235657.22549  23075312.3804   23075315.2864   23075313.6504
       219.0004        155.0004
 -20478962.47949 -15677121.99549  20498190.8254   20498192.6654   20498190.8634
       241.0004        199.0004
 -20973047.04749 -15768837.85549  20877951.4034   20877953.9824   20877951.0664
       241.0004        195.0004
 11 10  9 18 29  0.0000000  0  9G23G17G28G32G19G01G14G11G20
  -2207970.44849   -614866.21849  24844238.3514   24844240.2724   24844236.7464
       199.0004        132.0004
  -9385434.47549  -7296191.07349  23152188.1794   23152189.4754   23152187.8744
       222.0004        163.0004
  -4451417.63149  -3455930.25949  24053600.7614   24053601.8874   24053599.0664
       211.0004        138.0004
 -21674685.83949 -16873219.02049  20393713.4454   20393716.1374   20393712.8284
       243.0004        201.0004
  -2728242.20649  -2091534.74849  24168853.8294   24168852.2214   24168851.0304
       218.0004        150.0004
 -15072385.92349 -11727424.63349  20187385.9184   20187391.2734   20187385.5854
       246.0004        211.0004
  -3310233.59149  -2185063.44749  23087668.8984   23087670.1654   23087669.4094
       221.0004        153.0004
 -20431977.32949 -15640510.20449  20507131.2624   20507133.8344   20507131.6044
       240.0004        199.0004
 -21032498.58249 -15815163.69949  20866637.8544   20866640.6234   20866637.3324
       241.0004        195.0004
 11 10  9 18 29 30.0000000  0  9G23G17G28G32G19G01G14G11G20
  -2321360.68249   -703221.98649  24822658.9614   24822665.4274   24822658.6074
       204.0004        134.0004
  -9469551.57649  -7361736.84149  23136180.4624   23136182.4744   23136180.2994
       220.0004        163.0004
  -4394655.98949  -3411700.40049  24064401.6804   24064403.2814   24064401.5504
       211.0004        140.0004
 -21672066.25849 -16871177.77449  20394212.0514   20394214.9384   20394211.6044
       243.0004        200.0004
  -2616483.41449  -2004450.03049  24190119.9794   24190120.1094   24190117.3064
       217.0004        152.0004
 -15076327.81949 -11730496.22949  20186634.9214   20186641.3464   20186635.1544
       245.0004        211.0004
  -3244846.51849  -2134112.45149  23100111.7254   23100113.4514   23100112.0014
       221.0004        155.0004
 -20384543.35849 -15603548.68449  20516157.6054   20516160.0524   20516157.9604
       240.0004        198.0004
 -21091559.62649 -15861185.27749  20855398.8584   20855401.5994   20855398.2404
       240.0004        195.0004
 11 10  9 18 30  0.0000000  0  9G23G17G28G32G19G01G14G11G20
  -2434739.59849   -791569.01449  24801085.9374   24801088.2634   24801086.0814
       208.0004        133.0004
  -9553314.85449  -7427006.90049  23120239.0144   23120243.5744   23120241.2924
       220.0004        165.0004
  -4337514.60149  -3367174.65949  24075272.4994   24075276.3534   24075272.2734
       206.0004        139.0004
 -21668991.18849 -16868781.58749  20394797.3384   20394800.2234   20394796.7374
       243.0004        201.0004
  -2504619.71349  -1917283.57849  24211404.7464   24211406.9624   24211401.9774
       213.0004        148.0004
 -15079842.71549 -11733235.09149  20185966.7784   20185972.2684   20185966.8544
       246.0004        211.0004
  -3179003.52449  -2082806.21849  23112640.8224   23112643.2394   23112640.3644
       220.0004        154.0004
 -20336661.37349 -15566238.05049  20525269.8214   20525272.0644   20525269.6654
       240.0004        198.0004
 -21150229.53349 -15906902.06149  20844234.3294   20844236.7194   20844234.2664
       241.0004        195.0004
 11 10  9 18 30 30.0000000  0  9G23G17G28G32G19G01G14G11G20
  -2548104.56849   -879905.23349  24779511.1814   24779513.5014   24779512.4184
       204.0004        131.0004
  -9636721.82049  -7491999.28749  23104368.9144   23104371.8314   23104368.6014
       220.0004        165.0004
  -4279995.67349  -3322354.77249  24086218.1794   24086222.3284   24086216.5654
       205.0004        137.0004
 -21665461.27249 -16866030.98249  20395467.8244   20395471.5314   20395467.9484
       242.0004        200.0004
  -2392652.99549  -1830036.81349  24232710.2284   24232712.2934   24232710.6114
       213.0004        147.0004
 -15082929.95449 -11735640.71949  20185378.8594   20185384.7604   20185379.0854
       246.0004        211.0004
  -3112706.74749  -2031146.38449  23125256.9824   23125259.9164   23125255.9954
       218.0004        155.0004
 -20288332.16649 -15528578.94449  20534466.6874   20534468.6374   20534466.3854
       240.0004        198.0004
 -21208507.42249 -15952313.37449  20833144.5414   20833146.8334   20833144.3134
       241.0004        196.0004
 11 10  9 18 31  0.0000000  0  9G23G17G28G32G19G01G14G11G20
  -2661453.08949   -968228.61549  24757942.5314   24757945.6484   24757942.3554
       209.0004        136.0004
  -9719769.57449  -7556711.79049  23088564.8354   23088567.6224   23088565.5344
       220.0004        164.0004
  -4222101.58649  -3277242.54549  24097237.2754   24097236.6554   24097238.3494
       207.0004        133.0004
 -21661477.32649 -16862926.58649  20396226.5954   20396229.8944   20396226.3444
       243.0004        200.0004
  -2280585.29449  -1742711.34849  24254035.2094   24254039.1214   24254035.0054
       207.0004        147.0004
 -15085588.72849 -11737712.48949  20184872.8194   20184878.7924   20184872.8164
       245.0004        211.0004
  -3045957.79549  -1979134.21449  23137957.8674   23137960.5474   23137959.4634
       219.0004        154.0004
 -20239556.44349 -15490571.88849  20543748.2374   20543750.2114   20543747.9734
       240.0004        197.0004
 -21266392.14349 -15997418.31249  20822129.3284   20822131.5464   20822129.0844
       241.0004        196.0004
 11 10  9 18 31 30.0000000  0  9G23G17G28G32G19G01G14G11G20
  -2774783.42649  -1056537.83849  24736375.1144   24736379.2844   24736374.6214
       208.0004        137.0004
  -9802456.40049  -7621143.06849  23072829.9204   23072833.1174   23072831.0884
       221.0004        165.0004
  -4163835.68749  -3231840.56849  24108324.2844   24108327.4484   24108323.9424
       206.0004        137.0004
 -21657040.87549 -16859469.59049  20397071.0784   20397073.7024   20397070.4534
       242.0004        201.0004
  -2168419.44749  -1655309.48249  24275379.3624   24275384.5584   24275381.4214
       209.0004        147.0004
 -15087819.16249 -11739450.48749  20184449.3664   20184454.4444   20184448.7834
       247.0004        211.0004
  -2978760.03049  -1926772.31549  23150743.8384   23150748.6394   23150745.5254
       215.0004        154.0004
 -20190335.83849 -15452218.18249  20553114.0384   20553116.9574   20553114.1754
       240.0004        197.0004
 -21323883.86149 -16042217.03549  20811189.0214   20811190.9864   20811188.6004
       241.0004        196.0004
 11 10  9 18 32  0.0000000  0  9G23G17G28G32G19G01G14G11G20
  -2888092.69449  -1144830.64949  24714815.2894   24714818.3184   24714813.1224
       205.0004        134.0004
  -9884778.73249  -7685290.30349  23057163.9534   23057167.4584   23057164.7464
       220.0004        165.0004
  -4105199.13849  -3186149.79849  24119480.5144   24119486.8664   24119482.3284
       210.0004        138.0004
 -21652151.89749 -16855659.98149  20398001.2414   20398004.0714   20398001.1174
       242.0004        201.0004
  -2056156.82049  -1567832.14749  24296742.1304   24296748.0964   24296743.3914
       208.0004        143.0004
 -15089619.80849 -11740853.58049  20184106.6174   20184111.9994   20184106.1964
       246.0004        211.0004
  -2911114.80349  -1874061.74749  23163619.9934   23163621.5434   23163618.5454
       219.0004        155.0004
 -20140670.37649 -15413517.83649  20562565.5984   20562567.9764   20562565.7124
       240.0004        197.0004
 -21380980.85449 -16086708.17449  20800323.8164   20800326.2544   20800323.1814
       241.0004        196.0004
 11 10  9 18 32 30.0000000  0  9G23G17G28G32G19G01G14G11G20
  -3001378.79349  -1233105.43649  24693255.6994   24693261.5014   24693257.2704
       210.0004        135.0004
  -9966734.38349  -7749151.81449  23041567.9864   23041573.5844   23041568.4004
       221.0004        166.0004
  -4046195.05949  -3140172.68149  24130712.1634   24130713.9414   24130709.0614
       209.0004        139.0004
 -21646811.76949 -16851498.81949  20399017.7084   20399020.6454   20399017.4044
       243.0004        201.0004
  -1943800.11449  -1480281.47949  24318123.0304   24318126.4664   24318123.4494
       208.0004        140.0004
 -15090990.46249 -11741921.61249  20183845.2224   20183851.0304   20183845.3734
       246.0004        211.0004
  -2843024.65149  -1821004.46749  23176574.9064   23176577.6364   23176575.0174
       218.0004        153.0004
 -20090561.19349 -15374471.73349  20572100.8904   20572103.2144   20572100.8534
       240.0004        196.0004
 -21437682.66249 -16130891.37549  20789533.1824   20789535.8994   20789533.4254
       240.0004        197.0004
 11 10  9 18 33  0.0000000  0  9G23G17G28G32G19G01G14G11G20
  -3114639.39049  -1321360.43449  24671702.6794   24671705.5414   24671702.9874
       206.0004        138.0004
 -10048321.18249  -7812725.91949  23026044.7614   23026046.7144   23026044.5914
       224.0004        167.0004
  -3986826.15749  -3093911.25349  24142007.0414   24142009.5724   24142008.8294
       206.0004        136.0004
 -21641021.46849 -16846986.87649  20400119.4124   20400122.0624   20400118.9934
       242.0004        200.0004
  -1831351.47949  -1392659.20049  24339521.1104   24339526.6334   24339522.6674
       208.0004        145.0004
 -15091930.79049 -11742654.32649  20183665.9654   20183671.8724   20183666.2944
       246.0004        211.0004
  -2774492.14549  -1767602.52649  23189615.5844   23189619.2464   23189615.0074
       216.0004        152.0004
 -20040009.30149 -15335080.65049  20581721.2924   20581722.6764   20581720.9534
       240.0004        196.0004
 -21493989.05249 -16174766.46249  20778819.3434   20778821.1374   20778818.6294
       241.0004        196.0004
 11 10  9 18 33 30.0000000  0  9G23G17G28G32G19G01G14G11G20
  -3227872.55949  -1409593.91049  24650155.2494   24650157.7674   24650156.0154
       207.0004        136.0004
 -10129536.57349  -7876010.61849  23010589.5944   23010591.9194   23010589.7444
       224.0004        167.0004
  -3927094.67549  -3047367.30249  24153374.4084   24153374.9484   24153372.2134
       203.0004        131.0004
 -21634781.96049 -16842124.90549  20401306.3114   20401309.6974   20401306.1584
       242.0004        200.0004
  -1718813.36849  -1304967.19549  24360936.1774   24360941.1804   24360936.3244
       207.0004        142.0004
 -15092440.16549 -11743051.22949  20183569.6304   20183575.0964   20183569.6974
       247.0004        211.0004
  -2705519.29649  -1713857.46349  23202742.2134   23202743.7984   23202742.2074
       218.0004        153.0004
 -19989015.76049 -15295345.42749  20591424.4494   20591426.8334   20591424.5514
       240.0004        196.0004
 -21549899.00549 -16218332.63649  20768179.4134   20768181.9354   20768179.2634
       240.0004        197.0004
 11 10  9 18 34  0.0000000  0  9G23G17G28G32G19G01G14G11G20
  -3341075.05049  -1497803.55049  24628614.3204   24628619.3044   24628614.1184
       211.0004        135.0004
 -10210377.42849  -7939003.48149  22995206.2684   22995208.3664   22995206.3554
       226.0004        168.0004
  -3867003.06449  -3000542.69849  24164809.2774   24164810.4924   24164810.4244
       204.0004        133.0004
 -21628093.66149 -16836913.22649  20402579.3634   20402582.6294   20402578.9104
       242.0004        200.0004
  -1606187.43349  -1217206.76949  24382368.3094   24382372.7824   24382366.2714
       201.0004        140.0004
 -15092517.65149 -11743111.60249  20183555.2164   20183560.4574   20183554.8104
       246.0004        211.0004
  -2636108.05249  -1659770.76349  23215949.6074   23215952.8784   23215949.9094
       219.0004        155.0004
 -19937580.87249 -15255266.32049  20601212.2114   20601214.3604   20601212.2154
       239.0004        196.0004
 -21605411.32749 -16261588.97549  20757615.7604   20757618.1684   20757615.4314
       241.0004        196.0004
 11 10  9 18 34 30.0000000  0  9G23G17G28G32G19G01G14G11G20
  -3454245.25649  -1585988.07549  24607080.7384   24607081.1004   24607080.5044
       212.0004        139.0004
 -10290842.43249  -8001703.44949  22979893.6524   22979897.0184   22979893.6104
       225.0004        168.0004
  -3806554.32849  -2953439.81749  24176312.4304   24176317.0834   24176312.1844
       209.0004        139.0004
 -21620958.35349 -16831353.23149  20403936.1204   20403940.1024   20403936.3984
       241.0004        200.0004
  -1493476.36249  -1129379.98449  24403819.6544   24403820.6144   24403818.7874
       212.0004        142.0004
 -15092163.39549 -11742835.54449  20183622.3374   20183627.7614   20183622.4304
       246.0004        211.0004
  -2566261.25849  -1605344.63849  23229242.0054   23229243.6644   23229241.3684
       219.0004        156.0004
 -19885706.27649 -15214844.57049  20611083.9014   20611086.0464   20611083.7664
       240.0004        197.0004
 -21660525.90149 -16304535.34549  20747128.5524   20747130.5354   20747127.4114
       241.0004        196.0004
 11 10  9 18 35  0.0000000  0  9G23G17G28G32G19G01G14G11G20
  -3567380.35449  -1674145.20949  24585548.9424   24585553.2544   24585547.8424
       205.0004        138.0004
 -10370927.90549  -8064107.69449  22964654.0954   22964656.0764   22964655.1514
       224.0004        168.0004
  -3745750.45549  -2906060.26749  24187884.6914   24187887.1824   24187883.2564
       208.0004        138.0004
 -21613376.22949 -16825445.07749  20405380.4724   20405382.9714   20405379.9474
       243.0004        200.0004
  -1380682.13649  -1041488.41249  24425281.2984   24425285.3854   24425280.2944
       206.0004        142.0004
 -15091376.28549 -11742222.20049  20183771.3424   20183777.5274   20183771.3454
       245.0004        211.0004
  -2495980.69349  -1550580.54849  23242615.9144   23242618.2924   23242615.4154
       219.0004        155.0004
 -19833392.56649 -15174080.66149  20621038.3814   20621041.3694   20621038.6704
       239.0004        196.0004
 -21715241.50549 -16347170.85749  20736715.4444   20736718.1384   20736715.6244
       240.0004        197.0004
 11 10  9 18 35 30.0000000  0  9G23G17G28G32G19G01G14G11G20
  -3680478.28749  -1762273.27849  24564028.8144   24564031.7414   24564027.7264
       212.0004        139.0004
 -10450631.74249  -8126214.55749  22949486.0934   22949489.8424   22949487.4134
       225.0004        169.0004
  -3684594.42249  -2858406.31549  24199520.9054   24199523.6444   24199521.1724
       205.0004        133.0004
 -21605348.75549 -16819189.88949  20406907.1254   20406910.1464   20406906.7014
       241.0004        199.0004
  -1267807.20849   -953534.00249  24446761.9954   24446765.1294   24446761.9694
       211.0004        145.0004
 -15090156.05949 -11741271.36849  20184004.5524   20184009.7604   20184004.1174
       247.0004        212.0004
  -2425268.97849  -1495480.48349  23256069.9064   23256072.8534   23256070.4434
       215.0004        154.0004
 -19780640.79449 -15132975.38649  20631076.9944   20631079.1564   20631077.3504
       240.0004        196.0004
 -21769557.83449 -16389495.24749  20726379.4234   20726382.2904   20726379.4184
       240.0004        197.0004
 11 10  9 18 36  0.0000000  0  9G23G17G28G32G19G01G14G11G20
  -3793536.52249  -1850370.54049  24542515.3344   24542517.0024   24542511.1144
       208.0004        136.0004
 -10529950.90449  -8188021.68249  22934394.0754   22934395.4644   22934394.0244
       228.0004        170.0004
  -3623088.17449  -2810479.42049  24211223.9104   24211225.2314   24211224.4184
       200.0004        130.0004
 -21596876.31649 -16812587.98049  20408519.1604   20408522.5704   20408519.1004
       242.0004        199.0004
  -1154852.95249   -865517.72449  24468256.1784   24468257.9664   24468254.3974
       211.0004        139.0004
 -15088501.89849 -11739982.40249  20184319.2664   20184324.4594   20184319.0924
       247.0004        211.0004
  -2354128.06449  -1440046.02049  23269608.8514   23269610.5614   23269608.6234
       216.0004        153.0004
 -19727451.66949 -15091529.32549  20641198.8174   20641200.8994   20641198.5014
       239.0004        196.0004
 -21823473.63549 -16431507.55149  20716120.0314   20716122.4454   20716119.4374
       240.0004        197.0004
 11 10  9 18 36 30.0000000  0  9G23G17G28G32G19G01G14G11G20
  -3906552.85749  -1938435.10849  24521006.4234   24521010.0774   24521007.2804
       211.0004        139.0004
 -10608883.51349  -8249527.58249  22919373.0204   22919375.2174   22919372.8704
       227.0004        169.0004
  -3561234.73649  -2762281.93949  24222996.6204   24223000.0314   24222996.6494
       210.0004        134.0004
 -21587960.37049 -16805640.48649  20410217.0674   20410219.4694   20410216.2364
       242.0004        200.0004
  -1041822.05549   -777441.68349  24489767.5604   24489769.6234   24489765.6774
       211.0004        144.0004
 -15086413.57449 -11738355.12449  20184716.1504   20184721.7954   20184715.9854
       246.0004        211.0004
  -2282560.37149  -1384278.99049  23283227.9104   23283230.0694   23283227.1804
       216.0004        152.0004
 -19673826.46149 -15049743.46149  20651403.0234   20651405.4564   20651402.9074
       239.0004        196.0004
 -21876988.58449 -16473207.50449  20705935.7654   20705938.9184   20705935.7324
       239.0004        196.0004
 11 10  9 18 37  0.0000000  0  9G23G17G28G32G19G01G14G11G20
  -4019524.88149  -2026465.08049  24499509.5774   24499513.0294   24499508.9374
       210.0004        141.0004
 -10687427.07849  -8310730.34049  22904426.3954   22904429.9554   22904425.8524
       226.0004        170.0004
  -3499036.75449  -2713815.99149  24234832.1904   24234834.2714   24234832.9604
       210.0004        136.0004
 -21578601.77449 -16798348.06949  20411996.9624   20412000.1884   20411996.5714
       241.0004        199.0004
   -928716.88849   -689307.88449  24511289.1344   24511292.7684   24511287.3734
       211.0004        143.0004
 -15083890.67249 -11736389.19849  20185195.5384   20185202.0434   20185195.5114
       246.0004        211.0004
  -2210568.61449  -1328181.50449  23296927.4674   23296929.9634   23296926.1734
       216.0004        153.0004
 -19619766.10949 -15007618.54549  20661690.4854   20661692.2624   20661690.6504
       240.0004        196.0004
 -21930102.18449 -16514594.69649  20695828.9434   20695831.3614   20695828.1374
       240.0004        197.0004
 11 10  9 18 37 30.0000000  0  9G23G17G28G32G19G01G14G11G20
  -4132450.05349  -2114458.60049  24478022.1694   24478022.6214   24478021.7084
       209.0004        135.0004
 -10765578.45149  -8371627.48249  22889554.1524   22889556.8724   22889554.3384
       226.0004        169.0004
  -3436496.31149  -2665083.21049  24246730.3894   24246737.0414   24246729.4754
       199.0004        133.0004
 -21568801.17049 -16790711.21949  20413862.2714   20413865.1284   20413862.2144
       242.0004        200.0004
   -815539.10049   -601117.44449  24532828.1874   24532828.2784   24532826.3714
       214.0004        145.0004
 -15080932.17749 -11734083.87849  20185760.2084   20185764.7864   20185759.7864
       248.0004        211.0004
  -2138154.35449  -1271754.79449  23310707.0904   23310710.0144   23310706.6304
       217.0004        153.0004
 -19565271.12449 -14965154.96049  20672061.0394   20672063.0364   20672060.8594
       239.0004        195.0004
 -21982813.20349 -16555668.17049  20685797.1744   20685801.2034   20685797.2564
       236.0004        196.0004
 11 10  9 18 38  0.0000000  0  9G23G17G28G32G19G01G14G11G20
  -4245326.58449  -2202414.21849  24456542.7404   24456543.4114   24456540.3094
       211.0004        139.0004
 -10843336.32149  -8432218.00149  22874757.0754   22874760.0324   22874757.3094
       227.0004        169.0004
  -3373617.13849  -2616086.64449  24258696.6754   24258703.7364   24258695.3194
       198.0004        132.0004
 -21558560.43949 -16782731.41549  20415811.1534   20415814.1194   20415810.5154
       242.0004        200.0004
   -702291.72049   -512872.70249  24554377.2464   24554378.7024   24554376.0284
       211.0004        142.0004
 -15077538.58549 -11731439.51249  20186405.1584   20186410.6934   20186405.1494
       246.0004        211.0004
  -2065321.06249  -1215001.55149  23324566.5074   23324570.0684   23324567.5154
       218.0004        154.0004
 -19510343.54449 -14922354.24949  20682512.5144   20682515.1544   20682512.6154
       239.0004        196.0004
 -22035121.83949 -16596428.09549  20675843.8284   20675846.9934   20675843.5304
       237.0004        197.0004
 11 10  9 18 38 30.0000000  0  9G23G17G28G32G19G01G14G11G20
  -4358151.47849  -2290329.57749  24435071.8054   24435073.7804   24435071.4314
       211.0004        140.0004
 -10920697.38449  -8492499.34049  22860035.6904   22860039.4794   22860036.9994
       228.0004        169.0004
  -3310401.05349  -2566827.44249  24270728.8234   24270729.1494   24270728.0584
       210.0004        136.0004
 -21547879.91649 -16774408.91649  20417842.4654   20417846.4324   20417842.6644
       241.0004        199.0004
   -588976.39949   -424575.12849  24575940.1134   24575942.7774   24575937.7064
       209.0004        142.0004
 -15073708.75449 -11728455.22349  20187133.8734   20187139.6264   20187133.8524
       246.0004        211.0004
  -1992070.50149  -1157923.17249  23338505.6264   23338508.4494   23338506.0134
       217.0004        153.0004
 -19454983.48549 -14879216.54449  20693047.2924   20693049.6874   20693047.5044
       241.0004        196.0004
 -22087026.82349 -16636873.49849  20665966.2834   20665969.6804   20665966.5714
       237.0004        196.0004
 11 10  9 18 39  0.0000000  0  9G23G17G28G32G19G01G14G11G20
  -4470923.10749  -2378203.41449  24413612.1184   24413614.5444   24413612.7494
       208.0004        136.0004
 -10997659.22549  -8552469.59749  22845390.6524   22845393.3244   22845391.0784
       224.0004        170.0004
  -3246850.69549  -2517307.66749  24282820.9464   24282819.2834   24282820.8884
       207.0004        131.0004
 -21536761.00149 -16765744.81149  20419959.2314   20419961.9304   20419958.6414
       242.0004        199.0004
   -475595.52249   -336226.42149  24597517.5074   24597517.0094   24597514.5814
       217.0004        148.0004
 -15069442.46349 -11725130.83849  20187945.3294   20187951.1964   20187945.4484
       246.0004        211.0004
  -1918404.89949  -1100521.42349  23352524.3004   23352527.0354   23352524.0294
       217.0004        152.0004
 -19399192.49249 -14835743.06149  20703664.5284   20703666.2314   20703664.2114
       242.0004        196.0004
 -22138527.67149 -16677004.01549  20656167.4204   20656169.6884   20656167.1804
       238.0004        197.0004
 11 10  9 18 39 30.0000000  0  9G23G17G28G32G19G01G14G11G20
  -4583638.13249  -2466033.19749  24392161.3664   24392164.5474   24392162.0154
       212.0004        137.0004
 -11074219.06449  -8612126.59049  22830821.2154   22830824.4104   22830822.7984
       227.0004        171.0004
  -3182968.31849  -2467529.17149  24294976.6424   24294978.5524   24294976.8654
       201.0004        131.0004
 -21525204.16549 -16756739.47149  20422158.2464   20422161.0544   20422157.5414
       241.0004        199.0004
   -362150.96049   -247828.09249  24619105.4184   24619106.4814   24619101.4554
       211.0004        140.0004
 -15064738.80149 -11721465.64949  20188841.2464   20188846.3324   20188840.7264
       246.0004        211.0004
  -1844326.41849  -1042797.91549  23366621.4834   23366623.4114   23366621.4444
       218.0004        151.0004
 -19342971.03649 -14791934.14849  20714362.8994   20714364.8614   20714363.0234
       242.0004        196.0004
 -22189622.96649 -16716818.51449  20646444.8984   20646446.2934   20646443.3254
       239.0004        197.0004
 11 10  9 18 40  0.0000000  0  9G23G17G28G32G19G01G14G11G20
  -4696294.73349  -2553817.47649  24370723.9564   24370725.6994   24370723.4854
       211.0004        140.0004
 -11150374.89749  -8671468.76949  22816329.9694   22816333.0964   22816330.2484
       227.0004        170.0004
  -3118757.17949  -2417494.60049  24307195.2894   24307200.1584   24307193.3374
       201.0004        132.0004
 -21513210.67949 -16747393.89049  20424440.3234   20424443.4714   20424440.2764
       241.0004        199.0004
   -248644.80349   -159381.78549  24640704.7984   24640703.8394   24640702.2444
       213.0004        142.0004
 -15059597.70749 -11717459.60649  20189818.8854   20189824.7264   20189818.8994
       246.0004        210.0004
  -1769837.58749   -984754.65149  23380795.3214   23380797.0984   23380795.2104
       217.0004        152.0004
 -19286320.53449 -14747790.92949  20725143.4384   20725145.2064   20725143.3734
       243.0004        195.0004
 -22240312.67949 -16756316.98149  20636797.8414   20636799.9924   20636797.7614
       238.0004        197.0004
 11 10  9 18 40 30.0000000  0  9G23G17G28G32G19G01G14G11G20
  -4808890.98849  -2641554.68449  24349296.7944   24349300.7304   24349294.8474
       211.0004        142.0004
 -11226124.19949  -8730494.18749  22801915.7444   22801918.1654   22801915.6964
       227.0004        170.0004
  -3054219.81549  -2367205.83549  24319477.7224   24319481.6254   24319478.4864
       206.0004        137.0004
 -21500781.95749 -16737709.14749  20426806.3364   20426808.7984   20426805.6394
       242.0004        200.0004
   -135079.88249    -70889.66549  24662315.3454   24662315.6984   24662312.9664
       211.0004        145.0004
 -15054018.79049 -11713112.39049  20190880.2294   20190886.2144   20190880.2644
       246.0004        210.0004
  -1694941.15449   -926393.76749  23395047.5774   23395049.1924   23395047.0804
       216.0004        150.0004
 -19229242.06549 -14703314.19949  20736004.9784   20736007.3864   20736004.7424
       242.0004        196.0004
 -22290596.85949 -16795499.44649  20627229.1504   20627231.6484   20627228.7354
       238.0004        197.0004
 11 10  9 18 41  0.0000000  0  9G23G17G28G32G19G01G14G11G20
  -4921424.03649  -2729242.67849  24327882.2174   24327885.1854   24327884.2914
       214.0004        141.0004
 -11301464.29549  -8789200.75349  22787577.8524   22787580.8464   22787578.3824
       225.0004        170.0004
  -2989358.77849  -2316664.85549  24331820.1514   24331822.8904   24331820.9704
       209.0004        138.0004
 -21487918.74249 -16727685.84249  20429253.4894   20429256.2264   20429252.8084
       241.0004        199.0004
    -21458.13049     17646.72449  24683935.5514   24683935.5914   24683934.6264
       211.0004        144.0004
 -15048001.42749 -11708423.53449  20192025.6574   20192031.4764   20192025.9404
       246.0004        211.0004
  -1619639.56549   -867717.18849  23409376.9274   23409380.0404   23409377.7584
       216.0004        151.0004
 -19171736.47349 -14658504.67149  20746947.9154   20746949.9694   20746947.9884
       243.0004        196.0004
 -22340474.10249 -16834364.81349  20617738.1984   20617740.1254   20617737.6504
       239.0004        197.0004
 11 10  9 18 41 30.0000000  0  9G23G17G28G32G19G01G14G11G20
  -5033891.48349  -2816879.61449  24306478.4834   24306482.0684   24306479.8674
       207.0004        138.0004
 -11376393.12149  -8847586.81849  22773319.3694   22773322.7344   22773320.2924
       224.0004        170.0004
  -2924176.94449  -2265873.81349  24344224.1844   24344226.9904   24344224.8464
       206.0004        133.0004
 -21474622.15449 -16717324.84949  20431783.3274   20431786.7624   20431783.2564
       241.0004        200.0004
     92218.35749    106225.75849  24705566.4684   24705569.1014   24705564.2624
       204.0004        138.0004
 -15041545.33449 -11703392.80249  20193254.3754   20193259.9424   20193254.2324
       246.0004        211.0004
  -1543934.90949   -808726.54649  23423784.2934   23423787.0214   23423783.0064
       217.0004        153.0004
 -19113805.20749 -14613363.43149  20757972.0084   20757973.8164   20757971.9134
       243.0004        195.0004
 -22389943.65649 -16872912.49349  20608324.5804   20608326.3894   20608323.9234
       239.0004        198.0004
 11 10  9 18 42  0.0000000  0  9G23G17G28G32G19G01G14G11G20
  -5146291.28749  -2904463.78949  24285090.6314   24285094.0004   24285090.3814
       212.0004        140.0004
 -11450908.02049  -8905650.35949  22759140.1644   22759143.2054   22759140.5334
       224.0004        171.0004
  -2858677.22849  -2214835.07249  24356687.9724   24356694.4424   24356688.2784
       202.0004        129.0004
 -21460893.45249 -16706627.15649  20434395.6114   20434399.6684   20434395.2584
       240.0004        199.0004
    205947.41349    194845.73849  24727210.5534   24727211.7584   24727210.7234
       210.0004        138.0004
 -15034650.30549 -11698020.04849  20194565.9544   20194571.7354   20194566.1174
       246.0004        210.0004
  -1467829.91349   -749423.98049  23438266.3444   23438267.8094   23438266.4144
       217.0004        152.0004
 -19055449.37849 -14567891.38949  20769076.8864   20769079.0924   20769077.0354
       243.0004        196.0004
 -22439005.70349 -16911142.64949  20598988.1134   20598990.5934   20598987.3244
       239.0004        198.0004
 11 10  9 18 42 30.0000000  0  9G23G17G28G32G19G01G14G11G20
  -5258620.47849  -2991992.95449  24263716.3204   24263718.4504   24263716.7164
       212.0004        145.0004
 -11525006.41449  -8963389.32549  22745039.8784   22745042.6054   22745039.7254
       224.0004        170.0004
  -2792861.54949  -2163550.21549  24369212.0714   24369216.4464   24369211.1824
       206.0004        132.0004
 -21446733.17549 -16695593.16649  20437091.3374   20437093.8914   20437091.0094
       242.0004        200.0004
    319727.23749    283505.32749  24748859.9174   24748864.0504   24748858.6134
       206.0004        141.0004
 -15027315.33349 -11692304.47049  20195962.3484   20195967.7224   20195962.2974
       247.0004        210.0004
  -1391326.35849   -689810.80149  23452824.6354   23452825.8194   23452824.4604
       218.0004        149.0004
 -18996669.45149 -14522088.85249  20780261.6214   20780264.2294   20780262.1874
       243.0004        195.0004
 -22487658.82449 -16949054.15549  20589729.3034   20589731.9974   20589729.1884
       239.0004        198.0004
 11 10  9 18 43  0.0000000  0  9G23G17G28G32G19G01G14G11G20
  -5370876.87049  -3079465.38649  24242350.4374   24242355.6384   24242353.3074
       208.0004        137.0004
 -11598686.05749  -9020802.00649  22731018.5284   22731020.9854   22731019.3904
       225.0004        171.0004
  -2726732.94249  -2112021.45749  24381796.4034   24381800.7714   24381796.7334
       207.0004        136.0004
 -21432142.74349 -16684223.97149  20439867.9124   20439870.4084   20439867.0934
       243.0004        200.0004
    433555.14249    372202.38649  24770522.5534   24770524.8134   24770519.9654
       208.0004        137.0004
 -15019540.38649 -11686246.05949  20197442.0754   20197447.0624   20197442.0934
       246.0004        211.0004
  -1314427.08449   -629889.24949  23467456.8544   23467458.8104   23467457.1544
       215.0004        146.0004
 -18937466.85049 -14475956.95749  20791528.3564   20791529.8394   20791527.8804
       242.0004        195.0004
 -22535902.96849 -16986646.98149  20580549.2054   20580550.8964   20580548.7544
       239.0004        198.0004
 11 10  9 18 43 30.0000000  0  9G23G17G28G32G19G01G14G11G20
  -5483058.06649  -3166879.27149  24221004.4834   24221008.6274   24221006.5224
       212.0004        142.0004
 -11671944.02049  -9077886.11349  22717079.2354   22717080.9084   22717077.7964
       227.0004        172.0004
  -2660293.80349  -2060250.76349  24394441.8614   24394442.2784   24394439.8194
       207.0004        138.0004
 -21417123.06249 -16672520.31249  20442725.1854   20442728.3614   20442724.6894
       242.0004        199.0004
    547429.36949    460935.49649  24792192.7994   24792195.2324   24792190.1634
       207.0004        135.0004
 -15011324.85349 -11679844.33649  20199005.0914   20199010.5744   20199005.2894
       246.0004        210.0004
  -1237134.32249   -569661.10749  23482165.4184   23482168.0144   23482166.1274
       214.0004        148.0004
 -18877842.50849 -14429496.43149  20802874.2944   20802875.9474   20802874.0124
       243.0004        195.0004
 -22583737.00949 -17023920.23949  20571446.8414   20571448.7574   20571446.1614
       240.0004        198.0004
 11 10  9 18 44  0.0000000  0  9G23G17G28G32G19G01G14G11G20
  -5595162.46949  -3254233.27949  24199675.3764   24199678.4144   24199675.4564
       215.0004        149.0004
 -11744778.99349  -9134640.60749  22703218.1354   22703220.4424   22703218.2504
       225.0004        172.0004
  -2593547.95149  -2008241.05449  24407139.8464   24407144.8654   24407139.2344
       200.0004        134.0004
 -21401676.03149 -16660483.65149  20445664.9474   20445667.8034   20445664.5254
       242.0004        199.0004
    661346.72049    549702.23549  24813869.5144   24813870.9664   24813867.1194
       206.0004        135.0004
 -15002669.23349 -11673099.69849  20200651.6604   20200657.6024   20200651.9514
       245.0004        210.0004
  -1159451.21349   -509128.80049  23496948.8394   23496950.2404   23496948.7304
       215.0004        148.0004
 -18817798.50549 -14382708.89549  20814300.1784   20814302.4474   20814300.0904
       243.0004        196.0004
 -22631161.44149 -17060874.33049  20562421.7414   20562424.3024   20562421.6934
       239.0004        199.0004
 11 10  9 18 44 30.0000000  0  9G23G17G28G32G19G01G14G11G20
  -5707186.71249  -3341524.84049  24178358.0714   24178358.4514   24178357.1224
       210.0004        141.0004
 -11817187.23749  -9191062.58649  22689439.6994   22689441.7494   22689439.6174
       225.0004        172.0004
  -2526496.67349  -1955993.32849  24419899.5844   24419904.6924   24419897.6654
       200.0004        129.0004
 -21385801.60249 -16648113.96049  20448685.2774   20448688.7144   20448685.4024
       242.0004        199.0004
    775306.24149    638501.83049  24835554.7294   24835558.4444   24835552.9264
       207.0004        138.0004
 -14993571.95149 -11666010.90949  20202382.8164   20202388.9794   20202383.1124
       246.0004        210.0004
  -1081378.85649   -448293.18549  23511805.2304   23511807.3414   23511804.9404
       216.0004        148.0004
 -18757334.45149 -14335594.06549  20825806.0244   20825808.1174   20825805.9084
       243.0004        195.0004
 -22678174.08649 -17097507.53349  20553476.0734   20553478.0134   20553475.7074
       240.0004        200.0004
 11 10  9 18 45  0.0000000  0  9G23G17G28G32G19G01G14G11G20
  -5819128.64849  -3428752.24849  24157054.8624   24157057.5834   24157054.7864
       217.0004        142.0004
 -11889167.16049  -9247150.80049  22675740.2374   22675745.1794   22675742.3174
       222.0004        172.0004
  -2459143.27449  -1903510.22949  24432717.4144   24432721.8854   24432717.6714
       207.0004        130.0004
 -21369501.51649 -16635412.57849  20451787.7044   20451790.1904   20451787.4394
       242.0004        199.0004
    889305.21849    727332.13749  24857248.1264   24857248.7564   24857244.8544
       207.0004        139.0004
 -14984033.20949 -11658578.11249  20204198.1134   20204204.0574   20204198.0954
       246.0004        210.0004
  -1002920.44749   -387156.74649  23526735.2244   23526736.6944   23526735.6464
       215.0004        147.0004
 -18696452.32349 -14288153.44549  20837391.2964   20837394.1144   20837391.3524
       242.0004        194.0004
 -22724775.32949 -17133820.15349  20544608.4764   20544610.6124   20544607.9044
       241.0004        200.0004
 11 10  9 18 45 30.0000000  0  9G23G17G28G32G19G01G14G11G20
  -5930986.26549  -3515913.97149  24135770.4474   24135771.9424   24135769.8964
       216.0004        149.0004
 -11960716.29449  -9302903.33949  22662127.2074   22662130.3644   22662126.0554
       227.0004        172.0004
  -2391491.08749  -1850794.22749  24445591.4024   24445593.9494   24445589.5444
       206.0004        134.0004
 -21352776.84049 -16622380.33849  20454969.8934   20454973.1404   20454969.4004
       241.0004        199.0004
   1003341.50549    816191.58049  24878949.5884   24878949.2164   24878947.5844
       207.0004        132.0004
 -14974052.77149 -11650801.14849  20206097.8014   20206103.4244   20206097.5804
       246.0004        210.0004
   -924078.64749   -325721.56349  23541737.6394   23541737.2464   23541737.1614
       214.0004        145.0004
 -18635153.48249 -14240388.12549  20849056.4314   20849058.4684   20849056.5054
       243.0004        195.0004
 -22770964.96449 -17169812.04149  20535818.7684   20535820.5064   20535818.2894
       241.0004        200.0004
 11 10  9 18 46  0.0000000  0  9G23G17G28G32G19G01G14G11G20
  -6042756.96749  -3603007.89949  24114500.5464   24114503.0994   24114498.9684
       214.0004        144.0004
 -12031831.88749  -9358318.06649  22648593.1544   22648597.0934   22648593.9674
       226.0004        174.0004
  -2323542.12049  -1797847.00549  24458521.7844   24458527.3234   24458520.5164
       207.0004        136.0004
 -21335628.69049 -16609018.14049  20458233.0234   20458236.1994   20458233.0394
       242.0004        199.0004
   1117413.05649    905078.53349  24900655.5054   24900658.8384   24900652.9204
       204.0004        132.0004
 -14963630.04449 -11642679.54349  20208080.8594   20208086.9574   20208080.8974
       246.0004        210.0004
   -844855.55549   -263989.29049  23556812.2764   23556816.3234   23556810.2474
       212.0004        145.0004
 -18573438.57549 -14192298.61249  20860800.8134   20860802.6424   20860800.7044
       243.0004        195.0004
 -22816741.99149 -17205482.42349  20527107.4474   20527109.3384   20527106.8044
       240.0004        200.0004
 11 10  9 18 46 30.0000000  0  9G23G17G28G32G19G01G14G11G20
  -6154438.28049  -3690032.20549  24093249.1904   24093250.1894   24093247.7054
       216.0004        143.0004
 -12102511.95449  -9413393.39749  22635144.1024   22635147.5334   22635143.6514
       227.0004        174.0004
  -2255299.13449  -1744670.76749  24471507.3134   24471511.1414   24471506.3244
       196.0004        133.0004
 -21318058.14749 -16595326.78549  20461577.5414   20461579.9274   20461576.5544
       242.0004        199.0004
   1231517.67749    993991.12049  24922369.4484   24922369.9724   24922367.7984
       202.0004        134.0004
 -14952764.73749 -11634213.05549  20210148.7064   20210154.1354   20210148.7854
       245.0004        210.0004
   -765253.72949   -201961.91649  23571961.7534   23571964.0764   23571961.1494
       214.0004        147.0004
 -18511308.97849 -14143885.93949  20872623.5344   20872625.5214   20872623.6234
       243.0004        195.0004
 -22862105.91949 -17240830.90449  20518474.8274   20518477.0614   20518474.2074
       240.0004        200.0004
 11 10  9 18 47  0.0000000  0  9G23G17G28G32G19G01G14G11G20
  -6266027.91549  -3776985.15249  24072013.1624   24072014.5154   24072012.9904
       216.0004        143.0004
 -12172753.82449  -9468127.29349  22621776.2134   22621780.8944   22621777.5434
       226.0004        174.0004
  -2186764.97849  -1691267.65849  24484546.1854   24484550.3124   24484546.6054
       193.0004        128.0004
 -21300066.28249 -16581307.14049  20465000.2084   20465003.4524   20464999.6974
       241.0004        199.0004
   1345653.11649   1082927.80349  24944088.2184   24944088.4504   24944085.6624
       201.0004        132.0004
 -14941456.59049 -11625401.51149  20212300.6604   20212305.9484   20212300.6254
       247.0004        210.0004
   -685275.73849   -139641.39049  23587182.5584   23587181.4284   23587181.6364
       216.0004        147.0004
 -18448765.63649 -14095150.88249  20884524.4304   20884527.4544   20884524.6374
       242.0004        194.0004
 -22907056.16549 -17275857.02549  20509920.6334   20509923.5714   20509919.6984
       239.0004        199.0004
 11 10  9 18 47 30.0000000  0  9G23G17G28G32G19G01G14G11G20
  -6377523.42749  -3863864.60049  24050795.5344   24050797.6594   24050794.7984
       215.0004        145.0004
 -12242555.02649  -9522517.81049  22608493.6824   22608497.5664   22608493.8844
       226.0004        173.0004
  -2117942.72449  -1637639.93449  24497645.7334   24497648.2854   24497647.2334
       206.0004        127.0004
 -21281654.31349 -16566960.14449  20468504.0394   20468507.1064   20468503.8744
       241.0004        199.0004
   1459817.47549   1171887.04749  24965811.7614   24965814.2484   24965810.6904
       209.0004        138.0004
 -14929705.21049 -11616244.59049  20214537.0284   20214542.0834   20214536.7854
       246.0004        210.0004
   -604923.97449    -77029.60849  23602471.2024   23602472.9064   23602469.8684
       211.0004        145.0004
 -18385810.26249 -14046094.74849  20896505.2884   20896507.2904   20896504.8494
       241.0004        194.0004
 -22951592.09449 -17310560.31849  20501445.7184   20501448.7134   20501445.1914
       239.0004        199.0004
 11 10  9 18 48  0.0000000  0  9G23G17G28G32G19G01G14G11G20
  -6488922.75149  -3950669.18649  24029597.7734   24029598.8074   24029597.1194
       219.0004        149.0004
 -12311914.01049  -9576563.75049  22595295.3964   22595298.4364   22595296.2014
       228.0004        174.0004
  -2048835.35449  -1583789.94649  24510798.3654   24510802.4284   24510797.5264
       205.0004        134.0004
 -21262823.79349 -16552287.00549  20472087.7454   20472090.1704   20472086.9984
       242.0004        199.0004
   1574007.96849   1260866.64849  24987543.7554   24987545.4654   24987541.8704
       213.0004        145.0004
 -14917510.71549 -11606742.39349  20216857.6084   20216862.8964   20216857.4264
       246.0004        210.0004
   -524201.18449    -14128.72949  23617831.0714   23617833.9704   23617831.1264
       210.0004        144.0004
 -18322443.88849 -13996718.36549  20908562.7634   20908564.9634   20908562.9284
       241.0004        193.0004
 -22995713.75449 -17344940.82049  20493049.3424   20493052.1454   20493048.9354
       238.0004        199.0004
 11 10  9 18 48 30.0000000  0  9G23G17G28G32G19G01G14G11G20
  -6600223.58449  -4037397.09849  24008417.0464   24008418.4744   24008417.0004
       212.0004        143.0004
 -12380828.19549  -9630263.08449  22582183.1254   22582184.6914   22582182.0274
       230.0004        176.0004
  -1979445.30949  -1529719.83249  24523998.6024   24524007.0294   24523999.0334
       194.0004        131.0004
 -21243575.76449 -16537288.53249  20475749.9194   20475753.0704   20475749.7024
       241.0004        199.0004
   1688222.44649   1349864.87949  25009275.5204   25009280.4154   25009275.1194
       208.0004        139.0004
 -14904872.72249 -11596894.61049  20219261.7204   20219267.7614   20219261.7214
       245.0004        210.0004
   -443109.82249     49059.34449  23633262.1964   23633264.6274   23633262.2894
       211.0004        146.0004
 -18258667.96149 -13947022.83749  20920698.9224   20920701.2434   20920698.6904
       240.0004        192.0004
 -23039420.66149 -17378998.15349  20484732.3024   20484734.8754   20484731.9154
       239.0004        199.0004
 11 10  9 18 49  0.0000000  0  9G23G17G28G32G19G01G14G11G20
  -6711422.40149  -4124045.39249  23987254.7584   23987260.1734   23987256.1224
       214.0004        146.0004
 -12449293.98049  -9683613.00449  22569152.7954   22569156.0294   22569152.9144
       228.0004        175.0004
  -1909774.42949  -1475431.00549  24537256.5434   24537261.9734   24537259.5324
       198.0004        130.0004
 -21223910.30649 -16521964.79149  20479492.3134   20479495.4284   20479492.0544
       242.0004        199.0004
   1802459.92749   1438881.08149  25031017.3074   25031016.3504   25031014.8064
       216.0004        140.0004
 -14891789.79249 -11586700.11149  20221751.7194   20221757.1264   20221751.4814
       246.0004        210.0004
   -361651.10649    112533.68949  23648764.6014   23648766.5254   23648764.8764
       217.0004        146.0004
 -18194482.30249 -13897008.04049  20932912.4304   20932915.2494   20932912.5534
       240.0004        193.0004
 -23082710.99449 -17412730.86749  20476494.0464   20476497.1614   20476494.0064
       239.0004        199.0004
 11 10  9 18 49 30.0000000  0  9G23G17G28G32G19G01G14G11G20
  -6822518.16649  -4210613.45149  23966115.7134   23966117.5144   23966115.4704
       218.0004        151.0004
 -12517310.61449  -9736612.95449  22556209.9524   22556212.9144   22556210.4764
       229.0004        175.0004
  -1839827.14849  -1420926.66549  24550569.2104   24550574.7734   24550569.0814
       201.0004        134.0004
 -21203829.97449 -16506317.77249  20483313.9254   20483316.5784   20483313.4634
       242.0004        199.0004
   1916716.96449   1527912.61649  25052757.9774   25052761.6674   25052758.1854
       204.0004        140.0004
 -14878263.25249 -11576159.96449  20224325.6164   20224331.2354   20224325.3304
       245.0004        210.0004
   -279829.31349    176290.94649  23664335.8144   23664335.7874   23664334.6764
       214.0004        145.0004
 -18129889.77749 -13846676.21849  20945205.0314   20945207.0614   20945204.6244
       241.0004        192.0004
 -23125586.04949 -17446139.94849  20468335.0794   20468338.6464   20468334.8664
       238.0004        200.0004
 11 10  9 18 50  0.0000000  0  9G23G17G28G32G19G01G14G11G20
  -6933508.33949  -4297099.22049  23944991.0334   23944997.4134   23944993.1614
       208.0004        143.0004
 -12584875.42249  -9789260.83349  22543353.0544   22543355.5754   22543353.2734
       230.0004        175.0004
  -1769605.66749  -1366208.60349  24563931.7634   24563939.1244   24563928.3394
       200.0004        131.0004
 -21183335.89149 -16490348.35149  20487213.1244   20487216.4594   20487212.5444
       241.0004        199.0004
   2030991.56749   1616957.63649  25074503.9064   25074509.1454   25074503.3324
       208.0004        135.0004
 -14864292.28049 -11565273.49849  20226984.3434   20226989.8014   20226984.3164
       246.0004        210.0004
   -197646.35149    240329.64649  23679973.0224   23679975.3014   23679973.0864
       212.0004        145.0004
 -18064891.24849 -13796028.00049  20957573.1224   20957575.9244   20957573.1084
       240.0004        192.0004
 -23168044.48649 -17479224.39149  20460256.1264   20460258.6994   20460255.4244
       239.0004        200.0004
 11 10  9 18 50 30.0000000  0  9G23G17G28G32G19G01G14G11G20
  -7044389.61749  -4383500.14949  23923894.3794   23923897.3084   23923896.3134
       220.0004        149.0004
 -12651985.24549  -9841554.17449  22530582.4964   22530585.1454   22530582.9854
       229.0004        176.0004
  -1699112.08349  -1311278.60549  24577348.2064   24577351.5494   24577346.7974
       199.0004        128.0004
 -21162428.15749 -16474056.60249  20491191.6494   20491195.2854   20491191.7144
       242.0004        199.0004
   2145282.33349   1706015.38749  25096254.5734   25096252.3184   25096254.5014
       209.0004        130.0004
 -14849875.91049 -11554039.95549  20229727.7574   20229733.6184   20229727.9434
       245.0004        210.0004
   -115103.99949    304648.36849  23695682.1604   23695684.0164   23695680.5864
       216.0004        145.0004
 -17999487.29349 -13745063.86549  20970019.7004   20970021.6654   20970019.1384
       240.0004        191.0004
 -23210085.54249 -17511983.63349  20452255.6754   20452258.7514   20452255.2504
       239.0004        200.0004
 11 10  9 18 51  0.0000000  0  9G23G17G28G32G19G01G14G11G20
  -7155160.15149  -4469814.78549  23902816.1014   23902818.0184   23902816.1964
       220.0004        151.0004
 -12718638.50449  -9893491.73449  22517898.5514   22517901.4534   22517899.2404
       229.0004        176.0004
  -1628349.78349  -1256139.26049  24590809.5564   24590814.0784   24590811.1934
       198.0004        129.0004
 -21141108.72049 -16457444.03849  20495249.6134   20495251.9724   20495248.8864
       242.0004        199.0004
   2259586.79249   1795083.88649  25118002.7404   25118004.8454   25118001.2594
       197.0004        129.0004
 -14835014.55749 -11542459.69149  20232555.9224   20232561.3964   20232555.9154
       245.0004        209.0004
    -32205.50249    369244.62049  23711455.2174   23711459.1404   23711455.7874
       214.0004        147.0004
 -17933679.62849 -13693785.17349  20982542.8134   20982544.7264   20982542.4904
       241.0004        191.0004
 -23251709.36849 -17544417.77749  20444334.9334   20444337.9284   20444334.7404
       238.0004        200.0004
 11 10  9 18 51 30.0000000  0  9G23G17G28G32G19G01G14G11G20
  -7265817.61749  -4556041.28449  23881758.9314   23881760.0964   23881759.4204
       218.0004        147.0004
 -12784832.66149  -9945071.56749  22505303.1904   22505305.4414   22505303.3924
       230.0004        178.0004
  -1557321.30449  -1200792.38749  24604329.0644   24604334.2644   24604329.0674
       201.0004        129.0004
 -21119378.55749 -16440511.43249  20499383.9794   20499386.9434   20499383.9094
       242.0004        199.0004
   2373902.46949   1884160.95849  25139756.8434   25139761.3774   25139755.6684
       202.0004        130.0004
 -14819707.84249 -11530532.40049  20235468.5974   20235474.2204   20235468.3864
       246.0004        210.0004
     51047.10549    434116.76949  23727297.7814   23727300.7944   23727298.2234
       215.0004        148.0004
 -17867469.41749 -13642192.80349  20995141.2974   20995144.2184   20995141.5084
       239.0004        192.0004
 -23292915.09149 -17576526.13549  20436493.9654   20436496.7084   20436493.2484
       238.0004        200.0004
 11 10  9 18 52  0.0000000  0  9G23G17G28G32G19G01G14G11G20
  -7376359.16649  -4642177.54049  23860724.0054   23860724.1674   23860724.0194
       222.0004        147.0004
 -12850565.10649  -9996291.61449  22492794.4564   22492796.3464   22492794.6904
       230.0004        176.0004
  -1486029.42449  -1145240.35349  24617896.6554   24617900.7584   24617895.9764
       205.0004        132.0004
 -21097238.72849 -16423259.60549  20503597.8394   20503600.4454   20503597.5564
       242.0004        199.0004
   2488227.74649   1973245.60149  25161515.7044   25161514.0574   25161513.9354
       199.0004        126.0004
 -14803955.23749 -11518257.65649  20238466.3874   20238471.9974   20238466.0294
       245.0004        209.0004
    134651.02949    499262.71149  23743208.1114   23743209.7754   23743207.9484
       217.0004        146.0004
 -17800857.64349 -13590287.53249  21007817.8304   21007819.6654   21007817.3784
       240.0004        192.0004
 -23333702.13849 -17608308.23749  20428732.6934   20428734.8964   20428731.7074
       238.0004        200.0004
 11 10  9 18 52 30.0000000  0  9G23G17G28G32G19G01G14G11G20
  -7486783.36349  -4728222.31849  23839711.2484   23839712.7274   23839709.4744
       219.0004        151.0004
 -12915834.31849 -10047150.70349  22480372.5964   22480376.4784   22480374.2844
       228.0004        175.0004
  -1414477.94549  -1089486.04349  24631508.3014   24631513.0274   24631506.8374
       194.0004        130.0004
 -21074691.08149 -16405690.00249  20507887.7654   20507890.7804   20507887.0884
       241.0004        198.0004
   2602559.72249   2062335.49749  25183268.0574   25183271.3374   25183267.4854
       193.0004        125.0004
 -14787757.25549 -11505635.85549  20241548.2224   20241554.1904   20241548.1854
       245.0004        209.0004
    218603.39049    564680.14349  23759183.3794   23759184.2714   23759183.9534
       215.0004        146.0004
 -17733846.46349 -13538071.06149  21020569.8964   21020571.7404   21020569.3214
       240.0004        191.0004
 -23374070.80849 -17639764.31249  20421050.5414   20421052.8984   20421049.7864
       238.0004        200.0004
 11 10  9 18 53  0.0000000  0  9G23G17G28G32G19G01G14G11G20
  -7597087.56749  -4814173.57149  23818720.1404   23818721.7064   23818718.5744
       221.0004        150.0004
 -12980637.97249 -10097647.02549  22468041.5584   22468044.5054   22468041.4934
       230.0004        176.0004
  -1342669.17149  -1033531.21749  24645174.5444   24645179.7544   24645173.2384
       198.0004        126.0004
 -21051736.72749 -16387803.48249  20512255.1074   20512258.7314   20512255.3534
       241.0004        199.0004
   2716896.39749   2151428.96649  25205028.8964   25205030.2554   25205024.8874
       195.0004        126.0004
 -14771113.41449 -11492666.62849  20244715.3094   20244721.5544   20244715.4174
       245.0004        209.0004
    302901.87349    630367.31449  23775225.5794   23775226.3104   23775225.1344
       215.0004        147.0004
 -17666436.46249 -13485543.78849  21033397.0824   21033399.3874   21033397.0604
       240.0004        191.0004
 -23414020.40649 -17670893.83149  20413447.8904   20413450.9104   20413447.4404
       237.0004        199.0004
 11 10  9 18 53 30.0000000  0  9G23G17G28G32G19G01G14G11G20
  -7707268.79149  -4900029.04749  23797753.8764   23797754.0784   23797751.6254
       223.0004        148.0004
 -13044973.33049 -10147778.44149  22455798.0444   22455802.2434   22455799.3504
       229.0004        176.0004
  -1270605.45549   -977377.68449  24658888.9294   24658891.3804   24658891.3064
       201.0004        130.0004
 -21028376.35849 -16369600.59249  20516702.0024   20516704.2924   20516701.2674
       241.0004        199.0004
   2831236.10949   2240524.80649  25226785.2634                   25226777.3544
       190.0004        122.0004
 -14754023.19549 -11479349.57149  20247968.2244   20247973.4084   20247968.0494
       246.0004        209.0004
    387544.49149    696322.60049  23791331.2524   23791334.3354   23791331.3184
       212.0004        144.0004
 -17598629.05449 -13432706.85649  21046300.0204   21046302.8794   21046300.0334
       240.0004        191.0004
 -23453550.36749 -17701696.37149  20405925.8104   20405928.5964   20405925.2004
       238.0004        199.0004
 11 10  9 18 54  0.0000000  0  9G23G17G28G32G19G01G14G11G20
  -7817324.54749  -4985786.75849  23776810.6284   23776811.7754   23776809.8534
       221.0004        148.0004
 -13108838.00149 -10197543.08249  22443646.0994   22443648.6744   22443645.8964
       228.0004        176.0004
  -1198289.41849   -921027.53849  24672648.0464   24672656.6554   24672649.0504
       194.0004        130.0004
 -21004611.23149 -16351082.30049  20521223.3714   20521226.4864   20521223.1464
       241.0004        198.0004
   2945576.76149   2329621.44449  25248539.3894   25248547.1244   25248545.2754
       187.0004        127.0004
 -14736486.26749 -11465684.44049  20251305.4554   20251310.8494   20251305.2274
       246.0004        209.0004
    472528.71649    762544.07049  23807501.8334   23807505.5744   23807502.6334
       213.0004        145.0004
 -17530425.27349 -13379561.05349  21059280.5764   21059281.3144   21059279.9054
       242.0004        192.0004
 -23492659.94349 -17732171.34049  20398483.2794   20398486.4044   20398482.5314
       237.0004        200.0004
 11 10  9 18 54 30.0000000  0  9G23G17G28G32G19G01G14G11G20
  -7927253.22449  -5071445.36149  23755891.5324   23755894.0604   23755889.4364
       221.0004        153.0004
 -13172230.47249 -10246939.78149  22431582.5244   22431585.6074   22431582.9614
       230.0004        175.0004
  -1125725.10949   -864484.02549  24686459.0924   24686463.5674   24686462.6904
       199.0004        129.0004
 -20980443.18749 -16332250.03649  20525823.0164   20525825.4444   20525822.7474
       242.0004        198.0004
   3059915.11949   2418716.22649  25270296.4994   25270307.9254   25270298.9684
       181.0004        122.0004
 -14718503.18449 -11451671.63549  20254727.0824   20254732.5874   20254727.2964
       244.0004        209.0004
    557851.15049    829029.10649  23823740.3304   23823743.1634   23823740.2654
       213.0004        143.0004
 -17461827.14949 -13326108.00549  21072333.1784   21072335.7404   21072333.0554
       240.0004        192.0004
 -23531349.16849 -17762318.77949  20391121.3144   20391123.8114   20391120.9004
       238.0004        200.0004
 11 10  9 18 55  0.0000000  0  9G23G17G28G32G19G01G14G11G20
  -8037052.20149  -5157002.96449  23734996.3264   23734999.5084   23734997.5144
       219.0004        151.0004
 -13235148.22849 -10295966.57549  22419610.8034   22419612.1214   22419610.9544
       230.0004        176.0004
  -1052914.54649   -807748.61749  24700314.2064   24700314.6584   24700316.9354
       199.0004        126.0004
 -20955873.16049 -16313104.52949  20530498.6814   20530500.9464   20530497.7854
       242.0004        198.0004
   3174250.84849   2507808.92849  25292057.9254                   25292055.4064
       187.0004        119.0004
 -14700073.34449 -11437310.69849  20258234.6054   20258240.0514   20258234.2624
       246.0004        209.0004
    643509.68549    895776.03249  23840040.3084   23840043.3814   23840041.8394
       214.0004        147.0004
 -17392835.57949 -13272348.34249  21085461.0024   21085463.9164   21085461.4554
       240.0004        191.0004
 -23569617.77149 -17792138.46949  20383839.3154   20383841.4494   20383838.4974
       238.0004        200.0004
 11 10  9 18 55 30.0000000  0  9G23G17G28G32G19G01G14G11G20
  -8146718.36349  -5242457.10849  23714127.4374   23714129.0914   23714128.1174
       218.0004        148.0004
 -13297588.46049 -10344621.27049  22407727.2394   22407730.9144   22407727.7934
       229.0004        175.0004
   -979860.22949   -750823.18549  24714216.1894   24714218.5514   24714218.5864
       203.0004        125.0004
 -20930901.78549 -16293646.31249  20535249.4054   20535252.9244   20535249.2164
       240.0004        198.0004
   3288580.98749   2596897.35849  25313811.3584
       186.0004        116.0004
 -14681196.07149 -11422601.13449  20261827.5564   20261831.7984   20261826.7494
       246.0004        209.0004
    729502.45449    962783.37949  23856404.5574   23856406.8714   23856405.0994
       214.0004        146.0004
 -17323451.35649 -13218282.73749  21098665.0154   21098667.4534   21098665.0094
       241.0004        191.0004
 -23607464.32649 -17821629.26649  20376636.9554   20376639.2154   20376636.9424
       237.0004        201.0004
 11 10  9 18 56  0.0000000  0  9G23G17G28G32G19G01G14G11G20
  -8256250.61749  -5327806.85349  23693284.2974   23693286.3464   23693284.6284
       219.0004        152.0004
 -13359549.86249 -10392902.84049  22395936.2674   22395939.8464   22395936.6534
       229.0004        176.0004
   -906565.98449   -693710.78949  24728165.6074   24728165.3414   24728164.7574
       199.0004        127.0004
 -20905531.39449 -16273877.17349  20540077.7764   20540080.8164   20540077.5274
       241.0004        198.0004
   3402902.62949   2685979.14449  25335566.8424
       184.0004        119.0004
 -14661872.27649 -11407543.61649  20265503.3094   20265508.8724   20265503.4184
       244.0004        208.0004
    815825.85749   1030048.38249  23872829.5744   23872833.5734   23872829.4564
       210.0004        143.0004
 -17253676.87549 -13163913.05249  21111943.4674   21111944.9264   21111943.5574
       242.0004        191.0004
 -23644890.31749 -17850792.34449  20369515.6184   20369517.6684   20369515.3554
       238.0004        201.0004
 11 10  9 18 56 30.0000000  0  9G23G17G28G32G19G01G14G11G20
  -8365645.64149  -5413049.64749  23672467.4314   23672471.4704   23672466.6324
       218.0004        153.0004
 -13421029.79449 -10440809.26149  22384237.1024   22384240.3254   22384238.3314
       230.0004        177.0004
   -833034.22649   -636413.37549  24742156.1484   24742160.0154   24742157.9894
       197.0004        125.0004
 -20879762.77349 -16253797.70749  20544981.1884   20544984.4184   20544980.8344
       240.0004        198.0004
   3517214.35549     67502.15349  25357321.1604
       183.0004         74.0004
 -14642101.18449 -11392137.54949  20269265.3284   20269271.4574   20269265.3264
       244.0004        208.0004
    902478.00049   1097569.55349  23889320.4854   23889321.6384   23889319.4244
       213.0004        143.0004
 -17183512.75849 -13109239.75449  21125294.0114   21125296.9104   21125294.1714
       239.0004        191.0004
 -23681894.22049 -17879626.52549  20362474.3044   20362476.1334   20362473.9024
       238.0004        202.0004
 11 10  9 18 57  0.0000000  0  9G23G17G28G32G19G01G14G11G20
  -8474900.94549  -5498183.58549  23651678.2614   23651677.7074   23651677.5394
       219.0004        149.0004
 -13482025.99349 -10488338.74349  22372630.7734   22372633.4364   22372630.5064
       230.0004        176.0004
   -759267.73449   -578933.10349  24756195.2384   24756196.8474   24756189.4944
       201.0004        127.0004
 -20853596.73649 -16233408.57949  20549960.1524   20549963.6514   20549960.0044
       240.0004        198.0004
   3631514.31059    156617.56359  25379071.7344
       181.0004        108.0004
 -14621882.50249 -11376382.74749  20273113.6884   20273118.9384   20273113.3064
       245.0004        208.0004
    989456.28149   1165344.84249  23905871.9284   23905873.0254   23905870.6914
       212.0004        142.0004
 -17112960.19649 -13054263.76549  21138719.7244   21138722.1764   21138720.3524
       240.0004        190.0004
 -23718475.38849 -17908131.30549  20355513.3444   20355514.8774   20355512.7524
       240.0004        202.0004
 11 10  9 18 57 30.0000000  0  9G23G17G28G32G19G01G14G11G20
  -8584014.52049  -5583207.08949  23630915.6594   23630913.9224   23630914.3384
       221.0004        150.0004
 -13542536.28449 -10535489.61049  22361115.0394   22361118.9204   22361115.5764
       229.0004        176.0004
   -685269.08049   -521271.82649  24770274.6354   24770279.4434   24770275.4154
       206.0004        128.0004
 -20827034.84849 -16212710.99749  20555015.6284   20555018.6324   20555014.9964
       241.0004        198.0004
   3745800.01449    245726.49849  25400826.4924
       181.0004        110.0004
 -14601216.23449 -11360279.17349  20277046.1424   20277051.6244   20277046.0374
       245.0004        208.0004
   1076758.40649   1233372.46949  23922484.9684   23922484.9584   23922485.0864
       210.0004        142.0004
 -17042020.45649 -12998986.03649  21152220.7264   21152222.1134   21152220.4954
       242.0004        191.0004
 -23754633.88049 -17936306.71749  20348633.0024   20348634.0584   20348632.1924
       239.0004        202.0004
 11 10  9 18 58  0.0000000  0  8G23G17G28G32G01G14G11G20
  -8692983.96849  -5668118.28449  23610177.5454   23610178.6534   23610177.0744
       219.0004        152.0004
 -13602559.01749 -10582260.55349  22349693.4334   22349697.3444   22349693.4944
       231.0004        177.0004
   -611041.81449   -463432.35549  24784402.5254   24784403.2474   24784398.8544
       204.0004        127.0004
 -20800078.54149 -16191706.06949  20560144.0294   20560147.6884   20560144.0564
       239.0004        198.0004
 -14580102.48549 -11343826.88149  20281063.6104   20281069.2784   20281063.3574
       244.0004        208.0004
   1164381.28649   1301650.08549  23939159.0114   23939160.6984   23939158.5534
       210.0004        143.0004
 -16970695.70449 -12943408.31149  21165793.4794   21165794.7624   21165793.0194
       241.0004        190.0004
 -23790369.53949 -17964152.64949  20341832.1314   20341833.5954   20341831.6904
       240.0004        202.0004
 11 10  9 18 58 30.0000000  0  8G23G17G28G32G01G14G11G20
  -8801806.90849  -5752915.27749  23589468.6534   23589470.2744   23589468.8534
       219.0004        153.0004
 -13662091.61049 -10628649.57049  22338366.0664   22338367.7634   22338366.1044
       231.0004        179.0004
   -536588.26049   -405416.61549  24798566.4574   24798569.1714   24798568.8324
       189.0004        125.0004
 -20772728.96649 -16170394.70849  20565349.2964   20565352.1304   20565349.1294
       240.0004        198.0004
 -14558540.94749 -11327025.68049  20285167.0474   20285172.4594   20285167.0114
       244.0004        208.0004
   1252322.54749   1370175.73649  23955893.6774   23955897.6364   23955892.5254
       208.0004        143.0004
 -16898986.85449 -12887531.29349  21179436.8464   21179440.1754   21179437.9874
       239.0004        190.0004
 -23825681.69849 -17991668.56849  20335112.8974   20335113.8734   20335112.2274
       239.0004        202.0004
 11 10  9 18 59  0.0000000  0  8G23G17G28G32G01G14G11G20
  -8910481.15949  -5837596.46149  23568789.5174   23568789.4824   23568788.3944
       222.0004        152.0004
 -13721132.07949 -10674655.11149  22327129.8384   22327132.4764   22327130.7624
       231.0004        177.0004
   -461911.82149   -347227.31349  24812778.2744   24812784.3504   24812776.9064
       199.0004        125.0004
 -20744987.68949 -16148778.10849  20570628.1364   20570631.2654   20570627.7254
       240.0004        198.0004
 -14536531.80949 -11309875.69549  20289355.5394   20289360.8834   20289355.2214
       244.0004        208.0004
   1340579.54849   1438947.41549  23972688.1774   23972691.1024   23972688.4614
       211.0004        144.0004
 -16826895.61149 -12831356.28449  21193156.9964   21193158.5404   21193156.8164
       240.0004        190.0004
 -23860570.56549 -18018854.65949  20328472.8704   20328475.1074   20328472.6894
       238.0004        202.0004
 11 10  9 18 59 30.0000000  0  8G23G17G28G32G01G14G11G20
  -9019003.67349  -5922159.41349  23548135.5654   23548140.9734   23548136.8174
       217.0004        151.0004
 -13779677.79149 -10720275.13749  22315988.8984   22315991.3454   22315989.1894
       230.0004        177.0004
   -387014.55549   -288865.90349  24827030.1684   24827035.3094   24827031.5114
       196.0004        129.0004
 -20716855.20549 -16126856.67949  20575981.4124   20575984.7514   20575981.5444
       241.0004        198.0004
 -14514074.32149 -11292376.33849  20293628.2234   20293634.3924   20293628.1434
       244.0004        208.0004
   1429150.42049   1507963.68949  23989543.4164   23989544.6194   23989542.8544
       211.0004        142.0004
 -16754422.51649 -12774883.73749  21206948.8024   21206950.2374   21206947.6744
       241.0004        190.0004
 -23895034.99449 -18045710.03149  20321914.8854   20321916.3374   20321914.3394
       239.0004        202.0004
 11 10  9 19  0  0.0000000  0  8G23G17G28G32G01G14G11G20
  -9127373.09549  -6006603.00749  23527512.3754   23527518.2754   23527515.0214
       219.0004        154.0004
 -13837727.85449 -10765508.94049  22304942.5154   22304944.9034   22304942.7324
       231.0004        179.0004
   -311900.75849   -230335.67649  24841324.5844   24841324.2634   24841324.2634
       201.0004        126.0004
 -20688334.18949 -16104632.49549  20581409.5454   20581412.1314   20581408.9234
       241.0004        198.0004
 -14491169.71949 -11274528.60249  20297987.0084   20297992.8564   20297986.9884
       244.0004        208.0004
   1518031.39449   1577221.64549  24006456.3874   24006458.2954   24006456.5934
       210.0004        141.0004
 -16681570.34049 -12718115.81149  21220811.3774   21220813.5014   21220811.5534
       239.0004        189.0004
 -23929075.95249 -18072235.42349  20315436.7344   20315438.5584   20315436.3564
       239.0004        202.0004
 11 10  9 19  0 30.0000000  0  8G23G17G28G32G01G14G11G20
  -9235585.41549  -6090924.22449  23506923.1434   23506924.5274   23506924.0894
       222.0004        153.0004
 -13895278.44749 -10810353.52449  22293991.3344   22293993.8504   22293992.2374
       233.0004        179.0004
   -236571.47149   -171637.49049  24855658.3294   24855662.1024   24855660.3754
       199.0004        127.0004
 -20659424.26649 -16082105.26849  20586910.4824   20586913.5224   20586909.7584
       240.0004        198.0004
 -14467816.22649 -11256331.08149  20302431.4504   20302436.7504   20302431.1254
       244.0004        208.0004
   1607221.46849   1646720.42649  24023428.2214   24023430.6024   24023428.3794
       207.0004        140.0004
 -16608338.75949 -12661052.23149  21234745.0294   21234748.6254   21234745.8854
       237.0004        189.0004
 -23962691.49049 -18098429.35149  20309040.0354   20309041.6004   20309039.8054
       238.0004        202.0004
 11 10  9 19  1  0.0000000  0  8G23G17G28G32G01G14G11G20
  -9343640.00449  -6175122.55349  23486361.2794   23486363.2484   23486360.4954
       219.0004        152.0004
 -13952329.42249 -10854808.80249  22283134.4354   22283136.9794   22283135.2534
       232.0004        180.0004
   -161031.44949   -112775.20949  24870035.6084   24870042.8624   24870030.6694
       195.0004        127.0004
 -20630128.35449 -16059277.27149  20592485.1574   20592488.1814   20592485.0904
       240.0004        198.0004
 -14444015.56549 -11237785.10249  20306960.3644   20306965.8564   20306960.2434
       244.0004        208.0004
   1696716.28449   1716456.66849  24040457.8624   24040460.1414   24040457.5654
       205.0004        141.0004
 -16534731.08249 -12603695.59749  21248754.5154   21248755.6084   21248753.8344
       239.0004        189.0004
 -23995883.01049 -18124292.88949  20302724.1884   20302725.6134   20302723.6794
       239.0004        202.0004
 11 10  9 19  1 30.0000000  0  8G23G17G28G32G01G14G11G20
  -9451533.21749  -6259195.07349  23465831.8154   23465831.4724
       225.0004        156.0004
 -14008876.72349 -10898871.61149  22272375.1244   22272376.7524   22272375.3544
       234.0004        181.0004
    -85281.68249    -53749.46049  24884448.0864   24884449.2214   24884448.8674
       195.0004        124.0004
 -20600445.86849 -16036148.04049  20598133.6024   20598136.3794   20598133.2324
       240.0004        197.0004
 -14419765.60849 -11218889.03349  20311574.7164   20311580.6854   20311574.5564
       243.0004        208.0004
   1786515.39749   1786429.99949  24057547.4774   24057549.8714   24057545.6294
       209.0004        139.0004
 -16460746.64049 -12546045.39749  21262832.6964   21262834.4664   21262832.5094
       238.0004        189.0004
 -24028648.17449 -18149824.16949  20296488.9544   20296490.4874   20296488.3644
       240.0004        202.0004
 11 10  9 19  2  0.0000000  0  8G23G17G28G32G01G14G11G20
  -9559264.46449  -6343141.43349  23445330.3754   23445331.8224   23445329.9784
       225.0004        158.0004
 -14064920.58849 -10942542.12749  22261708.6934   22261711.9554   22261709.5384
       231.0004        180.0004
     -9327.05549      5435.89949  24898904.4414   24898907.1934   24898904.7224
       201.0004        127.0004
 -20570380.29249 -16012720.30449  20603854.1994   20603858.0514   20603854.4434
       239.0004        197.0004
 -14395068.61649 -11199644.60749  20316274.5824   20316280.5714   20316274.7914
       244.0004        208.0004
   1876613.78449   1856636.56249  24074691.3614   24074695.7204   24074691.2854
       210.0004        141.0004
 -16386389.21149 -12488104.56849  21276982.1064   21276984.6324   21276981.9924
       237.0004        188.0004
 -24060989.08749 -18175024.86949  20290334.7474   20290335.9914   20290334.4414
       239.0004        202.0004
 11 10  9 19  2 30.0000000  0  8G23G17G28G32G01G14G11G20
  -9666829.06849  -6426957.92349  23424858.8674   23424861.1884   23424859.2444
       220.0004        152.0004
 -14120457.00049 -10985817.22949  22251141.4684   22251143.8734   22251141.4664
       232.0004        181.0004
     66830.90049     64779.71049  24913396.8344   24913398.6984   24913396.9244
       198.0004        129.0004
 -20539931.39349 -15988993.88049  20609649.0804   20609652.1154   20609648.5654
       240.0004        197.0004
 -14369922.96949 -11180050.59349  20321059.1594   20321065.0944   20321059.2604
       243.0004        208.0004
   1967010.88849   1927075.87149  24091895.0104   24091894.7724   24091894.7964
       212.0004        139.0004
 -16311658.42549 -12429872.79649  21291201.9654   21291205.5014   21291202.2904
       237.0004        188.0004
 -24092903.65549 -18199893.33749  20284261.5484   20284262.6664   20284260.6844
       238.0004        202.0004
 11 10  9 19  3  0.0000000  0  8G23G17G28G32G01G14G11G20
  -9774225.74449  -6510643.57149  23404423.3084   23404425.1924   23404424.1414
       223.0004        157.0004
 -14175484.65149 -11028695.89049  22240668.8874   22240671.9564   22240669.4244
       231.0004        181.0004
    143188.86849    124279.37949  24927925.5894   24927931.0994   24927925.1074
       196.0004        127.0004
 -20509100.95749 -15964970.15549  20615516.4294   20615519.0004   20615515.4474
       241.0004        197.0004
 -14344329.07149 -11160107.27749  20325930.3414   20325935.4334   20325930.2254
       244.0004        208.0004
   2057703.46349   1997745.44049  24109152.4584   24109154.4714   24109151.6974
       209.0004        140.0004
 -16236556.07049 -12371351.47049  21305495.9904   21305497.4534   21305495.0924
       240.0004        188.0004
 -24124392.51749 -18224430.09149  20278268.9924   20278270.9544   20278268.7734
       238.0004        202.0004
 11 10  9 19  3 30.0000000  0  8G23G17G28G32G01G14G11G20
  -9881452.25849  -6594196.59249  23384018.1624   23384020.1724   23384017.9364
       221.0004        159.0004
 -14230001.72549 -11071176.69949  22230295.1184   22230297.7574   22230294.5814
       231.0004        180.0004
    219743.81849    183932.51749  24942491.8924   24942498.6364   24942495.2504
       194.0004        127.0004
 -20477890.43749 -15940650.27249  20621454.9184   20621458.3234   20621454.6094
       240.0004        198.0004
 -14318287.20649 -11139814.90949  20330885.1274   20330891.3874   20330885.1174
       243.0004        208.0004
   2148688.71749   2068643.03949  24126466.0434   24126467.9314   24126465.5574
       207.0004        139.0004
 -16161084.31049 -12312542.29449  21319856.0064   21319858.9434   21319856.1044
       238.0004        188.0004
 -24155455.47349 -18248634.97849  20272357.7044   20272359.8144   20272357.4084
       237.0004        202.0004
 11 10  9 19  4  0.0000000  0  8G23G17G28G32G01G14G11G20
  -9988505.80149  -6677614.86049  23363647.5854   23363646.8364   23363646.9034
       223.0004        153.0004
 -14284005.85149 -11113257.81449  22220017.0504   22220020.7114   22220019.1024
       231.0004        181.0004
    296493.14049    243737.13049  24957097.9744   24957101.6384   24957094.7824
       193.0004        127.0004
 -20446300.71949 -15916034.89349  20627466.4144   20627469.1004   20627466.2674
       240.0004        198.0004
 -14291796.99049 -11119173.18849  20335926.1194   20335931.9684   20335926.4074
       243.0004        207.0004
   2239964.07949   2139766.69349  24143835.0874   24143836.2864   24143835.8244
       208.0004        140.0004
 -16085243.82049 -12253445.80049  21334288.4624   21334290.2954   21334288.3674
       239.0004        186.0004
 -24186091.64849 -18272507.29249  20266527.9594   20266529.7534   20266527.4804
       237.0004        202.0004
 11 10  9 19  4 30.0000000  0  8G23G17G28G32G01G14G11G20
 -10095384.25349  -6760896.72349  23343311.1494   23343308.7474
       227.0004        157.0004
 -14337495.53649 -11154938.06349  22209840.3814   22209842.4984   22209839.9354
       232.0004        181.0004
    373433.51049    303690.64549  24971740.3404   24971745.0994   24971737.6514
       199.0004        125.0004
 -20414333.64649 -15891125.48549  20633549.5334   20633552.6994   20633548.9324
       241.0004        197.0004
 -14264858.73049 -11098182.33149  20341053.2414   20341058.3804   20341052.7454
       245.0004        208.0004
   2331527.36949   2211114.73349  24161258.1444   24161261.2394   24161258.8364
       207.0004        138.0004
 -16009036.47749 -12194063.47449  21348789.4964   21348792.1174   21348789.9574
       238.0004        187.0004
 -24216301.26449 -18296047.21349  20260779.0424   20260780.8184   20260778.6624
       237.0004        202.0004
 11 10  9 19  5  0.0000000  0  8G23G17G28G32G01G14G11G20
 -10202085.26149  -6844040.29049  23323005.9624   23323005.6534   23323004.6674
       224.0004        158.0004
 -14390468.24049 -11196215.48149  22199760.0084   22199762.1484   22199760.1744
       232.0004        181.0004
    450562.26549    363790.92849  24986417.0074   24986423.5464   24986411.5964
       199.0004        127.0004
 -20381990.11349 -15865922.73549  20639704.3114   20639707.2494   20639703.7934
       241.0004        198.0004
 -14237472.17149 -11076842.14849  20346264.3064   20346269.5994   20346264.0944
       244.0004        208.0004
   2423376.07649   2282685.20749  24178737.2084   24178738.7304   24178736.1554
       207.0004        138.0004
 -15932463.33249 -12134396.09249  21363361.4284   21363363.6654   21363361.1354
       238.0004        187.0004
 -24246083.82549 -18319254.37949  20255112.0504   20255113.6804   20255111.3614
       238.0004        202.0004
 11 10  9 19  5 30.0000000  0  8G23G17G28G32G01G14G11G20
 -10308606.58849  -6927043.81449  23302734.3914   23302733.4324   23302732.6534
       223.0004        155.0004
 -14442922.38649 -11237088.81249  22189776.9004   22189780.8934   22189777.6564
       233.0004        182.0004
    527876.46549    424035.68449  25001128.9904   25001130.4834   25001128.9934
       196.0004        125.0004
 -20349271.66849 -15840427.84449  20645930.3824   20645933.4134   20645930.2244
       240.0004        198.0004
 -14209637.62049 -11055152.89849  20351561.1064   20351566.6174   20351561.2064
       244.0004        208.0004
   2515507.45249   2354475.88249  24196269.7024   24196272.5164   24196269.0484
       204.0004        134.0004
 -15855526.16449 -12074445.06349  21378001.6244   21378004.1504   21378001.9934
       238.0004        187.0004
 -24275439.28949 -18342128.73549  20249525.6054   20249527.5134   20249525.3414
       238.0004        202.0004
 11 10  9 19  6  0.0000000  0  8G23G17G28G32G01G14G11G20
 -10414945.34049  -7009905.13749  23282497.8964   23282497.4274   23282497.8294
       224.0004        156.0004
 -14494855.44849 -11277556.10049  22179894.9244   22179897.6034   22179895.9824
       232.0004        182.0004
    605373.27449    484422.74249  25015878.9584   25015881.4484   25015878.3434
       192.0004        126.0004
 -20316179.42849 -15814641.66749  20652227.2214   20652230.7424   20652227.0374
       240.0004        198.0004
 -14181354.81649 -11033114.33749  20356942.7094   20356948.6844   20356942.7064
       243.0004        208.0004
   2607919.03049   2426484.93849  24213854.3434   24213857.3264   24213852.5804
       206.0004        137.0004
 -15778226.46049 -12014211.55449  21392712.6894   21392713.6014   21392712.2144
       240.0004        187.0004
 -24304367.40149 -18364670.10349  20244021.0174   20244022.3214   20244020.4894
       238.0004        202.0004
 11 10  9 19  6 30.0000000  0  8G23G17G28G32G01G14G11G20
 -10521099.69149  -7092622.78649  23262293.7424   23262299.3654   23262295.5804
       217.0004        157.0004
 -14546266.44549 -11317616.59749  22170111.8094   22170114.5554   22170112.0514
       232.0004        181.0004
    683049.60949    544949.72349  25030658.6964   25030665.7754   25030656.4744
       196.0004        125.0004
 -20282715.12749 -15788565.58149  20658595.8574   20658598.8674   20658595.3904
       240.0004        198.0004
 -14152624.19249 -11010726.83949  20362410.5734   20362415.9894   20362410.3854
       244.0004        209.0004
   2700607.98449   2498710.08149  24231492.7044   24231494.1004   24231494.6084
       206.0004        139.0004
 -15700565.87049 -11953696.82349  21407489.9514   21407492.4324   21407489.9924
       238.0004        186.0004
 -24332868.23749 -18386878.53549  20238597.1174   20238598.8594   20238596.6274
       237.0004        203.0004
 11 10  9 19  7  0.0000000  0  8G23G17G28G32G01G14G11G20
 -10627067.10649  -7175194.71249  23242129.5524   23242134.5054   23242132.3244
       220.0004        159.0004
 -14597152.95949 -11357268.40849  22160428.8264   22160431.1184   22160429.0604
       233.0004        182.0004
    760902.87149    605614.49849  25045474.6894   25045478.5044   25045472.7874
       198.0004        127.0004
 -20248879.64549 -15762200.26749  20665034.2764   20665037.0194   20665033.9894
       240.0004        197.0004
 -14123445.53549 -10987990.22149  20367962.8914   20367968.4204   20367962.8494
       245.0004        208.0004
   2793571.98949   2571149.59949  24249183.5274   24249186.0444   24249182.7604
       209.0004        138.0004
 -15622545.43949 -11892901.68849  21422336.6014   21422338.7964   21422336.1154
       238.0004        186.0004
 -24360941.16149 -18408753.53949  20233255.2694   20233256.4934   20233255.0564
       238.0004        203.0004
 11 10  9 19  7 30.0000000  0  8G23G17G28G32G01G14G11G20
 -10732845.34349  -7257619.27049  23222004.8054   23222004.9374   23222003.5184
       224.0004        156.0004
 -14647513.26049 -11396510.16149  22150845.8034   22150847.7324   22150845.7314
       232.0004        183.0004
    838929.62249    666414.51349  25060322.2934   25060320.6944   25060321.2364
       197.0004        126.0004
 -20214674.72949 -15735547.08049  20671542.9934   20671545.9074   20671543.2384
       240.0004        197.0004
 -14093819.22749 -10964904.79449  20373600.6844   20373606.0784   20373600.0134
       244.0004        208.0004
   2886808.25949   2643801.26049  24266925.2404   24266927.7454   24266924.0304
       207.0004        137.0004
 -15544167.01349 -11831827.60149  21437251.4564   21437253.8454   21437251.8604
       238.0004        186.0004
 -24388586.34249 -18430295.21849  20227995.0364   20227996.1514   20227994.2524
       238.0004        203.0004
 11 10  9 19  8  0.0000000  0  8G23G17G28G32G01G14G11G20
 -10838431.81549  -7339894.41049  23201911.1214   23201913.0614   23201910.3874
       222.0004        154.0004
 -14697345.17549 -11435340.19749  22141362.4234   22141365.9164   22141362.9964
       232.0004        184.0004
    917127.40849    727347.79849  25075200.2574   25075203.7544   25075198.8824
       190.0004        125.0004
 -20180101.46349 -15708606.85949  20678122.7554   20678125.0104   20678122.3844
       241.0004        198.0004
 -14063745.13949 -10941470.44449  20379323.5094   20379329.0104   20379323.3354
       244.0004        208.0004
   2980314.42549   2716663.21749  24284720.5104   24284718.8224   24284720.2024
       203.0004        135.0004
 -15465432.13349 -11770475.74549  21452234.6004   21452236.8734   21452234.4644
       238.0004        186.0004
 -24415803.44049 -18451503.32649  20222815.0784   20222816.9094   20222814.9084
       237.0004        203.0004
 11 10  9 19  8 30.0000000  0  8G23G17G28G32G01G14G11G20
 -10943824.17249  -7422018.24749  23181855.3974   23181856.0414   23181855.8084
       225.0004        159.0004
 -14746647.17349 -11473757.31949  22131979.9814   22131983.0194   22131980.9424
       230.0004        182.0004
    995493.20249    788411.96749  25090113.0664   25090118.9974   25090115.2664
       193.0004        126.0004
 -20145161.42849 -15681380.85249  20684770.8264   20684774.2814   20684770.6504
       240.0004        197.0004
 -14033223.46449 -10917687.32449  20385131.2454   20385137.1004   20385131.3654
       244.0004        208.0004
   3074087.94649   2789733.51249  24302562.9884   24302565.5124   24302563.7414
       204.0004        135.0004
 -15386342.37649 -11708847.36749  21467285.1394   21467287.4274   21467284.8954
       239.0004        186.0004
 -24442592.43649 -18472377.84649  20217718.0584   20217719.1624   20217717.3784
       238.0004        203.0004
 11 10  9 19  9  0.0000000  0  8G23G17G28G32G01G14G11G20
 -11049020.10849  -7503989.03549  23161836.3434   23161838.5434   23161836.3274
       226.0004        160.0004
 -14795417.39949 -11511760.05949  22122699.4464   22122703.1904   22122700.6574
       231.0004        182.0004
   1074023.58649    849604.38949  25105058.5714   25105062.0814   25105057.2664
       197.0004        126.0004
 -20109855.78449 -15653869.95149  20691489.5964   20691491.8694   20691489.5994
       243.0004        197.0004
 -14002254.30849 -10893555.51749  20391025.5214   20391030.4104   20391025.0774
       245.0004        209.0004
   3168126.30249   2863010.13549  24320458.9044   24320459.4964   24320458.7664
       203.0004        134.0004
 -15306899.16049 -11646943.56649  21482402.7344   21482405.0854   21482402.2014
       238.0004        185.0004
 -24468952.96449 -18492918.49349  20212701.1924   20212702.9694   20212700.8324
       237.0004        202.0004
 11 10  9 19  9 30.0000000  0  8G23G17G28G32G01G14G11G20
 -11154017.00749  -7585804.75049  23141856.0334   23141857.5034   23141855.7754
       223.0004        158.0004
 -14843653.43849 -11549346.56349  22113521.6424   22113523.7314   22113521.9584
       232.0004        184.0004
   1152716.46849    910923.42249  25120032.4964   25120036.2404   25120032.1454
       198.0004        126.0004
 -20074185.74149 -15626075.10249  20698277.7854   20698280.2064   20698277.0964
       243.0004        197.0004
 -13970837.51049 -10869074.89749  20397003.2714   20397008.9854   20397003.2224
       245.0004        209.0004
   3262427.00749   2936491.20549  24338403.4064   24338404.7514   24338402.3994
       205.0004        134.0004
 -15227103.68749 -11584765.28649  21497587.2684   21497589.1204   21497587.1904
       238.0004        185.0004
 -24494884.32249 -18513124.73049  20207765.9024   20207767.9364   20207766.1904
       236.0004        202.0004
 11 10  9 19 10  0.0000000  0  8G23G17G28G32G01G14G11G20
 -11258813.75049  -7667464.49849  23121913.0614   23121916.5464   23121913.9604
       222.0004        159.0004
 -14891354.76049 -11586516.40249  22104444.5934   22104446.1894   22104444.0954
       233.0004        182.0004
   1231567.53649    972365.72849  25135039.3024   25135039.9194   25135037.8794
       198.0004        124.0004
 -20038153.53249 -15597998.04049  20705133.7204   20705136.9314   20705133.4174
       243.0004        197.0004
 -13938974.13449 -10844246.30349  20403066.6204   20403072.3724   20403066.3834
       245.0004        208.0004
   3356986.68449   3010174.11349  24356397.4334   24356399.0584   24356397.9454
       205.0004        134.0004
 -15146958.57349 -11522314.55249  21512838.5464   21512840.5384   21512837.9084
       237.0004        185.0004
 -24520387.93949 -18532997.65349  20202913.2644   20202914.8414   20202913.0394
       236.0004        202.0004
 11 10  9 19 10 30.0000000  0  8G23G17G28G32G01G14G11G20
 -11363406.60149  -7748965.33649  23102010.8304   23102012.4264   23102012.1374
       223.0004        163.0004
 -14938518.41349 -11623267.28249  22095468.3474   22095471.3894   22095469.3784
       232.0004        183.0004
   1310575.34249   1033930.22549  25150073.3974   25150075.3364   25150072.1204
       195.0004        125.0004
 -20001759.30449 -15569638.89349  20712059.8844   20712062.5714   20712059.4524
       243.0004        198.0004
 -13906663.29349 -10819069.02649  20409214.8034   20409220.7124   20409214.7724
       245.0004        208.0004
   3451803.71849   3084057.53949  24374440.7454   24374444.9934   24374441.4744
       204.0004        134.0004
 -15066464.32549 -11459591.77849  21528155.2764   21528158.1214   21528155.4374
       236.0004        185.0004
 -24545462.66249 -18552536.38549  20198142.4314   20198143.3294   20198141.4314
       237.0004        202.0004
 11 10  9 19 11  0.0000000  0  8G23G17G28G32G01G14G11G20
 -11467793.54949  -7830305.71249  23082148.7004   23082148.9814   23082146.8414
       226.0004        161.0004
 -14985142.51849 -11659597.72649  22086597.6924   22086598.9324   22086596.8524
       234.0004        184.0004
   1389736.45049   1095614.11449  25165137.1204   25165142.7164   25165138.7454
       193.0004        122.0004
 -19965005.25049 -15540999.36049  20719054.2484   20719056.7004   20719053.5754
       244.0004        198.0004
 -13873905.49649 -10793543.47649  20415448.4774   20415454.5424   20415448.4004
       245.0004        208.0004
   3546875.54149   3158139.49249  24392531.8054   24392532.1584   24392530.6934
       205.0004        131.0004
 -14985622.51149 -11396598.17049  21543538.7514   21543542.1854   21543539.2104
       236.0004        184.0004
 -24570108.41649 -18571740.84549  20193452.2814   20193453.6174   20193451.5114
       237.0004        202.0004
 11 10  9 19 11 30.0000000  0  8G23G17G28G32G01G14G11G20
 -11571972.39549  -7911483.96249  23062321.7114   23062323.3514   23062322.3314
       223.0004        161.0004
 -15031226.25049 -11695507.10549  22077825.7324   22077829.0834   22077827.2574
       232.0004        183.0004
   1469047.66849   1157415.00049  25180231.1544   25180225.6024   25180221.4934
       195.0004        123.0004
 -19927892.39449 -15512080.24049  20726115.5784   20726118.9794   20726115.6294
       242.0004        198.0004
 -13840701.07349 -10767669.89049  20421767.7054   20421773.1004   20421767.6354
       246.0004        209.0004
   3642198.91849   3232417.44549  24410672.1974   24410672.7584   24410673.0414
       200.0004        132.0004
 -14904435.18249 -11333335.34449  21558988.7364   21558990.6934   21558988.9924
       236.0004        184.0004
 -24594325.21149 -18590611.03949  20188843.9734   20188845.2314   20188843.1444
       237.0004        202.0004
 11 10  9 19 12  0.0000000  0  8G23G17G28G32G01G14G11G20
 -11675940.42849  -7992497.95449  23042536.8694   23042538.9154   23042536.6684
       225.0004        161.0004
 -15076766.99549 -11730993.38949  22069161.2034   22069163.2504   22069161.4494
       233.0004        183.0004
   1548506.66049   1219331.02949  25195350.1944                   25195351.1684
       195.0004        119.0004
 -19890421.68649 -15482882.27049  20733246.6794   20733249.5634   20733246.5884
       243.0004        197.0004
 -13807049.68049 -10741448.01549  20428170.9124   20428176.6924   20428170.8844
       245.0004        208.0004
   3737771.74949   3306889.78849  24428859.8644   24428861.0174   24428859.3524
       202.0004        131.0004
 -14822903.27149 -11269804.02649  21574504.3934   21574506.5604   21574504.1544
       237.0004        184.0004
 -24618112.34749 -18609146.44049  20184316.3834   20184318.6484   20184316.3274
       237.0004        202.0004
 11 10  9 19 12 30.0000000  0  8G23G17G28G32G01G14G11G20
 -11779695.97249  -8073346.33649  23022792.4594   23022797.3024   23022794.0824
       225.0004        164.0004
 -15121763.44349 -11766055.53049  22060598.6004   22060601.1274   22060598.8504
       234.0004        184.0004
   1628109.75849   1281359.32149  25210498.5214   25210502.4224   25210498.2884
       192.0004        123.0004
 -19852595.50449 -15453407.31649  20740444.3644   20740447.8764   20740444.4964
       242.0004        198.0004
 -13772952.24449 -10714878.57449  20434659.4634   20434665.0294   20434659.5404
       245.0004        208.0004
   3833591.27549   3381554.37549  24447093.5464   24447094.9014   24447095.7364
       199.0004        130.0004
 -14741029.20049 -11206006.07949  21590083.5684   21590086.1364   21590083.9594
       236.0004        183.0004
 -24641470.76149 -18627347.78449  20179872.0574   20179873.7354   20179872.0254
       236.0004        203.0004
 11 10  9 19 13  0.0000000  0  8G23G17G28G32G01G14G11G20
 -11883236.13649  -8154026.91949  23003090.7354   23003092.1124   23003089.4454
       227.0004        163.0004
 -15166213.63149 -11800691.99849  22052139.1034   22052142.0234   22052139.8744
       233.0004        182.0004
   1707854.62649   1343498.12449  25225670.6314                   25225670.8064
       189.0004        118.0004
 -19814414.31549 -15423655.72649  20747709.3414   20747713.0344   20747709.3914
       241.0004        197.0004
 -13738408.38349 -10687961.28249  20441233.1624   20441238.3344   20441232.9774
       245.0004        207.0004
   3929655.57949   3456409.71049  24465372.1564   24465371.7724   24465373.0844
       196.0004        128.0004
 -14658813.93849 -11141942.23649  21605728.7534   21605731.4234   21605728.3124
       237.0004        184.0004
 -24664399.63249 -18645214.40749  20175509.4254   20175510.3204   20175508.5624
       237.0004        203.0004
 11 10  9 19 13 30.0000000  0  8G23G17G28G32G01G14G11G20
 -11986559.23449  -8234538.37849  22983428.9414   22983428.4604   22983427.6444
       224.0004        161.0004
 -15210116.60749 -11834902.09449  22043785.2304   22043787.2044   22043786.0904
       233.0004        182.0004
   1787738.02449   1405744.83949  25240874.2794
       189.0004        119.0004
 -19775880.03349 -15393629.00749  20755043.4884   20755046.0014   20755043.2834
       243.0004        197.0004
 -13703418.79849 -10660696.66849  20447890.9894   20447896.9984   20447891.1794
       245.0004        207.0004
   4025961.19149   3531453.03449  24483696.0124   24483702.5464   24483695.7504
       193.0004        128.0004
 -14576259.67349 -11077614.25849  21621439.1754   21621440.8354   21621438.1704
       236.0004        182.0004
 -24686899.25349 -18662746.55949  20171227.1814   20171229.1894   20171226.8734
       237.0004        203.0004
 11 10  9 19 14  0.0000000  0  8G23G17G28G32G01G14G11G20
 -12089662.16649  -8314878.23949  22963809.8864   22963810.4444   22963807.6814
       226.0004        163.0004
 -15253469.92549 -11868683.86849  22035534.9074   22035537.8394   22035536.0164
       232.0004        183.0004
   1867757.24249   1468097.38449  25256100.4034                   25256099.7404
       187.0004        120.0004
 -19736993.68749 -15363327.94049  20762443.0014   20762446.0264   20762442.5014
       243.0004        197.0004
 -13667983.29449 -10633084.57749  20454633.9804   20454639.9044   20454634.0524
       245.0004        207.0004
   4122506.38149   3606683.03249  24502071.9844   24502076.1904   24502070.5764
       195.0004        126.0004
 -14493367.37549 -11013022.88649  21637212.5634   21637215.1254   21637212.3774
       236.0004        181.0004
 -24708969.33149 -18679944.00849  20167027.9914   20167029.2734   20167027.5994
       238.0004        203.0004
 11 10  9 19 14 30.0000000  0  8G23G17G28G32G01G14G11G20
 -12192542.53349  -8395044.68749  22944231.0624   22944232.7944   22944232.5534
       227.0004        166.0004
 -15296271.93549 -11902036.03849  22027389.8204   22027392.4924   22027389.7914
       232.0004        182.0004
   1947909.59549     11967.82549  25271352.2894
       187.0004         74.0004
 -19697756.47149 -15332753.48549  20769908.6434   20769912.6584   20769908.4034
       240.0004        196.0004
 -13632101.80749 -10605124.98149  20461462.9694   20461467.8214   20461462.6684
       245.0004        207.0004
   4219288.49649   3682097.68949  24520489.7514   24520492.6164   24520485.5174
       188.0004        124.0004
 -14410138.22049 -10948169.02949  21653050.3004   21653053.0794   21653049.8574
       234.0004        181.0004
 -24730609.35649 -18696806.35349  20162909.5444   20162911.2744   20162908.8174
       236.0004        203.0004
 11 10  9 19 15  0.0000000  0  8G23G17G28G32G01G14G11G20
 -12295198.36949  -8475036.19349  22924695.4064   22924697.2464   22924697.2144
       224.0004        161.0004
 -15338521.30949 -11934957.56449  22019350.1294   22019352.5924   22019350.4084
       233.0004        182.0004
   2028191.72849     74494.29949  25286633.1584
       187.0004        103.0004
 -19658170.09449 -15301906.94549  20777442.9314   20777445.2094   20777442.4514
       243.0004        197.0004
 -13595775.20249 -10576818.50949  20468374.5004   20468380.6354   20468374.6164
       243.0004        207.0004
   4316304.45149   3757694.58449  24538949.4494   24538950.4234   24538949.0104
       192.0004        123.0004
 -14326574.60649 -10883054.51449  21668951.0244   21668954.4874   21668951.2594
       235.0004        181.0004
 -24751819.81849 -18713333.96449  20158873.6614   20158874.8314   20158873.2754
       237.0004        203.0004
 11 10  9 19 15 30.0000000  0  8G23G17G28G32G01G14G11G20
 -12397627.74049  -8554851.24349  22905204.3744   22905205.9404   22905205.1804
       226.0004        164.0004
 -15380216.51549 -11967447.28149  22011416.5614   22011418.6254   22011416.0084
       233.0004        183.0004
   2108600.60849    137061.60249  25301932.1214
       184.0004        109.0004
 -19618236.32049 -15270789.70649  20785042.1204   20785044.6114   20785041.2424
       243.0004        197.0004
 -13559003.89749 -10548165.55349  20475372.6154   20475378.2084   20475372.2554
       245.0004        207.0004
   4413551.70249   3833471.71449  24557456.2854   24557454.7134   24557458.3104
       194.0004        125.0004
 -14242678.13549 -10817680.66749  21684917.6804   21684918.7234   21684917.3814
       237.0004        181.0004
 -24772600.91549 -18729527.00449  20154919.2414   20154920.1594   20154918.2434
       238.0004        204.0004
 11 10  9 19 16  0.0000000  0  8G23G17G28G32G01G14G11G20
 -12499828.21649  -8634487.88449  22885757.7884   22885758.4424   22885755.9404
       227.0004        164.0004
 -15421355.86749 -11999503.88449  22003587.6754   22003590.2694   22003587.8504
       233.0004        184.0004
   2189133.50349      6843.44549  25317260.2224
       184.0004         74.0004
 -19577956.07249 -15239402.49049  20792705.3534   20792710.0004   20792705.7984
       240.0004        196.0004
 -13521787.88749 -10519166.07149  20482454.7094   20482460.0344   20482454.3874
       245.0004        206.0004
   4511028.12149   3909427.40449  24576004.1104   24576004.2244   24576007.2664
       189.0004        123.0004
 -14158450.33749 -10752048.62449  21700945.1354   21700947.5974   21700944.6354
       235.0004        181.0004
 -24792952.28749 -18745385.19449  20151046.0364   20151047.7334   20151045.6574
       237.0004        203.0004
 11 10  9 19 16 30.0000000  0  8G23G17G28G32G01G14G11G20
 -12601797.02549  -8713944.04749  22866352.5834   22866352.9074   22866351.7314
       227.0004        163.0004
 -15461937.18049 -12031125.65149  21995864.1544   21995867.7204   21995865.0984
       233.0004        184.0004
   2269787.96759     69727.49659  25332604.2254
       176.0004        103.0004
 -19537330.60049 -15207746.26849  20800437.1264   20800440.4384   20800436.8194
       242.0004        197.0004
 -13484127.19349 -10489820.08349  20489621.1354   20489626.2074   20489620.8954
       243.0004        206.0004
   4608731.20949   3985559.69349  24594595.6804   24594601.2484   24594597.5764
       191.0004        124.0004
 -14073892.52749 -10686159.42849  21717036.1934   21717038.0474   21717035.0814
       235.0004        181.0004
 -24812873.53549 -18760908.22449  20147255.3214   20147256.8184   20147255.0244
       237.0004        204.0004
 11 10  9 19 17  0.0000000  0  8G23G17G28G32G01G14G11G20
 -12703531.83149  -8793217.84249  22846992.6424   22846994.0324   22846993.0594
       228.0004        163.0004
 -15501959.49749 -12062311.87149  21988248.9744   21988251.1104   21988249.4844
       234.0004        183.0004
   2350560.66959    132802.59759  25347976.1864
       181.0004        109.0004
 -19496361.28849 -15175822.12449  20808233.6274   20808236.7484   20808233.0784
       241.0004        196.0004
 -13446022.11149 -10460127.83849  20496871.5164   20496877.6404   20496871.9344
       243.0004        206.0004
   4706658.54949   4061866.69249  24613232.4514   24613235.4154   24613228.6084
       191.0004        123.0004
 -13989006.47749 -10620014.47649  21733188.4824   21733191.6894   21733188.4174
       234.0004        181.0004
 -24832364.90949 -18776096.28049  20143546.6804   20143547.2934   20143545.9084
       238.0004        203.0004
 11 10  9 19 17 30.0000000  0  8G23G17G28G32G01G14G11G20
 -12805031.29149  -8872308.25949  22827677.8464   22827679.5324   22827678.2324
       228.0004        165.0004
 -15541421.69849 -12093061.63249  21980740.0184   21980742.0714   21980740.3794
       233.0004        185.0004
   2431448.13859      1565.82859  25363370.2064
       179.0004         74.0004
 -19455050.15149 -15143631.62449  20816094.3944   20816097.8404   20816094.4684
       242.0004        196.0004
 -13407473.58749 -10430090.04249  20504208.2674   20504213.2724   20504207.9184
       244.0004        206.0004
   4804806.90949   4138345.98349  24631908.0964   24631910.7204   24631906.4234
       194.0004        124.0004
 -13903794.28449 -10553615.37349  21749404.1244   21749406.6054   21749404.7284
       235.0004        180.0004
 -24851426.92749 -18790949.78849  20139918.9564   20139920.4544   20139918.3124
       238.0004        203.0004
 11 10  9 19 18  0.0000000  0  8G23G17G28G32G01G14G11G20
 -12906291.32249  -8951212.12749  22808408.9954   22808411.0634   22808409.3464
       228.0004        164.0004
 -15580321.16949 -12123372.87949  21973337.5884   21973340.1514   21973337.4114
       235.0004        184.0004
   2512449.71159     64665.90259  25378785.0734
       175.0004        100.0004
 -19413397.61149 -15111175.09049  20824021.4014   20824024.1234   20824020.7294
       242.0004        196.0004
 -13368480.95949 -10399706.17449  20511627.5614   20511633.1664   20511627.3124
       242.0004        205.0004
   4903174.51249   4214996.05349  24650627.1044   24650626.2604   24650625.7394
       194.0004        125.0004
 -13818256.53449 -10486962.56949  21765683.1494   21765683.7854   21765682.5754
       237.0004        181.0004
 -24870058.46349 -18805467.86249  20136373.3914   20136374.6844   20136372.9764
       238.0004        204.0004
 11 10  9 19 18 30.0000000  0  8G23G17G28G32G01G14G11G20
 -13007310.74849  -9029928.50249  22789187.0834   22789187.6004   22789186.2634
       229.0004        166.0004
 -15618657.32749 -12153245.21249  21966042.0244   21966044.1494   21966042.7754
       235.0004        184.0004
   2593559.61359    127768.65859  25394219.0734
       170.0004        111.0004
 -19371405.79149 -15078454.18249  20832012.1684   20832014.8784   20832011.4774
       243.0004        196.0004
 -13329045.29249 -10368977.10149  20519131.4754   20519137.4644   20519131.9414
       243.0004        205.0004
   5001758.34849   4291814.66849  24669386.0144   24669386.2524   24669385.0354
       191.0004        123.0004
 -13732395.88549 -10420058.17049  21782020.6684   21782022.9964   21782019.7594
       234.0004        180.0004
 -24888260.47649 -18819651.24149  20132909.0284   20132911.1594   20132908.7104
       236.0004        203.0004
 11 10  9 19 19  0.0000000  0  8G23G17G32G01G14G31G11G20
 -13108087.54749  -9108455.81649  22770009.6094   22770009.2064   22770007.9674
       228.0004        165.0004
 -15656428.39849 -12182677.26149  21958855.2604   21958856.7674   21958855.2704
       236.0004        184.0004
 -19329075.96449 -15045469.89149  20840066.6174   20840070.0214   20840066.3444
       241.0004        196.0004
 -13289166.86349 -10337903.02949  20526720.6364   20526726.3164   20526720.7514
       242.0004        205.0004
   5100555.81049   4368799.69649  24688187.2014   24688185.7644   24688187.4874
       190.0004        122.0004
    -54550.44049    -36781.65849  23812685.3844
       210.0004         54.0004
 -13646213.90349 -10352903.41549  21798420.6474   21798423.7094   21798420.9664
       235.0004        181.0004
 -24906032.92749 -18833499.89549  20129527.3434   20129529.3564   20129527.1774
       238.0004        204.0004
 11 10  9 19 19 30.0000000  0  9G23G17G28G32G01G14G31G11G20
 -13208618.47049  -9186791.53549  22750877.7374   22750880.3744   22750877.9044
       226.0004        167.0004
 -15693632.28849 -12211667.31649  21951775.4104   21951777.6724   21951775.7744
       236.0004        186.0004
   2756096.03359     60692.48659  25425147.3464
       177.0004         92.0004
 -19286409.09149 -15012222.97749  20848186.4964   20848189.1914   20848186.1464
       243.0004        196.0004
 -13248845.54049 -10306483.83949  20534393.0914   20534399.2494   20534393.5644
       243.0004        205.0004
   5199565.08149   4445949.75149  24707029.8224   24707030.7394   24707026.5254
       194.0004        122.0004
   -108056.25749    -78476.53049  23802505.2954
       212.0004        110.0004
 -13559711.58649 -10285499.05649  21814880.9264   21814883.3274   21814881.4394
       234.0004        180.0004
 -24923375.14949 -18847013.32749  20126227.2344   20126229.2374   20126227.1074
       237.0004        204.0004
 11 10  9 19 20  0.0000000  0  8G23G17G32G01G14G13G11G20
 -13308902.38449  -9264934.76849  22731791.8604   22731796.6664   22731794.8284
       225.0004        168.0004
 -15730268.37349 -12240214.94349  21944804.6304   21944806.0824   21944804.6044
       236.0004        186.0004
 -19243407.07949 -14978714.90149  20856369.5204   20856371.6164   20856368.9594
       242.0004        196.0004
 -13208082.08549 -10274720.12349  20542151.1954   20542156.2784   20542150.7414
       243.0004        205.0004
   5298783.03649   4523262.47749  24725910.0954                   24725910.7804
       195.0004        122.0004
   -248860.25749   -176088.20049  24988780.0534
       206.0004        121.0004
 -13472891.21449 -10217846.82649  21831402.6644   21831404.7914   21831402.5384
       234.0004        179.0004
 -24940287.73949 -18860191.98949  20123009.5964   20123010.6454   20123008.5854
       237.0004        204.0004
 11 10  9 19 20 30.0000000  0  8G23G17G32G01G14G13G11G20
 -13408935.82649  -9342882.83949  22712759.0524   22712760.9164   22712759.3564
       228.0004        168.0004
 -15766334.50249 -12268318.43449  21937939.3624   21937943.5504   21937939.7334
       233.0004        184.0004
 -19200070.59249 -14944946.20249  20864615.4044   20864618.6944   20864614.9364
       241.0004        195.0004
 -13166876.40449 -10242611.80849  20549990.8584   20549997.6664   20549991.4464
       241.0004        205.0004
   5398207.83949   4600736.42049  24744828.7754                   24744825.5574
       188.0004        120.0004
   -369365.32949   -269988.14549  24965847.1094   24965849.8544
       214.0004        140.0004
 -13385753.77349 -10149947.52349  21847983.7254   21847987.0114   21847984.1134
       233.0004        178.0004
 -24956770.28449 -18873035.55749  20119872.7554   20119874.2764   20119872.2294
       237.0004        204.0004
 11 10  9 19 21  0.0000000  0  8G23G17G32G01G14G13G11G20
 -13508717.75449  -9420634.96149  22693771.5804   22693772.6234   22693770.5214
       229.0004        166.0004
 -15801830.12349 -12295977.33349  21931185.6754   21931188.4004   21931186.0424
       236.0004        185.0004
 -19156402.10249 -14910918.80949  20872926.4074   20872929.1714   20872926.2274
       243.0004        196.0004
 -13125229.79449 -10210159.91649  20557916.9074   20557922.7644   20557916.9624
       242.0004        204.0004
   5497835.60849   4678368.41949  24763787.0734                   24763786.9914
       190.0004        121.0004
   -489857.66149   -363878.19949  24942915.7854   24942919.8374   24942918.9784
       197.0004        130.0004
 -13298301.78849 -10081803.12349  21864625.7064   21864628.2864   21864625.5154
       233.0004        180.0004
 -24972823.34049 -18885544.44149  20116817.5554   20116819.7734   20116817.0354
       237.0004        204.0004
 11 10  9 19 21 30.0000000  0  8G23G17G32G01G14G13G11G20
 -13608244.44049  -9498188.16549  22674831.2104   22674833.3354   22674831.5194
       227.0004        168.0004
 -15836752.83549 -12323189.82349  21924540.8774   21924542.3004   21924540.5704
       235.0004        186.0004
 -19112401.79649 -14876632.84849  20881299.0724   20881301.7744   20881298.3304
       242.0004        196.0004
 -13083141.36149 -10177363.75649  20565926.3834   20565931.7844   20565926.2374
       243.0004        204.0004
   5597665.36649   4756157.81049  24782785.5884                   24782782.5864
       184.0004        121.0004
   -610332.76549   -457754.76449  24919989.2874                   24919988.7514
       204.0004        119.0004
 -13210535.72349 -10013413.98049  21881327.7724   21881330.0174   21881327.1714
       233.0004        178.0004
 -24988446.11149 -18897718.03349  20113844.4034   20113846.6794   20113843.9154
       237.0004        204.0004
 11 10  9 19 22  0.0000000  0  8G23G17G32G01G14G13G11G20
 -13707514.74349  -9575541.59849  22655939.9044   22655942.9244   22655941.0734
       228.0004        169.0004
 -15871102.28249 -12349955.60849  21918003.6654   21918006.6924   21918003.5244
       235.0004        186.0004
 -19068071.96849 -14842090.12949  20889733.9974   20889736.8834   20889734.0044
       242.0004        196.0004
 -13040612.53449 -10144224.39849  20574018.3144   20574024.8224   20574018.8384
       240.0004        204.0004
   5697693.59149   4834101.86649  24801819.0764
       179.0004        119.0004
   -730789.44049   -551617.21749  24897068.2014   24897073.4394   24897070.3754
       213.0004        139.0004
 -13122458.54549  -9944782.43649  21898088.5534   21898090.8674   21898088.1544
       235.0004        178.0004
 -25003639.47649 -18909556.99549  20110952.9664   20110955.4574   20110952.7464
       235.0004        204.0004
 11 10  9 19 22 30.0000000  0  9G23G17G32G01G14G31G13G11G20
 -13806526.26749  -9652693.38749  22637098.9234   22637099.8144   22637100.2994
       229.0004        168.0004
 -15904876.90549 -12376273.47949  21911577.4354   21911578.6764   21911577.6704
       237.0004        187.0004
 -19023413.90449 -14807291.62649  20898232.9924   20898235.5154   20898232.6554
       242.0004        197.0004
 -12997643.75249 -10110742.25549  20582195.8234   20582201.3674   20582195.9134
       242.0004        203.0004
   5797917.80559   4912198.66059  24820890.5634
       175.0004        118.0004
    -97827.81549    -66494.55949  23743225.9804
       205.0004        111.0004
   -851225.23249   -645463.22049  24874151.6354   24874152.3924   24874151.4624
       190.0004        132.0004
 -13034071.92449  -9875909.74949  21914907.9144   21914909.2424   21914907.1924
       234.0004        176.0004
 -25018403.49549 -18921061.41249  20108143.9264   20108145.8864   20108143.3464
       237.0004        204.0004
 11 10  9 19 23  0.0000000  0  8G23G17G32G01G14G13G11G20
 -13905276.41549  -9729641.50849  22618308.8934   22618309.9124   22618308.7314
       231.0004        170.0004
 -15938075.02349 -12402142.14149  21905259.3584   21905260.9474   21905259.7034
       236.0004        185.0004
 -18978428.88049 -14772238.34849  20906792.9964   20906795.6594   20906792.4264
       242.0004        196.0004
 -12954234.98049 -10076917.25249  20590456.5014   20590461.6334   20590456.4634
       242.0004        204.0004
   5898335.77759     28043.44959  24839998.9404
       178.0004         74.0004
   -971637.47049   -739290.66349  24851236.1914   24851239.1504   24851235.8694
       207.0004        125.0004
 -12945376.92049  -9806796.77249  21931784.9884   21931788.1374   21931785.1554
       233.0004        178.0004
 -25032737.88449 -18932231.03549  20105415.6474   20105418.2624   20105415.2834
       236.0004        204.0004
 11 10  9 19 23 30.0000000  0  8G23G17G32G01G14G13G11G20
 -14003762.44149  -9806383.81349  22599568.6444   22599568.2804   22599566.5504
       233.0004        170.0004
 -15970694.73349 -12427560.10349  21899052.0474   21899053.7854   21899052.9474
       236.0004        185.0004
 -18933117.27649 -14736930.60349  20915415.1384   20915418.4924   20915414.7664
       242.0004        196.0004
 -12910385.97149 -10042749.19849  20598800.3444   20598805.8204   20598800.2974
       241.0004        203.0004
   5998945.74359    106371.59759  24859145.4714
       182.0004        109.0004
  -1092022.41949   -833097.22349  24828329.9324   24828340.7944   24828331.1484
       207.0004        124.0004
 -12856374.54649  -9737444.27449  21948723.2784   21948724.0664   21948722.1474
       234.0004        177.0004
 -25046641.97749 -18943065.38249  20102770.2374   20102771.9964   20102769.6884
       237.0004        204.0004
 11 10  9 19 24  0.0000000  0  8G23G17G32G01G14G13G11G20
 -14101983.29249  -9882919.49749  22580876.2244   22580877.4874   22580876.2754
       231.0004        171.0004
 -16002736.23349 -12452527.50349  21892954.8824   21892956.9584   21892954.8934
       236.0004        185.0004
 -18887482.14149 -14701370.75449  20924099.2694   20924102.0534   20924098.9624
       241.0004        195.0004
 -12866098.73749 -10008239.68949  20607228.2154   20607233.6274   20607227.9764
       241.0004        203.0004
   6099743.97149    184781.41549  24878324.8114
       172.0004        108.0004
  -1212380.45549   -926882.70949  24805422.0754   24805423.4964   24805422.8964
       194.0004        127.0004
 -12767068.17349  -9667854.88749  21965715.6654   21965718.5684   21965715.3344
       232.0004        175.0004
 -25060117.44049 -18953565.71649  20100205.8154   20100207.9494   20100205.1104
       237.0004        204.0004
 11 10  9 19 24 30.0000000  0  8G23G17G32G01G14G13G11G20
 -14199935.24349  -9959245.64949  22562235.0384   22562237.2474   22562235.9774
       230.0004        171.0004
 -16034196.43549 -12477041.91849  21886967.1934   21886970.3844   21886967.5044
       235.0004        185.0004
 -18841523.35849 -14665558.70349  20932845.2004   20932847.8884   20932844.5884
       241.0004        195.0004
 -12821372.17249  -9973387.82649  20615739.3514   20615744.9484   20615739.3794
       242.0004        203.0004
   6200729.38959     21720.10859  24897540.9634
       168.0004         74.0004
  -1332707.37949  -1020643.66749  24782527.6364   24782529.5524   24782526.9174
       209.0004        131.0004
 -12677458.02749  -9598028.80349  21982768.4204   21982771.6074   21982768.8294
       232.0004        177.0004
 -25073162.38449 -18963730.57249  20097722.8654   20097725.6004   20097722.4464
       236.0004        204.0004
 11 10  9 19 25  0.0000000  0  8G23G17G32G01G14G13G11G20
 -14297618.02449 -10035362.08949  22543647.7004   22543649.1774   22543648.6974
       232.0004        171.0004
 -16065076.19849 -12501104.05549  21881092.2524   21881093.9364   21881092.4644
       234.0004        186.0004
 -18795244.25249 -14629497.05349  20941651.3554   20941654.7154   20941651.4644
       241.0004        195.0004
 -12776208.65649  -9938195.50249  20624333.6364   20624339.3174   20624333.2974
       241.0004        203.0004
   6301897.71659    100616.67759  24916791.5644
       168.0004        106.0004
  -1453002.32549  -1114380.06149  24759637.3294   24759643.0964   24759633.9784
       207.0004        125.0004
 -12587547.63549  -9527968.76049  21999877.7124   21999880.0704   21999878.4094
       232.0004        175.0004
 -25085779.42949 -18973562.00949  20095321.7924   20095324.6704   20095321.8714
       235.0004        204.0004
 11 10  9 19 25 30.0000000  0  8G23G17G32G01G14G13G11G20
 -14395027.93749 -10111265.85749  22525111.5294   22525112.4644   22525110.6204
       230.0004        170.0004
 -16095372.80849 -12524711.77149  21875326.6154   21875328.5804   21875326.6954
       234.0004        185.0004
 -18748644.57449 -14593185.59949  20950520.2404   20950522.0564   20950519.5504
       243.0004        196.0004
 -12730607.02049  -9902661.76249  20633011.0584   20633016.8154   20633011.2304
       242.0004        203.0004
   6403247.77359    179737.85759  24936082.2544
       165.0004        109.0004
  -1573261.97049  -1208088.95349  24736747.6424   24736746.8634   24736748.0304
       200.0004        124.0004
 -12497336.99849  -9457674.77049  22017044.6764   22017046.6804   22017044.4054
       232.0004        176.0004
 -25097966.89449 -18983058.71349  20093002.9584   20093005.0744   20093002.7664
       236.0004        204.0004
 11 10  9 19 26  0.0000000  0  8G23G17G32G01G14G13G11G20
 -14492162.99649 -10186955.48149  22506625.2654   22506628.3304   22506627.2434
       229.0004        171.0004
 -16125085.39749 -12547864.40749  21869671.5124   21869674.6204   21869672.5264
       234.0004        185.0004
 -18701725.89149 -14556625.57849  20959447.8984   20959450.5684   20959447.3664
       241.0004        195.0004
 -12684567.99449  -9866787.21549  20641772.3944   20641777.8024   20641772.2144
       241.0004        202.0004
   6504777.08259     15160.68659  24955400.7764
       166.0004         74.0004
  -1693483.49249  -1301767.84449  24713872.0394   24713879.0644   24713872.3974
       208.0004        136.0004
 -12406828.04149  -9387148.33349  22034268.1944   22034270.8574   22034268.2944
       232.0004        175.0004
 -25109725.15649 -18992220.97749  20090765.2834   20090767.8824   20090765.2374
       236.0004        204.0004
 11 10  9 19 26 30.0000000  0  7G23G17G32G01G13G11G20
 -14589020.39749 -10262428.72649  22488194.7384   22488196.4374   22488195.8084
       230.0004        170.0004
 -16154212.67349 -12570560.97949  21864129.6384   21864131.3094   21864129.7824
       234.0004        184.0004
 -18654489.77349 -14519818.20849  20968435.6534   20968439.6004   20968435.8314
       241.0004        195.0004
 -12638092.20049  -9830572.31349  20650616.0604   20650621.8864   20650616.1454
       241.0004        203.0004
  -1813664.81549  -1395415.62449  24691002.8914   24691011.4474   24691002.6154
       198.0004        128.0004
 -12316022.72949  -9316390.96249  22051546.8644   22051549.4464   22051547.6344
       231.0004        175.0004
 -25121054.50549 -19001049.03049  20088609.5804   20088612.0114   20088609.5894
       236.0004        204.0004
 11 10  9 19 27  0.0000000  0  7G23G17G32G01G13G11G20
 -14685598.90949 -10337684.64049  22469818.1774   22469818.4774   22469817.5124
       232.0004        171.0004
 -16182754.09549 -12592801.03149  21858698.2574   21858700.4304   21858698.4294
       233.0004        186.0004
 -18606937.95349 -14482764.83249  20977485.4874   20977487.7184   20977485.2904
       242.0004        195.0004
 -12591180.62549  -9794017.84049  20659542.9654   20659548.6724   20659543.0114
       241.0004        203.0004
  -1933804.31849  -1489030.81649  24668141.8204   24668145.5744   24668141.3774
       204.0004        124.0004
 -12224923.27049  -9245404.36949  22068882.5604   22068886.4174   22068882.1824
       232.0004        174.0004
 -25131954.86949 -19009542.79849  20086535.9234   20086537.7034   20086534.8274
       235.0004        203.0004
 11 10  9 19 27 30.0000000  0  7G23G17G32G01G13G11G20
 -14781895.65349 -10412721.00349  22451493.9694   22451493.2014   22451491.7874
       232.0004        170.0004
 -16210707.80449 -12614583.13449  21853379.0594   21853381.5454   21853379.7754
       234.0004        186.0004
 -18559071.33149 -14445466.15149  20986594.5284   20986597.1404   20986593.4844
       242.0004        195.0004
 -12543833.13249  -9757123.68749  20668553.5594   20668558.7474   20668553.1284
       242.0004        203.0004
  -2053898.86749  -1582610.93149  24645288.7154   24645293.9894   24645288.5564
       209.0004        136.0004
 -12133530.73849  -9174189.43449  22086274.8324   22086276.9244   22086274.7794
       232.0004        174.0004
 -25142426.51149 -19017702.50449  20084542.2174   20084545.0584   20084542.1134
       234.0004        204.0004
 11 10  9 19 28  0.0000000  0  7G23G17G32G01G13G11G20
 -14877908.11549 -10487535.85449  22433222.1254   22433223.7164   22433222.1784
       233.0004        172.0004
 -16238072.36549 -12635906.15849  21848170.5624   21848173.3444   21848171.3874
       233.0004        185.0004
 -18510891.06249 -14407923.08449  20995761.8294   20995765.2904   20995761.5794
       240.0004        194.0004
 -12496050.15949  -9719890.20549  20677645.9914   20677651.7454   20677646.0804
       241.0004        203.0004
  -2173945.93649  -1676153.98549  24622437.1314   24622446.6104   24622442.4804
       192.0004        129.0004
 -12041846.70549  -9102747.34349  22103722.3844   22103725.6684   22103721.6894
       231.0004        175.0004
 -25152468.97049 -19025527.79649  20082631.5864   20082633.8214   20082631.0024
       235.0004        204.0004
 11 10  9 19 28 30.0000000  0  7G23G17G32G01G13G11G20
 -14973635.28149 -10562128.38849  22415004.8244   22415006.5744   22415006.1544
       232.0004        171.0004
 -16264848.03849 -12656770.29949  21843076.5024   21843079.1054   21843076.8484
       236.0004        187.0004
 -18462399.81249 -14370137.69949  21004988.7744   21004992.8674   21004988.9064
       239.0004        194.0004
 -12447833.30449  -9682318.63349  20686821.4484   20686827.4304   20686821.3354
       241.0004        203.0004
  -2293943.95549  -1769658.88149  24599607.7834   24599614.8664   24599606.3454
       206.0004        128.0004
 -11949874.24649  -9031080.52749  22121223.9494   22121225.9044   22121223.2394
       231.0004        173.0004
 -25162084.03149 -19033020.04049  20080801.5684   20080804.2024   20080801.3764
       234.0004        204.0004
 11 10  9 19 29  0.0000000  0  7G23G17G32G01G13G11G20
 -15069074.15649 -10636496.28649  22396844.9764   22396845.2464   22396844.2374
       234.0004        172.0004
 -16291032.78949 -12677173.98549  21838093.2664   21838095.8764   21838093.4764
       234.0004        186.0004
 -18413597.80249 -14332110.16149  21014276.9104   21014279.4274   21014276.4374
       241.0004        194.0004
 -12399182.19549  -9644408.67549  20696079.1864   20696085.3554   20696079.3484
       244.0004        203.0004
  -2413889.81449  -1863123.23049  24576782.5684   24576788.7124   24576784.6244
       201.0004        134.0004
 -11857613.97249  -8959189.43749  22138779.4684   22138781.3784   22138779.9544
       230.0004        174.0004
 -25171270.59649 -19040178.39549  20079053.9634   20079056.0224   20079053.3594
       234.0004        204.0004
 11 10  9 19 29 30.0000000  0  7G23G17G32G01G13G11G20
 -15164222.54949 -10710637.84349  22378738.1174   22378739.0854   22378738.0874
       231.0004        172.0004
 -16316625.53949 -12697116.35949  21833222.7444   21833225.4204   21833223.6774
       234.0004        186.0004
 -18364486.72449 -14293841.78249  21023622.0914   21023625.4474   21023621.2164
       241.0004        194.0004
 -12350097.62149  -9606160.97449  20705420.4734   20705425.4944   20705420.0114
       245.0004        203.0004
  -2533781.75149  -1956545.39449  24553964.6064   24553972.6604   24553967.8794
       196.0004        134.0004
 -11765067.66949  -8887075.45449  22156391.2774   22156393.1284   22156390.7974
       232.0004        174.0004
 -25180028.93849 -19047003.06049  20077387.2604   20077389.4984   20077386.5604
       235.0004        204.0004
 11 10  9 19 30  0.0000000  0  7G23G17G32G01G13G11G20
 -15259078.62749 -10784551.60149  22360687.4804   22360688.8374   22360687.7314
       233.0004        173.0004
 -16341625.76249 -12716597.04349  21828466.4864   21828468.3534   21828466.3804
       236.0004        187.0004
 -18315068.03049 -14255333.69649  21033025.8844   21033029.1134   21033025.3494
       240.0004        194.0004
 -12300580.37749  -9567576.12549  20714842.4004   20714848.0124   20714842.7094
       244.0004        203.0004
  -2653617.34149  -2049923.64749  24531165.0284   24531170.7284   24531166.6174
       208.0004        133.0004
 -11672237.34949  -8814740.16049  22174057.0644   22174058.8934   22174056.0614
       230.0004        174.0004
 -25188359.31349 -19053494.25449  20075802.1664   20075804.0394   20075801.6694
       235.0004        204.0004
 11 10  9 19 30 30.0000000  0  7G23G17G32G01G13G11G20
 -15353639.92549 -10858235.66049  22342692.9444   22342693.9054   22342693.4204
       232.0004        173.0004
 -16366032.44549 -12735615.21649  21823821.0464   21823823.9444   21823821.7964
       234.0004        187.0004
 -18265343.37249 -14216587.20449  21042488.6584   21042491.3864   21042488.3554
       241.0004        194.0004
 -12250630.97149  -9528654.48249  20724348.0594   20724353.1884   20724347.3954
       244.0004        203.0004
  -2773394.30949  -2143256.42049  24508371.1054   24508374.9444   24508371.7414
       207.0004        133.0004
 -11579125.07849  -8742185.15549  22191774.9574   22191777.2374   22191774.9944
       232.0004        173.0004
 -25196262.24549 -19059652.37149  20074298.5914   20074300.0014   20074298.1164
       235.0004        204.0004
 11 10  9 19 31  0.0000000  0  7G23G17G32G01G13G11G20
 -15447903.94249 -10931688.08149  22324756.1114   22324755.4224   22324755.6634
       234.0004        173.0004
 -16389843.86949 -12754169.58849  21819290.0684   21819291.7424   21819290.5084
       235.0004        186.0004
 -18215313.63849 -14177602.99249  21052009.0684   21052011.8694   21052008.5024
       240.0004        194.0004
 -12200249.70549  -9489396.36049  20733934.9134   20733940.9104   20733935.0634
       244.0004        203.0004
  -2893109.81749  -2236541.15849  24485592.5164   24485595.0844   24485591.9584
       206.0004        132.0004
 -11485732.10249  -8669411.42649  22209547.9994   22209549.1264   22209548.0814
       234.0004        173.0004
 -25203737.22449 -19065477.00849  20072876.1534   20072877.6344   20072875.3324
       236.0004        204.0004
 11 10  9 19 31 30.0000000  0  7G23G17G32G01G13G11G20
 -15541868.88349 -11004907.45549  22306875.7784   22306875.0404   22306874.9944
       234.0004        174.0004
 -16413059.60549 -12772259.76649  21814872.4324   21814874.5404   21814872.9494
       235.0004        186.0004
 -18164980.39349 -14138382.27949  21061586.6744   21061589.6784   21061586.5594
       240.0004        193.0004
 -12149437.48049  -9449802.41649  20743603.9734   20743610.1864   20743604.1944
       244.0004        202.0004
  -3012761.81849  -2329776.32949  24462824.1454   24462827.3114   24462824.2914
       214.0004        139.0004
 -11392060.38149  -8596420.48449  22227372.5054   22227374.6764   22227371.7264
       233.0004        172.0004
 -25210784.55249 -19070968.40849  20071534.7714   20071536.9384   20071534.2124
       235.0004        204.0004
 11 10  9 19 32  0.0000000  0  7G23G17G32G01G13G11G20
 -15635532.09049 -11077891.71549  22289049.5384   22289052.2454   22289050.4344
       232.0004        174.0004
 -16435677.95149 -12789884.44249  21810567.6514   21810570.6064   21810568.1864
       234.0004        187.0004
 -18114344.33749 -14098925.61349  21071222.4704   21071224.8744   21071222.0994
       239.0004        192.0004
 -12098194.09049  -9409872.50249  20753354.9564   20753361.4134   20753355.2334
       243.0004        202.0004
  -3132346.97749  -2422959.53849  24440070.0564   24440068.5294   24440067.7944
       214.0004        132.0004
 -11298111.04449  -8523213.21949  22245248.8784   22245251.9894   22245249.5824
       232.0004        173.0004
 -25217404.23749 -19076126.58049  20070274.8864   20070276.8174   20070274.3134
       235.0004        204.0004
 11 10  9 19 32 30.0000000  0  7G23G17G32G01G13G11G20
 -15728892.21749 -11150639.80849  22271284.2314   22271286.1444   22271285.1234
       234.0004        176.0004
 -16457699.27049 -12807043.91549  21806377.6314   21806380.0204   21806377.5854
       235.0004        186.0004
 -18063408.02549 -14059234.97349  21080915.0464   21080918.1674   21080914.7424
       239.0004        192.0004
 -12046521.48249  -9369608.15249  20763188.4234   20763193.9994   20763188.5104
       244.0004        203.0004
  -3251864.25949  -2516089.94749  24417319.0124   24417324.3814   24417321.3254
       196.0004        128.0004
 -11203886.95649  -8449791.86449  22263181.3984   22263182.5294   22263180.6164
       233.0004        172.0004
 -25223597.60349 -19080952.57449  20069095.7314   20069098.3584   20069095.5844
       235.0004        204.0004
 11 10  9 19 33  0.0000000  0  8G23G17G32G01G31G13G11G20
 -15821946.89449 -11223149.89449  22253577.3164   22253577.1954   22253577.1654
       234.0004        175.0004
 -16479122.16849 -12823737.09049  21802300.5314   21802303.2134   21802302.0054
       234.0004        186.0004
 -18012172.48149 -14019311.17149  21090665.1344   21090668.0884   21090664.5934
       239.0004        192.0004
 -11994419.76949  -9329009.43249  20773103.3784   20773108.6474   20773103.3954
       244.0004        202.0004
    -13048.01149     -2383.55749  23561381.5244
       205.0004         74.0004
  -3371310.90649  -2609165.07449  24394594.3944   24394597.5274   24394595.4294
       214.0004        141.0004
 -11109389.58749  -8376157.59549  22281162.2994   22281164.9814   22281162.0334
       232.0004        172.0004
 -25229364.01549 -19085445.87549  20067998.6884   20068001.1314   20067998.3824
       235.0004        204.0004
 11 10  9 19 33 30.0000000  0  8G23G17G32G01G31G13G11G20
 -15914693.31849 -11295419.79549  22235928.3834   22235927.5504   22235927.7534
       234.0004        176.0004
 -16499945.23549 -12839962.84049  21798338.9354   21798340.9874   21798338.6844
       235.0004        187.0004
 -17960638.47649 -13979154.80549  21100472.2384   21100475.2384   21100471.1714
       240.0004        193.0004
 -11941889.07749  -9288076.45449  20783099.7104   20783105.1144   20783099.4074
       243.0004        202.0004
    -53105.85749    -33597.99849  23553760.8584
       211.0004        125.0004
  -3490683.76949  -2702182.84449  24371878.4684   24371880.6984   24371877.4614
       202.0004        135.0004
 -11014619.87749  -8302311.06949  22299195.8354   22299199.2554   22299195.5614
       229.0004        171.0004
 -25234703.45449 -19089606.48349  20066983.1534   20066985.1914   20066982.4454
       234.0004        204.0004
 11 10  9 19 34  0.0000000  0  8G23G17G32G01G31G13G11G20
 -16007130.54149 -11367448.74949  22218337.8014   22218338.9754   22218337.6284
       235.0004        175.0004
 -16520169.04749 -12855721.65049  21794490.0814   21794492.1004   21794490.1894
       235.0004        187.0004
 -17908808.77349 -13938768.01849  21110334.6754   21110337.3614   21110334.6354
       239.0004        192.0004
 -11888931.51449  -9246810.85149  20793176.5174   20793182.7094   20793176.6514
       242.0004        202.0004
    -92654.10449    -64415.83649  23546231.2454
       206.0004        125.0004
  -3609982.37449  -2795142.69549  24349175.3054   24349176.6314   24349172.5524
       208.0004        130.0004
 -10919581.36849  -8228255.08949  22317281.8044   22317284.9204   22317282.6174
       230.0004        170.0004
 -25239617.49949 -19093435.59749  20066048.6304   20066049.9474   20066047.7734
       235.0004        204.0004
 11 10  9 19 34 30.0000000  0  8G23G17G32G01G31G13G11G20
 -16099255.03849 -11439234.02549  22200807.5654   22200808.0304   22200807.0264
       235.0004        175.0004
 -16539791.31549 -12871011.73149  21790756.0454   21790758.3114   21790756.6064
       235.0004        187.0004
 -17856683.31549 -13898150.76549  21120253.5354   21120256.3114   21120253.4914
       239.0004        192.0004
 -11835546.26349  -9205211.98249  20803336.2434   20803342.0364   20803335.7594
       242.0004        202.0004
   -131689.30249      -277.03649  23538804.2594
       206.0004         74.0004
  -3729202.23549  -2888041.24949  24326488.5954   24326491.6814   24326487.3134
       209.0004        138.0004
 -10824274.41649  -8153989.94649  22335419.0014   22335420.1484   22335417.3454
       231.0004        169.0004
 -25244104.93149 -19096932.27849  20065194.2584   20065195.9424   20065193.4034
       235.0004        204.0004
 11 10  9 19 35  0.0000000  0  8G23G17G32G01G31G13G11G20
 -16191065.51349 -11510774.62149  22183337.4404   22183337.2594   22183335.8984
       234.0004        176.0004
 -16558811.64149 -12885832.76849  21787136.2444   21787139.7234   21787136.8094
       234.0004        188.0004
 -17804264.02849 -13857304.56249  21130228.8954   21130231.3684   21130228.6324
       239.0004        192.0004
 -11781734.55749  -9163280.83249  20813575.4634   20813581.7054   20813575.7094
       242.0004        201.0004
   -170209.94949    -30293.67549  23531474.1304
       210.0004        125.0004
  -3848341.78749  -2980877.10149  24303814.6734   24303818.0584   24303814.4794
       205.0004        134.0004
 -10728701.17749  -8079517.32549  22353604.8864   22353607.6194   22353604.8464
       230.0004        170.0004
 -25248166.54549 -19100097.17849  20064421.0814   20064422.8424   20064420.7894
       235.0004        204.0004
 11 10  9 19 35 30.0000000  0  8G23G17G32G01G31G13G11G20
 -16282559.24949 -11582068.37549  22165925.1194   22165926.7004   22165925.3664
       234.0004        177.0004
 -16577228.93549 -12900183.90749  21783631.6544   21783635.0314   21783632.5314
       235.0004        188.0004
 -17751552.07049 -13816230.31249  21140260.0414   21140262.7964   21140259.8064
       240.0004        193.0004
 -11727496.76849  -9121017.65149  20823896.8124   20823903.0444   20823896.7894
       242.0004        201.0004
   -208214.40249    -59908.00149  23524242.3224
       212.0004        112.0004
  -3967398.31449  -3073648.30649  24281159.5594   24281164.5914   24281158.7034
       205.0004        130.0004
 -10632863.09949  -8004838.32849  22371842.9094   22371843.7494   22371843.2954
       230.0004        169.0004
 -25251802.14149 -19102930.09449  20063729.3174   20063731.1864   20063728.7224
       235.0004        204.0004
 11 10  9 19 36  0.0000000  0  8G23G17G32G01G31G13G11G20
 -16373735.02249 -11653114.39249  22148574.4684   22148576.0694   22148575.0234
       233.0004        177.0004
 -16595043.05649 -12914065.05649  21780241.9654   21780244.3074   21780241.5754
       235.0004        187.0004
 -17698549.14749 -13774929.32649  21150345.6604   21150348.5784   21150345.2054
       239.0004        193.0004
 -11672834.01949  -9078423.32049  20834298.8394   20834305.0304   20834298.8294
       242.0004        200.0004
   -245701.12249    -89118.97349  23517107.9694   23517103.8554
       213.0004        143.0004
  -4086370.04749  -3166353.62549  24258521.6224   24258525.8564   24258519.8714
       205.0004        137.0004
 -10536762.67749  -7929954.90749  22390130.5594   22390133.3254   22390130.5144
       230.0004        169.0004
 -25255012.50749 -19105431.66449  20063117.8794   20063120.1624   20063117.8344
       235.0004        204.0004
 11 10  9 19 36 30.0000000  0  8G23G17G32G01G31G13G11G20
 -16464589.54649 -11723910.07749  22131286.6884   22131286.7354   22131285.9004
       233.0004        177.0004
 -16612252.83949 -12927475.27349  21776966.6334   21776970.0604   21776967.6194
       234.0004        188.0004
 -17645256.15049 -13733402.31049  21160486.4074   21160490.0084   21160486.6614
       239.0004        192.0004
 -11617746.61949  -9035498.08349  20844782.0244   20844787.5254   20844782.0324
       241.0004        201.0004
   -282667.53049   -117923.74049  23510072.6974   23510075.8724   23510073.4264
       209.0004        146.0004
  -4205254.21649  -3258990.47049  24235897.5474   24235900.9764   24235894.3324
       202.0004        136.0004
 -10440401.35149  -7854868.19549  22408466.6404   22408469.4594   22408466.4964
       228.0004        168.0004
 -25257797.36349 -19107601.68649  20062588.5314   20062590.2344   20062588.0764
       235.0004        204.0004
 11 10  9 19 37  0.0000000  0  8G23G17G32G01G31G13G11G20
 -16555121.36349 -11794454.30249  22114057.5824   22114059.4294   22114058.2234
       232.0004        178.0004
 -16628857.92549 -12940414.28449  21773807.7874   21773809.7154   21773808.0254
       236.0004        188.0004
 -17591674.89849 -13691650.67449  21170683.6774   21170686.1484   21170683.0604
       240.0004        192.0004
 -11562235.76949  -8992242.87449  20855344.6634   20855350.8424   20855344.9804
       241.0004        200.0004
   -319112.45449   -146322.33149  23503138.6134   23503142.2744   23503139.2334
       212.0004        147.0004
  -4324048.61049  -3351557.38749  24213291.1024   24213298.1864   24213290.3654
       208.0004        137.0004
 -10343780.89449  -7779579.55049  22426853.0064   22426855.9964   22426852.7964
       228.0004        168.0004
 -25260157.38049 -19109440.66549  20062139.4074   20062141.2374   20062138.8554
       235.0004        204.0004
 11 10  9 19 37 30.0000000  0  8G23G17G32G01G31G13G11G20
 -16645328.52749 -11864745.58449  22096891.5014   22096893.2274   22096893.0404
       234.0004        178.0004
 -16644857.34249 -12952881.35349  21770762.8784   21770765.1874   21770763.4304
       235.0004        188.0004
 -17537806.77549 -13649675.51249  21180934.4254   21180937.2724   21180934.0424
       240.0004        193.0004
 -11506302.06749  -8948658.18649  20865989.7594   20865994.8524   20865989.2414
       242.0004        200.0004
   -355034.11449   -174313.22149  23496304.1104   23496304.1974   23496303.9374
       217.0004        146.0004
  -4442750.78549  -3444052.62249  24190703.7704   24190705.8764   24190701.2004
       206.0004        133.0004
 -10246903.26949  -7704090.51149  22445287.9024   22445290.6504   22445288.2634
       227.0004        167.0004
 -25262092.79649 -19110948.77949  20061771.5064   20061772.9584   20061770.7054
       236.0004        204.0004
 11 10  9 19 38  0.0000000  0  8G23G17G32G01G31G13G11G20
 -16735208.50649 -11934781.90149  22079788.7924   22079789.6434   22079788.7664
       234.0004        177.0004
 -16660250.50149 -12964875.99449  21767833.2794   21767835.7684   21767833.4334
       235.0004        188.0004
 -17483652.55349 -13607477.41449  21191239.7514   21191242.1534   21191238.9304
       241.0004        193.0004
 -11449945.85549  -8904744.26849  20876714.3314   20876718.9664   20876713.4414
       242.0004        200.0004
   -390429.98749   -201894.33749  23489565.8564   23489569.9934   23489566.8684
       214.0004        148.0004
  -4561358.12549  -3536473.83349  24168132.0254   24168131.0244   24168130.9554
       207.0004        134.0004
 -10149769.99749  -7628402.25449  22463771.7034   22463773.6384   22463771.7864
       226.0004        166.0004
 -25263603.48149 -19112125.92949  20061483.4164   20061485.3614   20061482.9184
       235.0004        204.0004
 11 10  9 19 38 30.0000000  0  8G23G17G32G01G31G13G11G20
 -16824759.47449 -12004561.84749  22062748.6674   22062748.4664   22062747.9754
       236.0004        179.0004
 -16675036.84649 -12976397.79449  21765020.1074   21765022.2774   21765020.1494
       234.0004        187.0004
 -17429214.22549 -13565057.93949  21201598.2214   21201601.2984   21201598.1964
       239.0004        192.0004
 -11393168.47549  -8860502.14749  20887516.9844   20887523.3264   20887517.2164
       241.0004        199.0004
   -425299.12349   -229065.05549  23482931.6644   23482934.2464   23482932.6544
       214.0004        151.0004
  -4679868.55149  -3628819.49749  24145581.1984   24145586.6394   24145580.8234
       211.0004        141.0004
 -10052383.50749  -7552516.67749  22482304.0194   22482308.0734   22482304.2074
       227.0004        166.0004
 -25264690.30149 -19112972.80549  20061276.5944   20061278.3964   20061276.3994
       235.0004        204.0004
 11 10  9 19 39  0.0000000  0  9G23G17G32G01G31G13G11G04G20
 -16913979.09449 -12074083.58149  22045769.6354   22045771.0704   22045769.9994
       234.0004        178.0004
 -16689215.90849 -12987446.40449  21762320.9174   21762323.7844   21762322.1894
       234.0004        187.0004
 -17374492.80049 -13522417.85549  21212011.2574   21212014.9114   21212011.2964
       239.0004        193.0004
 -11335970.23549  -8815932.11049  20898402.2954   20898407.9674   20898402.0674
       241.0004        199.0004
   -459639.51749   -255823.73849  23476395.8714   23476399.0544   23476395.9154
       214.0004        153.0004
  -4798279.40949  -3721087.64149  24123046.6954   24123050.7284   24123049.4494
       202.0004        133.0004
  -9954744.91749  -7476434.68949  22500884.6354   22500886.2964   22500883.5014
       230.0004        165.0004
    -57032.01049     -6210.12349  24138797.3764
       204.0004         74.0004
 -25265353.18249 -19113489.32649  20061150.5554   20061152.5184   20061150.4454
       235.0004        204.0004
 11 10  9 19 39 30.0000000  0  8G23G17G32G01G31G13G11G20
 -17002865.24949 -12143345.48649  22028855.1134   22028856.0444   22028855.3954
       235.0004        179.0004
 -16702786.65549 -12998021.00049  21759738.8934   21759741.6424   21759739.3564
       233.0004        187.0004
 -17319489.53349 -13479558.16649  21222478.8404   21222481.5774   21222478.0464
       240.0004        192.0004
 -11278351.82249  -8771034.64049  20909366.6064   20909372.5664   20909366.3704
       241.0004        199.0004
   -493449.17449   -282168.86349  23469963.3764   23469966.3394   23469963.4194
       217.0004        157.0004
  -4916588.07449  -3813276.13849  24100531.5184   24100537.6844   24100532.8514
       209.0004        135.0004
  -9856855.98849  -7400157.59449  22519511.0814   22519514.6314   22519510.0564
       226.0004        164.0004
 -25265592.45049 -19113675.75149  20061104.6494   20061106.7804   20061104.6914
       234.0004        204.0004
 11 10  9 19 40  0.0000000  0  8G23G17G32G01G31G13G11G20
 -17091416.47349 -12212346.41149  22012004.5764   22012005.3794   22012004.2904
       235.0004        179.0004
 -16715748.96749 -13008121.48049  21757271.8274   21757274.4424   21757272.3524
       235.0004        187.0004
 -17264206.19449 -13436480.24549  21232999.3044   21233001.3674   21232998.9384
       241.0004        193.0004
 -11220314.65049  -8725810.88849  20920410.0494   20920416.4174   20920410.3464
       239.0004        199.0004
   -526726.88449   -308099.52449  23463631.6214   23463633.0174   23463632.0844
       221.0004        160.0004
  -5034792.57949  -3905383.46649  24078042.3394   24078045.2754   24078043.4774
       213.0004        143.0004
  -9758719.12949  -7323687.34249  22538185.2654   22538189.2734   22538186.6454
       226.0004        165.0004
 -25265408.80549 -19113532.63549  20061140.0304   20061142.0054   20061139.3994
       235.0004        204.0004
 11 10  9 19 40 30.0000000  0  8G23G17G32G01G31G13G11G20
 -17179630.47249 -12281084.57249  21995217.9634   21995218.8874   21995217.8934
       236.0004        179.0004
 -16728102.31049 -13017747.44949  21754921.2764   21754924.1224   21754921.4154
       235.0004        187.0004
 -17208644.15249 -13393185.14849  21243572.1324   21243574.0844   21243571.7084
       241.0004        193.0004
 -11161859.46249  -8680261.42149  20931533.4964   20931540.1414   20931533.9114
       240.0004        198.0004
   -559470.99549   -333614.31549  23457399.6274   23457401.7794   23457400.0634
       222.0004        160.0004
  -5152890.82749  -3997407.97949  24055569.5584   24055569.3534   24055566.6234
       206.0004        138.0004
  -9660336.15049  -7247025.31349  22556908.2704   22556910.8114   22556907.2434
       228.0004        165.0004
 -25264802.52949 -19113060.21649  20061254.9294   20061257.1144   20061254.6384
       234.0004        204.0004
 11 10  9 19 41  0.0000000  0  9G23G17G32G01G31G13G11G04G20
 -17267504.59749 -12349557.89749  21978496.5174   21978497.2744   21978496.5764
       237.0004        180.0004
 -16739845.46849 -13026897.91849  21752686.2854   21752689.1534   21752687.2754
       235.0004        187.0004
 -17152804.13249 -13349673.44049  21254196.6404   21254200.1904   21254197.1354
       239.0004        192.0004
 -11102986.27749  -8634386.21349  20942737.7474   20942743.2284   20942737.2434
       240.0004        198.0004
   -591679.54449   -358711.84449  23451270.0864   23451273.5174   23451270.7914
       221.0004        160.0004
  -5270879.52249  -4089347.16849  24033117.8014   24033119.2504   24033117.8124
       215.0004        137.0004
  -9561708.27149  -7170172.40849  22575677.8224   22575678.5934   22575677.3384
       227.0004        165.0004
   -479353.18849    -81437.48449  24058430.3104
       206.0004         97.0004
 -25263772.99649 -19112257.96149  20061451.3354   20061452.5504   20061450.9644
       236.0004        204.0004
 11 10  9 19 41 30.0000000  0  9G23G17G32G01G31G13G11G04G20
 -17355037.52849 -12417765.36649  21961840.1144   21961839.1374   21961838.6024
       237.0004        179.0004
 -16750979.06949 -13035573.42249  21750568.9574   21750570.6604   21750568.8604
       235.0004        187.0004
 -17096688.35349 -13305946.85549  21264876.7634   21264879.0304   21264876.2884
       241.0004        193.0004
 -11043696.92449  -8588186.70349  20954019.9464   20954025.1964   20954019.8564
       239.0004        198.0004
   -623351.45649   -383391.25949  23445243.2054   23445245.6924   23445243.5534
       220.0004        160.0004
  -5388757.13749  -4181199.80349  24010686.3374   24010688.1234   24010684.4844
       215.0004        143.0004
  -9462838.31349  -7093130.90749  22594488.9814   22594493.7274   22594490.8884
       224.0004        165.0004
   -584672.00349   -163504.27249  24038387.2834
       205.0004        125.0004
 -25262321.64149 -19111127.02749  20061727.4754   20061728.8204   20061726.8994
       235.0004        204.0004
 11 10  9 19 42  0.0000000  0  9G23G17G32G01G31G13G11G04G20
 -17442226.99949 -12485705.19649  21945246.8994   21945248.4254   21945247.9144
       236.0004        180.0004
 -16761502.28549 -13043773.29149  21748565.3084   21748568.4684   21748565.5914
       233.0004        188.0004
 -17040297.79149 -13262006.14649  21275607.4474   21275610.1754   21275606.7444
       240.0004        194.0004
 -10983991.79849  -8541663.24649  20965381.0534   20965386.9624   20965380.7104
       239.0004        198.0004
   -654484.44249   -407650.63049  23439319.5274   23439320.9914   23439319.9104
       223.0004        162.0004
  -5506521.07949  -4272963.77349  23988275.0264   23988276.9514   23988274.1014
       213.0004        141.0004
  -9363727.38049  -7015901.62949  22613349.2864   22613353.3724   22613350.0594
       226.0004        165.0004
   -689882.50849   -245486.21349  24018367.4994   24018373.2794
       206.0004        135.0004
 -25260448.48349 -19109667.41149  20062083.9904   20062085.4204   20062083.3504
       235.0004        204.0004
 11 10  9 19 42 30.0000000  0  9G23G17G32G01G31G13G11G04G20
 -17529070.55249 -12553375.47949  21928721.7694   21928722.1284   21928722.1864
       235.0004        180.0004
 -16771413.92449 -13051496.62249  21746679.2854   21746682.1364   21746679.8214
       235.0004        188.0004
 -16983633.27249 -13217851.99049  21286389.8844   21286392.3594   21286389.6174
       239.0004        193.0004
 -10923871.36149  -8494816.16249  20976821.9194   20976827.8194   20976821.8744
       240.0004        197.0004
   -685077.28449   -431489.14249  23433496.9894   23433499.3544   23433497.6204
       221.0004        160.0004
  -5624168.20049  -4364636.79549  23965888.3824   23965890.3674   23965889.2534
       214.0004        139.0004
  -9264377.33049  -6938486.01749  22632256.9824   22632259.1724   22632256.8724
       226.0004        165.0004
   -794982.41849   -327382.17649  23998368.7974   23998372.6384   23998368.2574
       204.0004        138.0004
 -25258153.26949 -19107878.92949  20062519.7894   20062522.0634   20062519.6104
       234.0004        204.0004
 11 10  9 19 43  0.0000000  0  9G23G17G32G01G31G13G11G04G20
 -17615566.83249 -12620775.13949  21912262.5174   21912262.6204   21912262.2854
       236.0004        180.0004
 -16780714.35649 -13058743.70849  21744909.7984   21744912.0534   21744909.6834
       234.0004        187.0004
 -16926696.73549 -13173485.85049  21297224.4324   21297226.6824   21297224.1384
       240.0004        192.0004
 -10863337.02149  -8447646.56849  20988341.8494   20988347.0024   20988341.3324
       241.0004        197.0004
   -715128.38149   -454905.54349  23427778.6524   23427780.6714   23427779.0224
       222.0004        162.0004
  -5741696.96149  -4456217.61849  23943522.0754   23943524.3724   23943521.5274
       213.0004        139.0004
  -9164790.59949  -6860885.99049  22651208.0964   22651209.8634   22651207.6584
       227.0004        165.0004
   -899970.48149   -409190.93749  23978388.9204   23978394.2264   23978389.3024
       205.0004        136.0004
 -25255436.45649 -19105761.92849  20063037.0624   20063039.4434   20063036.7274
       235.0004        204.0004
 11 10  9 19 43 30.0000000  0  9G23G17G32G01G31G13G11G04G20
 -17701713.47549 -12687902.35449  21895869.4814   21895870.0044   21895868.5594
       238.0004        182.0004
 -16789402.92849 -13065514.01249  21743256.3114   21743258.9294   21743256.6164
       235.0004        188.0004
 -16869489.36249 -13128908.66249  21308110.6104   21308113.5854   21308110.6934
       241.0004        192.0004
 -10802389.45849  -8400154.98249  20999939.1394   20999944.5794   20999939.3464
       239.0004        198.0004
   -744636.40849   -477898.78649  23422163.8524   23422166.7024   23422164.0854
       222.0004        163.0004
  -5859104.87349  -4547704.16749  23921179.6944   23921183.7534   23921180.4584
       214.0004        141.0004
  -9064968.24949  -6783102.32749  22670204.1234   22670206.1734   22670203.1434
       226.0004        165.0004
  -1004844.74149   -490911.06649  23958432.2534   23958436.6434   23958431.7684
       208.0004        139.0004
 -25252299.19249 -19103317.30849  20063634.1994   20063636.4574   20063633.7074
       234.0004        205.0004
 11 10  9 19 44  0.0000000  0  9G23G17G32G01G31G13G11G04G20
 -17787508.06849 -12754755.24949  21879542.4304   21879542.7964   21879542.9944
       235.0004        180.0004
 -16797478.99649 -13071807.05249  21741719.1304   21741721.6344   21741719.6684
       235.0004        188.0004
 -16812012.16849 -13084121.23349  21319048.5694   21319050.6554   21319047.8314
       241.0004        192.0004
 -10741029.08649  -8352341.72349  21011615.7104   21011621.1964   21011615.1754
       240.0004        197.0004
   -773598.97549   -500466.96649  23416652.0764   23416654.6104   23416653.2224
       224.0004        165.0004
  -5976388.94049  -4639094.26949  23898861.6224   23898865.1804   23898862.1144
       215.0004        143.0004
  -8964912.00949  -6705136.43849  22689242.6494   22689246.4754   22689243.5384
       226.0004        163.0004
  -1109602.74849   -572540.57949  23938497.5694   23938501.4104   23938498.3874
       205.0004        140.0004
 -25248740.92849 -19100544.62349  20064312.2714   20064313.4334   20064311.7494
       236.0004        205.0004
 11 10  9 19 44 30.0000000  0  9G23G17G32G01G31G13G11G04G20
 -17872948.77749 -12821332.39149  21863283.4764   21863284.6424   21863283.5794
       235.0004        181.0004
 -16804942.50449 -13077622.76549  21740298.8514   21740301.3364   21740298.6984
       234.0004        187.0004
 -16754266.60249 -13039124.69649  21330036.8004   21330039.3734   21330036.6414
       240.0004        192.0004
 -10679257.13149  -8304207.76949  21023371.1224   21023376.2854   21023370.6704
       239.0004        197.0004
   -802015.11649   -522609.31549  23411245.0674   23411247.3014   23411245.4684
       222.0004        163.0004
  -6093547.03449  -4730386.24949  23876563.7614   23876566.3804   23876566.5714
       207.0004        135.0004
  -8864624.33649  -6626990.22349  22708327.3064   22708330.1984   22708327.6074
       225.0004        163.0004
  -1214242.99849   -654078.32849  23918584.6044   23918587.5614   23918584.6574
       207.0004        139.0004
 -25244762.37449 -19097444.44249  20065069.0734   20065070.7054   20065068.6214
       236.0004        205.0004
 11 10  9 19 45  0.0000000  0  9G23G17G32G01G31G13G11G04G20
 -17958034.39149 -12887632.83849  21847092.9134   21847093.4464   21847093.1884
       237.0004        182.0004
 -16811793.38549 -13082961.12449  21738996.0364   21738998.3114   21738995.8534
       235.0004        187.0004
 -16696254.60849 -12993920.54749  21341076.4444   21341078.7474   21341075.7194
       240.0004        191.0004
 -10617074.97149  -8255754.17249  21035203.0774   21035209.2764   21035203.4434
       240.0004        197.0004
   -829884.03849   -544325.31449  23405940.9464   23405943.2954   23405941.8474
       223.0004        163.0004
  -6210577.03449  -4821578.33649  23854295.0564   23854300.3854   23854297.5244
       214.0004        142.0004
  -8764107.44249  -6548665.37349  22727454.9804   22727457.8864   22727454.7114
       225.0004        164.0004
  -1318764.11049   -735523.24449  23898696.1154   23898697.4804   23898695.8004
       206.0004        138.0004
 -25240364.18649 -19094017.27149  20065906.0904   20065907.7244   20065905.5394
       237.0004        206.0004
 11 10  9 19 45 30.0000000  0  9G23G17G32G01G31G13G11G04G20
 -18042762.40049 -12953654.64549  21830969.0374   21830969.2644   21830969.5664
       236.0004        182.0004
 -16818030.66749 -13087821.33749  21737808.3114   21737811.6324   21737808.4054
       234.0004        188.0004
 -16637976.96749 -12948509.40549  21352165.2394   21352168.7294   21352165.1284
       238.0004        190.0004
 -10554483.05649  -8206981.26749  21047113.8054   21047119.9424   21047113.9624
       240.0004        197.0004
   -857203.60549   -565613.18849  23400743.3814   23400744.6674   23400743.4984
       224.0004        166.0004
  -6327476.03049  -4912668.40249  23832049.3914   23832056.2084   23832052.2084
       208.0004        145.0004
  -8663362.56249  -6470162.86149  22746626.6974   22746628.3804   22746625.8124
       225.0004        163.0004
  -1423163.75449   -816873.55749  23878830.6634   23878832.3374   23878829.1104
       211.0004        140.0004
 -25235546.53549 -19090263.24649  20066822.5454   20066824.0844   20066821.8394
       235.0004        205.0004
 11 10  9 19 46  0.0000000  0  9G23G17G32G01G31G13G11G04G20
 -18127131.12849 -13019396.48049  21814915.1784   21814915.0094   21814914.8204
       237.0004        182.0004
 -16823655.07649 -13092204.00049  21736737.9364   21736740.3064   21736738.6014
       236.0004        187.0004
 -16579435.48249 -12902892.65249  21363306.1594   21363308.9184   21363305.5584
       239.0004        189.0004
 -10491482.64649  -8157890.06049  21059104.5464   21059108.7704   21059103.7274
       242.0004        197.0004
   -883972.83449   -586472.24949  23395648.7254   23395650.0034   23395648.6454
       222.0004        163.0004
  -6444242.67749  -5003655.34149  23809828.0204   23809833.8584   23809829.6934
       210.0004        137.0004
  -8562392.03749  -6391484.55849  22765839.6484   22765842.1684   22765840.2244
       221.0004        161.0004
  -1527440.50549   -898128.05949  23858986.3624   23858990.2234   23858986.0624
       209.0004        140.0004
 -25230310.01549 -19086182.83049  20067818.3904   20067820.8544   20067818.0224
       234.0004        204.0004
 11 10  9 19 46 30.0000000  0  9G23G17G32G01G31G13G11G04G20
 -18211138.11749 -13084856.43849  21798928.8524   21798929.2464   21798928.1304
       237.0004        183.0004
 -16828665.88249 -13096108.52149  21735784.3014   21735787.1824   21735784.7084
       234.0004        188.0004
 -16520631.06749 -12857071.03549  21374496.3804   21374498.8134   21374496.0874
       240.0004        189.0004
 -10428074.34049  -8108480.98949  21071169.2324   21071174.7384   21071169.4414
       239.0004        197.0004
   -910190.15149   -606901.25449  23390659.1084   23390661.9234   23390659.8514
       222.0004        161.0004
  -6560873.90049  -5094536.77849  23787636.7294   23787641.6724   23787635.6904
       215.0004        143.0004
  -8461197.29049  -6312631.52049  22785095.6794   22785099.0304   22785096.6894
       223.0004        162.0004
  -1631592.19849   -979285.15249  23839164.4364   23839171.1504   23839165.7404
       209.0004        138.0004
 -25224654.48349 -19081775.91049  20068894.1824   20068896.8854   20068894.1844
       234.0004        204.0004
 11 10  9 19 47  0.0000000  0  9G23G17G32G01G31G13G11G04G20
 -18294781.25149 -13150032.87949  21783010.4574   21783012.7494   21783011.1434
       235.0004        182.0004
 -16833062.70849 -13099534.60849  21734947.7974   21734950.7274   21734948.8744
       235.0004        188.0004
 -16461564.78149 -12811045.35349  21385736.2304   21385738.9134   21385735.9294
       238.0004        189.0004
 -10364258.86649  -8058754.66049  21083312.6134   21083318.5904   21083312.7484
       239.0004        197.0004
   -935853.65749   -626898.76349  23385775.2384   23385776.8534   23385776.2174
       222.0004        161.0004
  -6677366.83449  -5185310.42049  23765469.9944   23765472.9624   23765468.2404
       212.0004        145.0004
  -8359779.94949  -6233605.05949  22804396.8674   22804398.9554   22804396.3514
       226.0004        161.0004
  -1735616.41849  -1060342.90349  23819372.0004   23819374.4144   23819371.3044
       213.0004        141.0004
 -25218580.29549 -19077042.76449  20070051.5174   20070052.8744   20070050.6714
       235.0004        205.0004
 11 10  9 19 47 30.0000000  0  9G23G17G32G01G31G13G11G04G20
 -18378059.01149 -13214924.61249  21767164.2284   21767165.2114   21767163.3364
       236.0004        183.0004
 -16836845.48549 -13102482.23849  21734228.2464   21734230.7084   21734227.9244
       234.0004        187.0004
 -16402238.23849 -12764816.87949  21397025.6224   21397028.6234   21397024.8334
       238.0004        189.0004
 -10300037.44749  -8008712.01049  21095533.9364   21095539.6024   21095534.1694
       239.0004        196.0004
   -960962.39349   -646463.98449  23380998.6374   23381000.6554   23380997.9394
       221.0004        162.0004
  -6793719.57949  -5275974.78149  23743328.5454   23743330.0844   23743326.3254
       214.0004        140.0004
  -8258142.27549  -6154406.89649  22823737.1524   22823739.4474   22823737.6394
       222.0004        159.0004
  -1839511.53249  -1141300.05349  23799601.0964   23799604.2354   23799601.9714
       213.0004        143.0004
 -25212088.37249 -19071984.11749  20071286.8424   20071288.4264   20071286.3664
       236.0004        205.0004
 11 10  9 19 48  0.0000000  0  9G23G17G32G01G31G13G11G04G20
 -18460969.93749 -13279530.50149  21751387.2294   21751387.3274   21751386.8154
       237.0004        184.0004
 -16840014.59949 -13104951.67249  21733624.8384   21733627.6954   21733625.3944
       235.0004        188.0004
 -16342653.48749 -12718387.19549  21408363.9064   21408366.8724   21408363.3084
       238.0004        190.0004
 -10235411.57749  -7958354.17449  21107831.8544   21107837.5574   21107832.0834
       239.0004        196.0004
   -985515.85849   -665596.52849  23376325.7634   23376326.9454   23376325.2764
       221.0004        161.0004
  -6909930.27949  -5366528.59049  23721213.6774   23721218.0634   23721215.3254
       217.0004        144.0004
  -8156286.65249  -6075038.89649  22843119.5864   22843122.6054   22843119.4784
       224.0004        160.0004
  -1943276.48549  -1222155.78449  23779854.7134   23779858.0644   23779856.0314
       211.0004        142.0004
 -25205179.54549 -19066600.61249  20072601.2664   20072603.1144   20072600.7424
       236.0004        205.0004
 11 10  9 19 48 30.0000000  0  9G23G17G32G01G31G13G11G04G20
 -18543510.66549 -13343847.93849  21735679.8984   21735680.0454   21735680.7164
       237.0004        184.0004
 -16842568.61949 -13106941.81549  21733139.2284   21733141.1044   21733140.1314
       235.0004        188.0004
 -16282810.28949 -12671756.12649  21419751.8824   21419754.6294   21419751.7904
       239.0004        191.0004
 -10170381.00649  -7907680.99449  21120205.5244   21120212.4554   21120206.0804
       237.0004        195.0004
  -1009511.17249   -684294.14249  23371757.8904   23371761.5434   23371758.8504
       218.0004        163.0004
  -7025994.97849  -5456968.50349  23699127.0674   23699130.8924   23699127.3164
       217.0004        148.0004
  -8054213.79849  -5995501.61349  22862546.2184   22862546.4354   22862543.8604
       226.0004        160.0004
  -2046907.81649  -1302907.38049  23760132.8684   23760137.5344   23760134.0924
       209.0004        141.0004
 -25197852.71849 -19060891.39649  20073995.1044   20073997.0634   20073994.8314
       235.0004        204.0004
 11 10  9 19 49  0.0000000  0  9G23G17G32G01G31G13G11G04G20
 -18625680.84949 -13407876.60649  21720044.2964   21720043.7754   21720042.9174
       238.0004        184.0004
 -16844508.79549 -13108453.62249  21732770.1504   21732772.2144   21732770.4624
       236.0004        188.0004
 -16222711.59949 -12624925.97149  21431189.0954   21431191.3844   21431188.2324
       239.0004        189.0004
 -10104948.17249  -7856694.40649  21132657.7854   21132663.8894   21132657.7314
       237.0004        194.0004
  -1032948.51249   -702556.94149  23367299.3554   23367300.7364   23367300.1634
       223.0004        163.0004
  -7141913.01449  -5547294.13149  23677068.7144   23677072.6034   23677068.5334
       214.0004        145.0004
  -7951926.91949  -5915797.57849  22882007.6674   22882011.5064   22882008.0974
       223.0004        160.0004
  -2150405.11149  -1383554.55849  23740439.5634   23740443.3074   23740440.0474
       211.0004        142.0004
 -25190110.00149 -19054858.09149  20075468.0564   20075470.4484   20075467.6794
       234.0004        204.0004
 11 10  9 19 49 30.0000000  0  9G23G17G32G01G31G13G11G04G20
 -18707477.63349 -13471614.34549  21704476.8304   21704478.1574   21704477.1654
       236.0004        183.0004
 -16845833.89149 -13109486.16349  21732518.2554   21732520.7664   21732518.6014
       236.0004        188.0004
 -16162357.39849 -12577896.71949  21442673.3764   21442676.0974   21442672.4704
       238.0004        189.0004
 -10039112.83149  -7805394.15549  21145186.1864   21145191.3884   21145186.0644
       238.0004        194.0004
  -1055825.56049   -720383.21249  23362945.9084   23362946.3364   23362946.0174
       220.0004        161.0004
  -7257680.96249  -5637502.91749  23655037.3714   23655041.6244   23655039.1594
       215.0004        144.0004
  -7849426.63949  -5835927.25549  22901512.5624   22901514.9504   22901513.6114
       224.0004        160.0004
  -2253765.54049  -1464095.06749  23720770.3344   23720774.1484   23720770.4814
       212.0004        143.0004
 -25181950.60149 -19048500.10149  20077020.7254   20077023.1984   20077020.3944
       234.0004        204.0004
 11 10  9 19 50  0.0000000  0  9G23G17G32G01G31G13G11G04G20
 -18788899.57249 -13535060.03149  21688983.1844   21688984.7654   21688983.2664
       237.0004        183.0004
 -16846544.71549 -13110040.03249  21732382.0174   21732384.7734   21732382.4644
       235.0004        188.0004
 -16101749.62849 -12530669.88049  21454205.8014   21454209.3714   21454206.2454
       237.0004        189.0004
  -9972876.53749  -7753781.47449  21157790.5174   21157796.4474   21157790.3264
       235.0004        194.0004
  -1078141.43049   -737772.19449  23358699.6464   23358700.7964   23358700.1114
       222.0004        161.0004
  -7373296.76949  -5727593.12249  23633036.1764   23633042.3174   23633037.4174
       212.0004        145.0004
  -7746715.61249  -5755892.70149  22921059.2594   22921061.1824   22921059.4164
       223.0004        159.0004
  -2356987.29149  -1544527.53249  23701128.9324   23701131.2324   23701127.8794
       214.0004        145.0004
 -25173375.39849 -19041818.10449  20078653.0584   20078654.8844   20078652.5724
       235.0004        204.0004
 11 10  9 19 50 30.0000000  0  9G23G17G32G01G31G13G11G04G20
 -18869944.32949 -13598211.75449  21673561.7684   21673562.4274   21673561.3744
       238.0004        184.0004
 -16846641.02549 -13110115.07849  21732364.2494   21732366.7674   21732364.8814
       236.0004        188.0004
 -16040889.47049 -12483246.37249  21465787.9734   21465790.9194   21465787.1234
       237.0004        189.0004
  -9906240.27049  -7701857.14149  21170469.7574   21170476.5594   21170470.7994
       237.0004        194.0004
  -1099894.81849   -754722.81849  23354560.4764   23354560.7174   23354560.5204
       221.0004        162.0004
  -7488757.88449  -5817562.74849  23611065.5864   23611071.7144   23611067.7274
       215.0004        147.0004
  -7643795.41749  -5675695.16849  22940642.8074   22940646.1974   22940641.7074
       220.0004        157.0004
  -2460068.59649  -1624850.53349  23681513.4534   23681515.6434   23681512.8554
       214.0004        145.0004
 -25164384.80949 -19034812.45049  20080363.9224   20080365.8704   20080363.6714
       236.0004        204.0004
 11 10  9 19 51  0.0000000  0  9G23G17G32G01G31G13G11G04G20
 -18950610.12149 -13661068.19449  21658211.1514   21658212.4934   21658210.9504
       238.0004        184.0004
 -16846122.43549 -13109711.00049  21732463.0684   21732464.7584   21732463.6324
       236.0004        187.0004
 -15979778.01449 -12435627.05749  21477417.0644   21477420.1734   21477416.7364
       237.0004        188.0004
  -9839204.77049  -7649621.72049  21183227.7574   21183233.1944   21183227.5864
       237.0004        194.0004
  -1121084.63649   -771234.33749  23350527.6104   23350528.9324   23350528.2164
       221.0004        161.0004
  -7604061.34749  -5907409.57349  23589126.1704   23589128.3504   23589126.5454
       218.0004        147.0004
  -7540667.81549  -5595336.01449  22960267.4054   22960270.1844   22960267.2484
       222.0004        158.0004
  -2563007.07449  -1705062.28449  23661925.2014   23661925.9134   23661923.7884
       212.0004        144.0004
 -25154978.77849 -19027483.06849  20082154.5614   20082155.8644   20082153.7194
       236.0004        205.0004
 11 10  9 19 51 30.0000000  0  9G23G17G32G01G31G13G11G04G20
 -19030895.41249 -13723628.14949  21642932.9734   21642934.6234   21642933.4104
       238.0004        185.0004
 -16844989.22949 -13108827.97249  21732678.4554   21732680.6834   21732678.9504
       236.0004        187.0004
 -15918417.02549 -12387813.29649  21489093.8764   21489096.4824   21489093.5294
       239.0004        189.0004
  -9771771.39949  -7597076.25349  21196060.0524   21196065.1934   21196059.7974
       237.0004        194.0004
  -1141709.87049   -787305.95449  23346601.2574   23346604.3334   23346602.9454
       218.0004        161.0004
  -7719205.89349  -5997132.58249  23567213.7694   23567216.8384   23567211.9904
       216.0004        144.0004
  -7437334.98149  -5514816.92449  22979931.1604   22979933.3204   22979931.5724
       223.0004        158.0004
  -2665801.19049  -1785161.50549  23642362.5164   23642365.4224   23642364.1264
       212.0004        145.0004
 -25145158.35449 -19019830.78049  20084022.9714   20084024.0924   20084021.9444
       236.0004        204.0004
 11 10  9 19 52  0.0000000  0  9G23G17G32G01G31G13G11G04G20
 -19110797.82549 -13785889.74649  21627729.6404   21627728.8644   21627728.4964
       239.0004        184.0004
 -16843241.23349 -13107465.91449  21733011.1184   21733012.9604   21733011.1804
       234.0004        187.0004
 -15856807.11749 -12339805.56549  21500817.8614   21500820.4794   21500817.2864
       238.0004        189.0004
  -9703940.75549  -7544221.22249  21208966.1864   21208972.6874   21208966.9804
       235.0004        194.0004
  -1161768.84649   -802936.30849  23342784.4324   23342787.2014   23342785.4874
       218.0004        159.0004
  -7834188.42249  -6086729.30749  23545333.0194   23545337.3804   23545332.9484
       219.0004        148.0004
  -7333798.31449  -5434139.02549  22999633.8614   22999636.7474   22999634.0634
       223.0004        158.0004
  -2768448.64149  -1865146.47949  23622828.4874   23622831.6044   23622829.5194
       212.0004        144.0004
 -25134923.17249 -19011855.31049  20085969.7754   20085972.0954   20085969.7504
       235.0004        205.0004
 11 10  9 19 52 30.0000000  0  9G23G17G32G01G31G13G11G04G20
 -19190315.89749 -13847851.82849  21612596.3534   21612597.6344   21612596.4254
       238.0004        185.0004
 -16840879.05749 -13105625.25749  21733460.8344   21733462.7814   21733460.7474
       235.0004        187.0004
 -15794950.36049 -12291605.51049  21512588.2944   21512591.4884   21512587.9394
       238.0004        188.0004
  -9635714.53949  -7491057.94149  21221950.5774   21221955.8214   21221950.1434
       237.0004        193.0004
  -1181261.24349   -818125.16249  23339076.3864   23339077.7244   23339077.7204
       221.0004        160.0004
  -7949006.97949  -6176198.26149  23523483.2714   23523487.0284   23523482.7494
       214.0004        146.0004
  -7230060.32749  -5353304.26149  23019374.6304   23019377.1154   23019373.8164
       221.0004        155.0004
  -2870947.90149  -1945015.96549  23603322.7154   23603327.3414   23603323.1654
       210.0004        144.0004
 -25124275.04149 -19003558.05849  20087996.3434   20087998.4484   20087995.6814
       237.0004        205.0004
 11 10  9 19 53  0.0000000  0  9G23G17G32G01G31G13G11G04G20
 -19269448.17949 -13909513.34449  21597537.1794   21597539.2454   21597538.5174
       236.0004        185.0004
 -16837902.45749 -13103305.83049  21734027.8004   21734029.1654   21734027.8814
       235.0004        187.0004
 -15732848.02449 -12243214.08649  21524406.3764   21524408.8714   21524405.4604
       238.0004        188.0004
  -9567093.84349  -7437587.27749  21235008.7614   21235014.4934   21235008.5104
       236.0004        193.0004
  -1200186.03349   -832871.71849  23335474.9374   23335476.7154   23335474.6154
       218.0004        160.0004
  -8063658.98449  -6265537.42649  23501665.7494   23501669.0794   23501667.3874
       215.0004        145.0004
  -7126123.37349  -5272314.45549  23039154.0324   23039154.8814   23039153.7054
       223.0004        156.0004
  -2973297.05849  -2024768.47649  23583846.6994   23583850.6464   23583847.6254
       210.0004        145.0004
 -25113213.90549 -18994938.98449  20090101.8364   20090103.1664   20090101.2474
       237.0004        205.0004
 11 10  9 19 53 30.0000000  0  9G23G17G32G01G31G13G11G04G20
 -19348191.76549 -13970871.95249  21582554.4314   21582554.1494   21582553.6994
       238.0004        185.0004
 -16834311.39749 -13100507.59149  21734709.6044   21734713.4264   21734711.0624
       234.0004        187.0004
 -15670500.69849 -12194631.75449  21536270.5234   21536273.6144   21536270.2954
       237.0004        188.0004
  -9498079.03949  -7383809.53349  21248141.9324   21248147.3274   21248141.4664
       235.0004        193.0004
  -1218541.19249   -847174.46349  23331981.0504   23331982.5314   23331982.3954
       217.0004        158.0004
  -8178141.27349  -6354744.37349  23479882.6634   23479883.6034   23479882.0524
       217.0004        146.0004
  -7021988.23849  -5191170.19749  23058971.2494   23058972.5784   23058969.2944
       222.0004        157.0004
  -3075493.62649  -2104402.12349  23564401.0954   23564403.2154   23564401.6734
       212.0004        145.0004
 -25101739.59049 -18985997.94849  20092285.0304   20092286.9214   20092284.6604
       236.0004        205.0004
 11 10  9 19 54  0.0000000  0  9G23G17G32G01G31G13G11G04G20
 -19426545.55349 -14031926.83649  21567644.1264   21567644.5474   21567643.4874
       238.0004        185.0004
 -16830106.31549 -13097230.91949  21735511.5254   21735512.7184   21735511.1244
       235.0004        187.0004
 -15607910.15849 -12145859.90849  21548180.8304   21548183.6234   21548180.7274
       237.0004        188.0004
  -9428671.68549  -7329725.89549  21261347.8974   21261355.2234   21261348.6884
       234.0004        193.0004
  -1236326.04849   -861032.75749  23328597.8874   23328599.2854   23328598.0464
       218.0004        159.0004
  -8292452.30349  -6443817.77549  23458129.9464   23458131.5364   23458128.4274
       216.0004        147.0004
  -6917656.89949  -5109873.08949  23078822.7824   23078823.4004   23078823.6924
       220.0004        156.0004
  -3177535.68649  -2183915.33349  23544982.3504   23544986.2014   23544982.3194
       211.0004        146.0004
 -25089853.17649 -18976735.80849  20094546.9164   20094548.6104   20094546.3374
       238.0004        204.0004
 11 10  9 19 54 30.0000000  0  9G23G17G32G01G31G13G11G04G20
 -19504507.31949 -14092676.24149  21552808.6274   21552808.6174   21552808.1974
       239.0004        186.0004
 -16825287.05749 -13093475.65449  21736427.3684   21736429.9664   21736427.7594
       234.0004        187.0004
 -15545077.37649 -12096899.30349  21560138.0254   21560140.5464   21560137.1784
       237.0004        187.0004
  -9358872.61049  -7275337.03949  21274632.1834   21274637.1334   21274632.0794
       237.0004        193.0004
  -1253539.52449   -874445.85849  23325322.4114   23325323.0924   23325323.4894
       219.0004        160.0004
  -8406589.68349  -6532755.88949  23436408.2954   23436411.5094   23436408.6904
       217.0004        147.0004
  -6813131.61249  -5028424.83949  23098712.8544   23098717.1264   23098714.4234
       220.0004        155.0004
  -3279421.48849  -2263306.78849  23525594.8514   23525597.4684   23525594.6114
       213.0004        146.0004
 -25077554.67749 -18967152.55649  20096887.2934   20096889.0174   20096886.6564
       238.0004        204.0004
 11 10  9 19 55  0.0000000  0  9G23G17G32G01G31G13G11G04G20
 -19582075.59549 -14153119.02849  21538048.1024   21538047.4224   21538047.1344
       238.0004        185.0004
 -16819853.74549 -13089241.92549  21737462.2824   21737464.1134   21737462.1794
       235.0004        188.0004
 -15482003.76249 -12047751.03949  21572140.7114   21572143.0094   21572139.9734
       237.0004        187.0004
  -9288683.00849  -7220643.85849  21287988.7474   21287994.4774   21287988.5484
       238.0004        193.0004
  -1270180.54549   -887412.85849  23322155.0114   23322156.8384   23322155.3444
       217.0004        159.0004
  -8520550.90149  -6621556.78149  23414721.8144   23414723.7984   23414722.5674
       216.0004        145.0004
  -6708414.19549  -4946826.88749  23118640.8064   23118643.1404   23118640.7974
       221.0004        155.0004
  -3381148.77649  -2342574.71749  23506234.8424   23506239.4874   23506235.5834
       212.0004        145.0004
 -25064844.85549 -18957248.78849  20099305.4374   20099307.3364   20099305.3114
       238.0004        205.0004
 11 10  9 19 55 30.0000000  0 10G23G17G12G32G01G31G13G11G04G20
 -19659247.78849 -14213253.16549  21523360.2064   21523362.4394   21523361.2834
       237.0004        185.0004
 -16813806.55449 -13084529.82449  21738611.3884   21738614.5164   21738612.7044
       234.0004        187.0004
    -11948.60449     -6688.60749  25397394.9564
       206.0004         74.0004
 -15418690.01049 -11998415.63849  21584188.4254   21584191.2484   21584188.1074
       237.0004        187.0004
  -9218103.41949  -7165646.79149  21301418.6294   21301425.3484   21301418.8884
       237.0004        193.0004
  -1286247.70649   -899932.72849  23319097.9394   23319098.6074   23319099.5734
       220.0004        160.0004
  -8634332.85349  -6710217.93049  23393069.3784   23393074.1174   23393069.1484
       212.0004        148.0004
  -6603506.07049  -4865080.33349  23138604.0864   23138607.3964   23138603.1504
       220.0004        155.0004
  -3482715.14949  -2421717.29649  23486906.8334   23486912.0314   23486908.1714
       208.0004        144.0004
 -25051723.58749 -18947024.40549  20101802.5214   20101804.5004   20101802.1544
       238.0004        204.0004
 11 10  9 19 56  0.0000000  0  9G23G17G32G01G31G13G11G04G20
 -19736024.22649 -14273078.94949  21508752.3444   21508752.1064   21508752.4164
       240.0004        186.0004
 -16807147.30049 -13079340.79349  21739880.1614   21739881.7554   21739880.9614
       236.0004        188.0004
 -15355139.14849 -11948895.47949  21596282.6744   21596285.0284   21596281.6454
       239.0004        187.0004
  -9147136.73449  -7110348.08049  21314922.6564   21314929.3004   21314923.0284
       236.0004        192.0004
  -1301741.81249   -912005.96049  23316148.5744   23316150.9854   23316148.4804
       219.0004        159.0004
  -8747934.93949  -6798738.98649  23371451.5104   23371455.2514   23371451.8734
       216.0004        149.0004
  -6498410.87549  -4783188.00049  23158604.5444   23158606.0314   23158603.6664
       221.0004        154.0004
  -3584120.31149  -2500734.24349  23467609.7704   23467614.6944   23467610.3264
       208.0004        143.0004
 -25038193.17949 -18936481.21249  20104377.5974   20104379.2034   20104377.0224
       238.0004        205.0004
 11 10  9 19 56 30.0000000  0 10G23G17G12G32G01G31G13G11G04G20
 -19812401.22949 -14332593.49049  21494219.0254   21494218.3964   21494217.6704
       240.0004        186.0004
 -16799874.42049 -13073673.61049  21741264.1794   21741265.8164   21741264.1894
       235.0004        187.0004
    -35918.40049    -25373.57049  25392833.7484
       206.0004        107.0004
 -15291350.83249 -11899190.30349  21608420.3144   21608423.1774   21608420.0594
       237.0004        185.0004
  -9075782.48849  -7054747.40949  21328503.4544   21328508.4674   21328502.1014
       238.0004        192.0004
  -1316660.54549   -923630.95349  23313310.2234   23313312.1184   23313310.7864
       218.0004        159.0004
  -8861353.34749  -6887116.93649  23349865.9584   23349870.2934   23349868.3694
       210.0004        146.0004
  -6393128.81149  -4701150.04549  23178637.2994   23178640.7614   23178637.5264
       221.0004        154.0004
  -3685360.50049  -2579622.62249  23448346.0534   23448349.3814   23448347.0694
       213.0004        144.0004
 -25024252.31549 -18925618.18549  20107030.9404   20107032.0264   20107030.3664
       238.0004        205.0004
 11 10  9 19 57  0.0000000  0  9G23G17G32G01G31G13G11G04G20
 -19888377.12649 -14391795.45449  21479759.0424   21479760.8744   21479759.7854
       238.0004        187.0004
 -16791988.80949 -13067528.97249  21742765.4384   21742766.3734   21742765.5934
       236.0004        188.0004
 -15227326.65649 -11849301.32849  21620603.6574   21620606.6514   21620603.6294
       237.0004        186.0004
  -9004042.16849  -6998845.88249  21342153.7044   21342160.1664   21342154.0494
       237.0004        193.0004
  -1331003.02249   -934806.88549  23310580.9234   23310582.7574   23310581.7904
       221.0004        161.0004
  -8974585.80449  -6975349.96149  23328318.8704   23328325.7044   23328320.6134
       214.0004        149.0004
  -6287662.35549  -4618968.43049  23198705.5094   23198710.6084   23198705.5774
       216.0004        153.0004
  -3786434.17249  -2658381.27049  23429113.5754   23429116.3374   23429112.1994
       215.0004        147.0004
 -25009901.88549 -18914436.02249  20109760.8874   20109762.8134   20109760.3854
       237.0004        204.0004
 11 10  9 19 57 30.0000000  0  9G23G17G32G01G31G13G11G04G20
 -19963950.78449 -14450683.96749  21465379.1244   21465378.9724   21465378.9154
       240.0004        187.0004
 -16783490.53149 -13060906.93849  21744381.7614   21744383.5754   21744382.1444
       235.0004        187.0004
 -15163067.95249 -11799229.60349  21632831.4244   21632835.0434   21632831.6684
       237.0004        187.0004
  -8931916.97249  -6942644.43749  21355877.3344   21355884.7104   21355878.0444
       235.0004        191.0004
  -1344768.57349   -945533.21149  23307960.7994   23307963.1974   23307961.3424
       218.0004        158.0004
  -9087630.25049  -7063436.51449  23306809.9094   23306814.3124   23306811.5294
       218.0004        152.0004
  -6182013.19749  -4536644.43749  23218811.1954   23218813.9724   23218811.4244
       218.0004        155.0004
  -3887339.35049  -2737008.58849  23409910.6774   23409913.1024   23409909.9474
       214.0004        146.0004
 -24995142.88449 -18902935.50549  20112569.0314   20112571.2124   20112568.7494
       236.0004        204.0004
 11 10  9 19 58  0.0000000  0  9G23G17G32G01G31G13G11G04G20
 -20039120.30149 -14509257.55749  21451073.6944   21451075.1394   21451074.2314
       238.0004        188.0004
 -16774380.29349 -13053808.06249  21746114.9574   21746117.6234   21746116.1494
       237.0004        189.0004
 -15098576.27049 -11748976.34649  21645104.9104   21645106.6824   21645104.4034
       239.0004        188.0004
  -8859408.28549  -6886144.15849  21369677.2254   21369681.9604   21369676.8924
       237.0004        190.0004
  -1357956.67949   -955809.67149  23305450.5984   23305454.3484   23305451.4594
       219.0004        161.0004
  -9200484.18049  -7151374.60049  23285332.6564   23285338.4964   23285335.3654
       214.0004        148.0004
  -6076183.58049  -4454179.83049  23238950.2104   23238953.1104   23238949.6734
       218.0004        153.0004
  -3988074.28749  -2815503.27849  23390741.9674   23390744.2794   23390741.5824
       219.0004        148.0004
 -24979975.56649 -18891116.82049  20115456.1844   20115457.6264   20115455.6084
       238.0004        204.0004
 11 10  9 19 58 30.0000000  0  9G23G17G32G01G31G13G11G04G20
 -20113883.61049 -14567514.68149  21436847.8054   21436848.0734   21436847.9364
       240.0004        188.0004
 -16764658.29349 -13046232.46449  21747965.9324   21747967.1274   21747965.8484
       236.0004        188.0004
 -15033852.42949 -11698542.18149  21657420.6624   21657423.2204   21657420.3244
       238.0004        186.0004
  -8786516.89449  -6829345.69349  21383548.2344   21383552.5894   21383547.6134
       236.0004        191.0004
  -1370565.99949   -965635.10449  23303053.1594   23303053.3594   23303052.1814
       219.0004        161.0004
  -9313145.08949  -7239162.24949  23263896.1104   23263898.8674   23263896.8364
       219.0004        151.0004
  -5970174.93249  -4371575.73449  23259124.0904   23259126.1354   23259122.8614
       218.0004        151.0004
  -4088636.46549  -2893863.35549  23371605.3914   23371608.9224   23371605.1744
       212.0004        149.0004
 -24964400.38349 -18878980.29049  20118418.8074   20118421.5194   20118418.9744
       237.0004        204.0004
 11 10  9 19 59  0.0000000  0  9G23G17G32G01G31G13G11G04G20
 -20188239.02549 -14625453.93349  21422700.1104   21422698.7254   21422698.3884
       242.0004        188.0004
 -16754324.79549 -13038180.38649  21749931.8224   21749934.1104   21749932.5884
       236.0004        188.0004
 -14968897.39449 -11647927.86449  21669780.9304   21669784.4064   21669780.5644
       236.0004        187.0004
  -8713243.84149  -6772249.78749  21397489.9024   21397496.5934   21397490.3294
       234.0004        190.0004
  -1382595.66449   -975008.84949  23300764.0074   23300764.3294   23300763.5894
       222.0004        162.0004
  -9425610.43649  -7326797.48949  23242495.2944   23242498.3664   23242495.0364
       221.0004        155.0004
  -5863989.27149  -4288833.68949  23279330.2534   23279331.9184   23279328.6174
       219.0004        152.0004
  -4189023.59649  -2972087.03249  23352500.8764   23352504.2194   23352500.9274
       211.0004        147.0004
 -24948417.41749 -18866526.03449  20121461.2084   20121463.3564   20121460.5284
       237.0004        204.0004
 11 10  9 19 59 30.0000000  0  9G23G17G32G01G31G13G11G04G20
 -20262185.57449 -14683074.61949  21408626.1624   21408626.9564   21408625.7734
       239.0004        188.0004
 -16743380.81049 -13029652.61249  21752014.9374   21752016.2614   21752014.7004
       236.0004        188.0004
 -14903713.54949 -11597135.25249  21682184.5494   21682188.1344   21682184.1144
       236.0004        186.0004
  -8639591.15349  -6714858.09349  21411506.4634   21411511.9414   21411506.3474
       235.0004        189.0004
  -1394045.59449   -983930.84349  23298582.8934   23298587.1324   23298585.0094
       218.0004        162.0004
  -9537878.66049  -7414279.15149  23221132.9354   23221134.0924   23221131.4724
       221.0004        151.0004
  -5757629.30349  -4205955.82049  23299568.1804   23299573.2134   23299568.5344
       217.0004        153.0004
  -4289234.58249  -3050173.46649  23333429.9224   23333434.8374   23333431.7684
       208.0004        146.0004
 -24932028.28549 -18853755.28149  20124579.5574   20124581.9694   20124578.9834
       237.0004        205.0004
 11 10  9 20  0  0.0000000  0  9G23G17G32G01G31G13G11G04G20
 -20335720.73549 -14740374.71049  21394632.5474   21394633.9224   21394633.9664
       240.0004        189.0004
 -16731825.91949 -13020648.79249  21754212.5664   21754215.6294   21754213.2394
       234.0004        187.0004
 -14838300.78849 -11546164.26849  21694633.3274   21694636.2514   21694632.8904
       237.0004        186.0004
  -8565559.03949  -6657170.73449  21425593.9634   21425600.2064   21425594.5384
       235.0004        190.0004
  -1404914.17149   -992399.84549  23296516.5194   23296517.5424   23296516.8914
       222.0004        163.0004
  -9649946.59949  -7501604.78049  23199806.9764   23199808.1264   23199805.4864
       224.0004        154.0004
  -5651095.64949  -4122942.64149  23319840.2474   23319844.9274   23319842.3224
       214.0004        150.0004
  -4389266.39849  -3128120.24649  23314396.2194   23314400.3804   23314396.2984
       213.0004        147.0004
 -24915232.47149 -18840667.62249  20127775.9464   20127778.1254   20127775.3864
       238.0004        204.0004
 11 10  9 20  0 30.0000000  0  9G23G17G32G01G31G13G11G04G20
 -20408843.54849 -14797353.49449  21380719.3754   21380719.1344   21380718.4474
       241.0004        189.0004
 -16719661.69249 -13011170.18049  21756528.0714   21756530.1004   21756527.9994
       235.0004        187.0004
 -14772661.79949 -11495017.01949  21707123.9034   21707126.6884   21707123.6074
       237.0004        186.0004
  -8491149.88349  -6599189.56549  21439753.7524   21439759.7264   21439753.6784
       234.0004        190.0004
  -1415201.52949  -1000415.89649  23294557.4974   23294560.8564   23294558.3754
       222.0004        163.0004
  -9761812.81449  -7588773.20249  23178519.6594   23178520.5214   23178517.6544
       223.0004        155.0004
  -5544391.59949  -4039796.67049  23340147.5224   23340150.3004   23340147.1254
       217.0004        150.0004
  -4489118.15849  -3205926.76949  23295395.3704   23295398.2534   23295394.9844
       214.0004        151.0004
 -24898031.66149 -18827264.39149  20131049.5564   20131051.1004   20131049.2334
       239.0004        204.0004
 11 10  9 20  1  0.0000000  0  9G23G17G32G01G31G13G11G04G20
 -20481551.98649 -14854009.41649  21366882.0554   21366882.8764   21366882.3134
       241.0004        189.0004
 -16706888.02249 -13001216.66749  21758958.6544   21758960.7434   21758958.3414
       234.0004        187.0004
 -14706797.00849 -11443693.80449  21719656.8634   21719660.0614   21719656.4044
       236.0004        186.0004
  -8416364.25149  -6540915.06049  21453984.5494   21453990.7184   21453984.6234
       233.0004        189.0004
  -1424906.58349  -1007978.27349  23292711.4824   23292713.9664   23292711.2774
       220.0004        163.0004
  -9873474.23149  -7675782.04249  23157268.9774   23157272.0964   23157268.7204
       220.0004        155.0004
  -5437518.49649  -3956518.95449  23360483.0084   23360487.1134   23360484.0464
       213.0004        150.0004
  -4588786.99349  -3283590.74349  23276428.4064   23276430.9684   23276429.4024
       212.0004        147.0004
 -24880425.75849 -18813545.50549  20134400.0764   20134400.9554   20134399.1944
       238.0004        204.0004
 11 10  9 20  1 30.0000000  0 10G23G17G12G32G01G31G13G11G04G20
 -20553844.33249 -14910341.09749  21353126.7614   21353126.1684   21353125.7214
       242.0004        190.0004
 -16693505.53249 -12990788.74749  21761504.5604   21761507.1514   21761505.3024
       235.0004        187.0004
    -33954.99049     -5857.96949  25376350.6624
       205.0004        117.0004
 -14640707.65749 -11392195.60849  21732233.2514   21732236.6074   21732233.1254
       236.0004        185.0004
  -8341203.33149  -6482348.13949  21468288.3234   21468293.3864   21468288.0204
       234.0004        189.0004
  -1434028.74249  -1015086.41649  23290975.1824   23290978.0144   23290975.7464
       221.0004        164.0004
  -9984928.43849  -7762629.46849  23136058.8934   23136059.3264   23136059.3254
       221.0004        151.0004
  -5330478.07149  -3873110.87249  23380852.8094   23380856.4294   23380853.1534
       217.0004        149.0004
  -4688270.81449  -3361110.53549  23257497.8684   23257501.3744   23257497.6994
       214.0004        147.0004
 -24862415.29249 -18799511.37349  20137826.6174   20137828.2694   20137826.3484
       238.0004        203.0004
 11 10  9 20  2  0.0000000  0 10G23G17G12G32G01G31G13G11G04G20
 -20625718.14649 -14966346.66649  21339447.8794   21339449.3104   21339448.4114
       239.0004        190.0004
 -16679513.93449 -12979886.20549  21764166.8184   21764169.9484   21764168.0334
       232.0004        187.0004
    -39564.36249    -10227.74649  25375283.8004
       207.0004        111.0004
 -14574394.13549 -11340522.74749  21744852.6444   21744855.6524   21744852.1634
       237.0004        186.0004
  -8265667.54049  -6423489.09349  21482662.2254   21482667.4404   21482661.4894
       234.0004        188.0004
  -1442566.12749  -1021738.86449  23289351.6404   23289352.9374   23289351.6694
       222.0004        165.0004
 -10096172.34249  -7849313.01449  23114889.2594   23114895.4944   23114890.7734
       219.0004        153.0004
  -5223271.56149  -3789573.34049  23401253.6174   23401257.3144   23401253.7554
       218.0004        151.0004
  -4787566.81849  -3438484.01749  23238602.2104   23238606.1864   23238601.9054
       213.0004        149.0004
 -24844000.04149 -18785161.84349  20141330.6954   20141332.7714   20141330.7384
       237.0004        204.0004
 11 10  9 20  2 30.0000000  0 10G23G17G12G32G01G31G13G11G04G20
 -20697172.96049 -15022025.67549  21325850.3504   21325851.4474   21325851.4874
       240.0004        189.0004
 -16664914.96649 -12968510.38749  21766945.8424   21766948.2154   21766946.2804
       235.0004        187.0004
    -44618.49849      -463.94549  25374321.2664
       205.0004         74.0004
 -14507858.92049 -11288677.11949  21757514.4854   21757516.7014   21757513.6994
       237.0004        186.0004
  -8189759.29749  -6364339.81949  21497106.3264   21497112.5484   21497106.3944
       231.0004        188.0004
  -1450519.86849  -1027936.58949  23287836.7934   23287840.2564   23287838.5524
       221.0004        162.0004
 -10207204.91349  -7935831.81049  23093759.6614   23093766.1064   23093760.5574
       219.0004        154.0004
  -5115902.04149  -3705908.83049  23421686.9984   23421687.9364   23421686.7194
       219.0004        152.0004
  -4886674.14749  -3515710.42449  23219743.9484   23219745.6474   23219741.7294
       216.0004        149.0004
 -24825181.64349 -18770498.14749  20144911.3914   20144913.7174   20144911.4954
       237.0004        204.0004
 11 10  9 20  3  0.0000000  0 10G23G17G12G32G01G31G13G11G04G20
 -20768206.52549 -15077376.45849  21312334.9534   21312334.4734   21312334.0334
       243.0004        190.0004
 -16649708.40849 -12956661.12749  21769839.9764   21769841.4854   21769839.9804
       234.0004        186.0004
    -49116.69449     -3968.39649  25373466.1484
       207.0004        119.0004
 -14441102.58149 -11236659.18849  21770217.1234   21770220.1814   21770216.9764
       237.0004        186.0004
  -8113479.33949  -6304900.91249  21511621.2734   21511628.0014   21511622.1294
       233.0004        187.0004
  -1457888.22649  -1033678.13249  23286435.2874   23286437.0434   23286435.2254
       218.0004        159.0004
 -10318023.01149  -8022183.57449  23072674.6944   23072675.3674   23072676.1934
       219.0004        153.0004
  -5008370.74949  -3622118.23049  23442148.4054   23442150.7644   23442147.8744
       219.0004        150.0004
  -4985589.91449  -3592787.60849  23200919.0474   23200922.3004   23200920.1114
       215.0004        149.0004
 -24805960.06749 -18755520.30349  20148569.5214   20148571.7274   20148569.3294
       237.0004        204.0004
 11 10  9 20  3 30.0000000  0 10G23G17G12G32G01G31G13G11G04G20
 -20838817.28449 -15132397.80149  21298896.9594   21298897.6234   21298897.6774
       241.0004        190.0004
 -16633895.46649 -12944339.35449  21772848.2554   21772850.7974   21772848.7294
       234.0004        186.0004
    -53059.04249     -7038.91649  25372716.2264
       205.0004        111.0004
 -14374126.51149 -11184470.03849  21782963.6554   21782965.3254   21782962.4814
       238.0004        186.0004
  -8036828.97149  -6245173.38049  21526209.7014   21526213.8364   21526208.5274
       233.0004        188.0004
  -1464670.83349  -1038963.27249  23285145.7324   23285145.6984   23285144.7444
       222.0004        162.0004
 -10428624.62049  -8108366.63749  23051627.0424   23051629.1754   23051628.1944
       214.0004        149.0004
  -4900679.75849  -3538203.19549  23462641.3484   23462643.9914   23462641.6634
       217.0004        150.0004
  -5084312.25749  -3669714.06149  23182133.9914   23182136.9284   23182134.9074
       214.0004        151.0004
 -24786336.04149 -18740228.85449  20152304.2194   20152306.0774   20152303.9604
       237.0004        204.0004
 11 10  9 20  4  0.0000000  0 10G23G17G12G32G01G31G13G11G04G20
 -20909004.18749 -15187088.86349  21285542.4124   21285541.7814   21285541.2744
       241.0004        191.0004
 -16617477.03649 -12931545.78449  21775973.4394   21775974.5844   21775973.1234
       234.0004        186.0004
    -56445.96049      -100.56949  25372072.0834
       210.0004         74.0004
 -14306932.22349 -11132110.84349  21795748.2974   21795751.8454   21795748.2844
       235.0004        185.0004
  -7959809.87549  -6185158.52849  21540864.0404   21540870.3714   21540864.2924
       231.0004        188.0004
  -1470867.70649  -1043792.01549  23283964.9884   23283968.8434   23283966.1044
       219.0004        161.0004
 -10539007.46949  -8194379.17449  23030622.9554   23030625.3304   23030623.0864
       220.0004        153.0004
  -4792831.40349  -3454165.53049  23483164.5754   23483166.8114   23483164.4914
       220.0004        148.0004
  -5182839.48349  -3746488.44949  23163383.5634   23163387.3834   23163384.3394
       212.0004        151.0004
 -24766310.52849 -18724624.55749  20156114.8264   20156117.0164   20156114.5524
       237.0004        204.0004
 11 10  9 20  4 30.0000000  0 10G23G17G12G32G01G31G13G11G04G20
 -20978765.21749 -15241448.07949  21272264.8234   21272265.7714   21272265.1724
       238.0004        190.0004
 -16600453.27349 -12918280.53649  21779212.1274   21779214.3274   21779212.8834
       233.0004        185.0004
    -59277.17249     -2306.62649  25371532.4214
       208.0004        113.0004
 -14239520.63849 -11079582.35649  21808577.0444   21808580.2644   21808576.5084
       237.0004        184.0004
  -7882422.94349  -6124857.04649  21555591.1044   21555596.6614   21555590.8474
       232.0004        188.0004
  -1476477.84749  -1048163.57149  23282899.3754   23282898.9804   23282899.5364
       220.0004        162.0004
 -10649168.97549  -8280219.21849  23009661.0764   23009663.6854   23009659.2694
       223.0004        155.0004
  -4684827.29549  -3370006.52849  23503717.1094   23503718.4904   23503716.4644
       218.0004        147.0004
  -5281169.12349  -3823108.85849  23144673.2124   23144676.2964   23144672.5514
       215.0004        150.0004
 -24745883.86749 -18708707.68049  20160002.0124   20160003.9844   20160001.3104
       237.0004        203.0004
 11 10  9 20  5  0.0000000  0 10G23G17G12G32G01G31G13G11G04G20
 -21048099.07349 -15295474.44149  21259072.0384   21259072.3774   21259072.1444
       239.0004        190.0004
 -16582825.28149 -12904544.44749  21782566.7424   21782569.1214   21782566.9134
       234.0004        186.0004
    -61552.63949     -4078.91149  25371100.6014
       209.0004        109.0004
 -14171893.25549 -11026885.69449  21821446.5644   21821449.1554   21821445.7844
       237.0004        185.0004
  -7804669.87649  -6064270.25549  21570387.2874   21570392.7664   21570386.8104
       234.0004        188.0004
  -1481501.06749  -1052077.73749  23281940.8294   23281942.7634   23281941.9954
       217.0004        162.0004
 -10759107.21749  -8365885.34849  22988737.2964   22988738.8724   22988737.4064
       219.0004        151.0004
  -4576669.41849  -3285727.67749  23524298.2424   23524300.2544   23524298.5464
       217.0004        146.0004
  -5379299.34249  -3899573.93049  23125999.5344   23126002.7274   23125999.8124
       215.0004        152.0004
 -24725056.86749 -18692478.84049  20163965.1434   20163966.6484   20163964.9684
       237.0004        204.0004
 11 10  9 20  5 30.0000000  0  9G23G17G32G01G31G13G11G04G20
 -21117003.15349 -15349165.90849  21245960.7764   21245960.2794   21245959.5314
       240.0004        191.0004
 -16564592.89049 -12890337.39649  21786036.4044   21786038.5494   21786036.6894
       234.0004        186.0004
 -14104050.31549 -10974021.07449  21834355.9664   21834358.7964   21834355.8924
       236.0004        184.0004
  -7726550.80749  -6003398.28149  21585253.0904   21585258.3344   21585252.7044
       232.0004        188.0004
  -1485935.81049  -1055533.36049  23281098.5974   23281099.4994   23281098.9114
       222.0004        164.0004
 -10868818.82149  -8451374.88149  22967860.1064   22967863.8404   22967860.3334
       219.0004        155.0004
  -4468359.08549  -3201329.99649  23544909.9214   23544912.4954   23544908.2154
       214.0004        147.0004
  -5477226.98349  -3975881.12049  23107364.0714   23107367.4534   23107363.1554
       212.0004        150.0004
 -24703829.12949 -18675937.74549  20168003.8504   20168006.4394   20168003.8474
       236.0004        203.0004
 11 10  9 20  6  0.0000000  0  9G23G17G32G01G31G13G11G04G20
 -21185477.30649 -15402522.37349  21232929.5334   21232930.3524   21232930.1854
       239.0004        191.0004
 -16545758.12049 -12875660.96549  21789620.9104   21789622.3014   21789621.8114
       235.0004        186.0004
 -14035994.34849 -10920990.46649  21847306.5154   21847308.8874   21847306.2884
       235.0004        183.0004
  -7648068.65749  -5942243.37549  21600186.0484   21600192.8424   21600186.6164
       233.0004        188.0004
  -1489783.09849  -1058531.21449  23280365.6194   23280367.1344   23280365.4404
       219.0004        163.0004
 -10978302.82749  -8536687.04349  22947026.6884   22947029.5984   22947026.5094
       220.0004        159.0004
  -4359899.51049  -3116816.09149  23565547.9914   23565550.6174   23565549.0634
       215.0004        147.0004
  -5574951.54249  -4052030.05949  23088766.4394   23088771.1054   23088767.4674
       217.0004        152.0004
 -24682202.62849 -18659085.92549  20172119.5364   20172121.9584   20172119.0294
       237.0004        204.0004
 11 10  9 20  6 30.0000000  0  9G23G17G32G01G31G13G11G04G20
 -21253519.18649 -15455541.96949  21219982.1434   21219982.1814   21219981.7344
       240.0004        190.0004
 -16526320.75349 -12860514.96549  21793319.2904   21793321.1164   21793319.9434
       233.0004        186.0004
 -13967725.72849 -10867794.14349  21860297.4504   21860300.0824   21860297.3974
       234.0004        182.0004
  -7569223.66249  -5880805.73249  21615190.4664   21615196.7514   21615190.6564
       234.0004        187.0004
  -1493041.59749  -1061070.22549  23279745.9234   23279748.2794   23279745.8334
       222.0004        165.0004
 -11087555.71049  -8621819.08049  22926234.7054   22926238.9904   22926237.1084
       220.0004        155.0004
  -4251291.55649  -3032186.53449  23586215.9274   23586220.3474   23586213.9184
       215.0004        146.0004
  -5672469.75949  -4128018.24149  23070210.0454   23070212.7224   23070210.2624
       214.0004        152.0004
 -24660177.11549 -18641923.18549  20176311.9414   20176313.1904   20176311.2004
       237.0004        204.0004
 11 10  9 20  7  0.0000000  0 10G23G17G12G32G01G31G13G11G04G20
 -21321127.40649 -15508223.63249  21207116.0294   21207116.2644   21207116.0184
       240.0004        191.0004
 -16506282.20249 -12844900.51649  21797133.3684   21797134.8184   21797133.0344
       234.0004        186.0004
    -65096.81649     -1374.59949  25370424.6654   25370427.8194
       201.0004        134.0004
 -13899245.87049 -10814433.22449  21873328.6644   21873332.1444   21873328.5254
       235.0004        183.0004
  -7490017.53949  -5819086.68249  21630263.2864   21630269.2214   21630263.5524
       234.0004        188.0004
  -1495711.18649  -1063150.39349  23279237.2904   23279238.9904   23279238.2764
       220.0004        163.0004
 -11196575.85549  -8706769.81949  22905491.2484   22905493.0474   22905490.5614
       224.0004        156.0004
  -4142537.50549  -2947443.16449  23606911.7994   23606912.6914   23606909.7624
       211.0004        145.0004
  -5769779.85949  -4203844.21249  23051692.1644   23051695.8644   23051692.3814
       216.0004        153.0004
 -24637753.42949 -18624450.18249  20180579.5024   20180580.2734   20180578.4844
       238.0004        204.0004
 11 10  9 20  7 30.0000000  0 10G23G17G12G32G01G31G13G11G04G20
 -21388300.17849 -15560566.02249  21194332.7744   21194333.5314   21194333.1414
       240.0004        190.0004
 -16485642.76349 -12828817.84249  21801060.1374   21801062.2994   21801061.1284
       233.0004        185.0004
    -64593.97149      -982.78349  25370519.9394   25370522.2174   25370521.6484
       201.0004        132.0004
 -13830555.64949 -10760908.39349  21886400.2254   21886403.1424   21886399.7144
       235.0004        184.0004
  -7410451.25649  -5757087.00349  21645404.9004   21645409.9754   21645404.1604
       234.0004        187.0004
  -1497791.27749  -1064771.21449  23278842.1854   23278843.1304   23278841.8294
       221.0004        162.0004
 -11305360.38849  -8791536.95649  22884790.2654   22884792.9884   22884789.1524
       222.0004        158.0004
  -4033639.24449  -2862587.40449  23627633.0594   23627636.0814   23627633.0834
       212.0004        145.0004
  -5866879.21749  -4279506.00849  23033215.8444   23033219.1704   23033215.7174
       219.0004        152.0004
 -24614931.99849 -18606667.25049  20184921.5384   20184923.0094   20184921.0864
       237.0004        204.0004
 11 10  9 20  8  0.0000000  0 10G23G17G12G32G01G31G13G11G04G20
 -21455037.08749 -15612568.77949  21181634.9204   21181634.7854   21181633.8704
       241.0004        192.0004
 -16464404.35249 -12812268.41849  21805100.6304   21805104.2084   21805101.0564
       233.0004        186.0004
    -63536.48849      -158.80549  25370722.4544   25370725.9864   25370721.7304
       204.0004        133.0004
 -13761657.08149 -10707221.20149  21899511.4534   21899513.7364   21899510.9564
       235.0004        182.0004
  -7330527.13049  -5694808.48049  21660612.2044   21660619.3404   21660612.8584
       233.0004        186.0004
  -1499282.28149  -1065932.98249  23278558.1114   23278559.9684   23278559.6804
       221.0004        162.0004
 -11413908.00149  -8876119.41549  22864134.0154   22864137.7724   22864133.6264
       225.0004        159.0004
  -3924599.40449  -2777621.30349  23648382.4754   23648385.7994   23648383.6104
       214.0004        144.0004
  -5963766.76849  -4355002.73449  23014777.2414   23014782.0204   23014778.2814
       216.0004        152.0004
 -24591714.06049 -18588575.34049  20189339.0844   20189341.6074   20189338.8414
       237.0004        203.0004
 11 10  9 20  8 30.0000000  0 10G23G17G12G32G01G31G13G11G04G20
 -21521334.69249 -15664229.21549  21169016.9204   21169018.4544   21169017.5624
       240.0004        191.0004
 -16442566.04249 -12795251.56049  21809257.2524   21809259.6064   21809257.8254
       232.0004        185.0004
    -61922.89049      1098.53649  25371028.9934   25371030.1564   25371030.0164
       199.0004        134.0004
 -13692549.71349 -10653371.31749  21912662.4914   21912664.5154   21912662.1734
       236.0004        182.0004
  -7250244.78449  -5632250.84649  21675891.5324   21675896.2874   21675891.3254
       234.0004        186.0004
  -1500182.36049  -1066634.28749  23278386.1344   23278388.7604   23278387.1384
       222.0004        163.0004
 -11522214.50049  -8960514.09049  22843524.8784   22843526.4874   22843526.4144
       227.0004        158.0004
  -3815418.04849  -2692544.96449  23669160.2314   23669161.8584   23669161.2404
       212.0004        146.0004
  -6060438.73649  -4430331.46349  22996381.3334   22996385.5264   22996382.0554
       218.0004        154.0004
 -24568098.89249 -18570173.90849  20193833.1394   20193835.4674   20193832.6204
       237.0004        203.0004
 11 10  9 20  9  0.0000000  0 10G23G17G12G32G01G31G13G11G04G20
 -21587193.22049 -15715547.51549  21156485.8564   21156486.0824   21156485.0644
       240.0004        192.0004
 -16420130.53249 -12777769.33349  21813526.2104   21813528.7334   21813527.1884
       231.0004        185.0004
    -59754.94649      2787.87749  25371439.8124   25371443.7604   25371442.1784
       203.0004        136.0004
 -13623236.32649 -10599360.88749  21925852.0184   21925855.0834   21925851.5484
       235.0004        183.0004
  -7169607.09149  -5569416.29549  21691235.5724   21691241.3124   21691234.9274
       232.0004        185.0004
  -1500492.48849  -1066875.88249  23278328.4094   23278329.5494   23278328.9824
       224.0004        166.0004
 -11630279.11349  -9044720.24149  22822960.3844   22822960.8244   22822960.3914
       226.0004        157.0004
  -3706098.83849  -2607361.18649  23689963.0504   23689966.1004   23689962.9774
       216.0004        146.0004
  -6156894.41249  -4505491.67749  22978028.8914   22978030.2824   22978027.7924
       218.0004        152.0004
 -24544088.21149 -18551464.27849  20198401.9474   20198404.1654   20198401.7214
       236.0004        203.0004
 11 10  9 20  9 30.0000000  0 10G23G17G12G32G01G31G13G11G04G20
 -21652610.10349 -15766521.71049  21144037.2324   21144038.0424   21144036.4764
       241.0004        192.0004
 -16397097.33249 -12759821.39349  21817910.4154   21817911.5984   21817910.2054
       234.0004        185.0004
    -57031.69849      4909.88049  25371960.0264   25371961.8794   25371961.1364
       201.0004        138.0004
 -13553716.95349 -10545189.94549  21939080.9714   21939084.2494   21939080.8424
       235.0004        182.0004
  -7088614.35949  -5506305.10149  21706646.8744   21706653.9344   21706647.5984
       231.0004        186.0004
  -1500211.32949  -1066656.79449  23278381.6194   23278382.6354   23278381.4474
       222.0004        164.0004
 -11738098.64949  -9128735.42349  22802442.5424   22802446.2904   22802440.5684
       224.0004        161.0004
  -3596642.58549  -2522070.62749  23710790.4364   23710794.9974   23710792.0784
       211.0004        146.0004
  -6253130.48849  -4580480.76849  22959714.4304   22959717.2724   22959715.3194
       216.0004        153.0004
 -24519681.88249 -18532446.35849  20203046.3494   20203048.8194   20203046.5424
       237.0004        204.0004
 11 10  9 20 10  0.0000000  0 10G23G17G12G32G01G31G13G11G04G20
 -21717584.60149 -15817151.19249  21131672.6094   21131673.2584   21131672.9664
       240.0004        192.0004
 -16373468.60049 -12741409.39949  21822405.9694   21822407.7574   21822406.6564
       234.0004        185.0004
    -53754.63849      7463.41549  25372582.7724   25372585.3824   25372584.0834
       206.0004        137.0004
 -13483993.77249 -10490860.20649  21952349.5814   21952351.3764   21952349.1034
       236.0004        181.0004
  -7007268.99649  -5442919.14149  21722127.4894   21722133.5664   21722127.6184
       232.0004        185.0004
  -1499339.80749  -1065977.67149  23278548.4464   23278549.3764   23278548.4474
       224.0004        164.0004
 -11845671.73649  -9212558.57649  22781971.2064   22781974.3884   22781971.0224
       223.0004        160.0004
  -3487052.21549  -2436675.56449  23731645.8704   23731649.1124   23731647.6194
       214.0004        147.0004
  -6349145.98249  -4655298.00549  22941443.3684   22941446.2834   22941444.7394
       220.0004        155.0004
 -24494881.62649 -18513121.47749  20207766.2534   20207767.6624   20207765.3774
       237.0004        204.0004
 11 10  9 20 10 30.0000000  0 10G23G17G12G32G01G31G13G11G04G20
 -21782114.63149 -15867434.27349  21119394.3314   21119393.2344   21119393.2114
       241.0004        192.0004
 -16349244.39749 -12722533.40249  21827015.3204   21827018.0754   21827016.3784
       233.0004        185.0004
    -49922.70549     10449.27449  25373313.6824   25373313.9824   25373314.6094
       202.0004        136.0004
 -13414067.15249 -10436371.93849  21965655.6374   21965658.4004   21965655.2984
       235.0004        182.0004
  -6925571.46349  -5379258.75049  21737674.7794   21737678.9974   21737673.9574
       233.0004        183.0004
  -1497876.60149  -1064837.46549  23278824.9474   23278827.7754   23278825.2664
       220.0004        162.0004
 -11952995.08449  -9296187.13449  22761548.0374   22761549.8404   22761548.4574
       224.0004        158.0004
  -3377328.53249  -2351176.63949  23752526.9584   23752528.0604   23752525.7854
       217.0004        146.0004
  -6444937.66149  -4729940.79949  22923213.4874   22923216.5964   22923215.0134
       217.0004        155.0004
 -24469687.05749 -18493489.35349  20212560.3704   20212562.3494   20212559.7384
       237.0004        204.0004
 11 10  9 20 11  0.0000000  0 10G23G17G12G32G01G31G13G11G04G20
 -21846199.42449 -15917370.43049  21107197.9284   21107198.4624   21107198.3234
       241.0004        192.0004
 -16324426.24349 -12703194.59349  21831738.3184   21831740.6894   21831739.1374
       232.0004        184.0004
    -45537.22449     13866.56349  25374146.1314   25374147.2224   25374146.0204
       204.0004        136.0004
 -13343938.77049 -10381726.45149  21979000.6474   21979003.4554   21978999.8174
       234.0004        181.0004
  -6843523.82249  -5315325.55049  21753286.9404   21753293.1504   21753286.7004
       230.0004        183.0004
  -1495822.35249  -1063236.72349  23279216.8594   23279217.5734   23279216.5964
       222.0004        161.0004
 -12060067.00749  -9379619.74249  22741173.5644   22741175.8194   22741172.8744
       224.0004        159.0004
  -3267474.58749  -2265576.15149  23773432.2174   23773433.2294   23773432.0934
       217.0004        145.0004
  -6540504.16149  -4804408.14949  22905029.6174   22905031.7614   22905029.4774
       219.0004        156.0004
 -24444099.42349 -18473550.93849  20217429.4914   20217431.5454   20217429.2174
       237.0004        204.0004
 11 10  9 20 11 30.0000000  0 10G23G17G12G32G01G31G13G11G04G20
 -21909837.73649 -15966958.69549  21095089.5314   21095088.5424   21095088.9194
       243.0004        193.0004
 -16299015.46849 -12683393.99449  21836573.6104   21836576.0944   21836574.3084
       234.0004        185.0004
    -40598.43549     17714.96249  25375089.0174   25375088.3964   25375088.9764
       208.0004        139.0004
 -13273609.86049 -10326924.69449  21992383.9494   21992386.1994   21992383.7034
       233.0004        181.0004
  -6761127.47849  -5251120.61549  21768966.1174   21768972.7564   21768966.2114
       230.0004        183.0004
  -1493176.76549  -1061175.22149  23279718.7594   23279721.5204   23279719.6794
       220.0004        161.0004
 -12166885.39049  -9462854.80449  22720844.9214   22720849.2344   22720846.6994
       222.0004        160.0004
  -3157492.15949  -2179875.60349  23794359.9694   23794361.4594   23794359.3504
       213.0004        146.0004
  -6635843.32649  -4878698.35849  22886886.1154   22886889.4624   22886885.2414
       216.0004        153.0004
 -24418119.39549 -18453306.75149  20222373.3174   20222375.5154   20222372.9004
       237.0004        204.0004
 11 10  9 20 12  0.0000000  0 10G23G17G12G32G01G31G13G11G04G20
 -21973027.48749 -16016197.44849  21083063.4744   21083063.4584   21083063.2464
       241.0004        192.0004
 -16273012.73849 -12663132.15249  21841522.6094   21841524.7924   21841523.5144
       233.0004        185.0004
    -35106.16649     21994.60649  25376131.0414   25376133.1644   25376131.7624
       203.0004        139.0004
 -13203081.08649 -10271967.21649  22005804.2554   22005807.5774   22005804.0954
       233.0004        181.0004
  -6678383.41349  -5186644.72449  21784713.3704   21784718.0884   21784712.7224
       232.0004        183.0004
  -1489939.16449  -1058652.38849  23280335.9404   23280336.8284   23280335.7604
       220.0004        160.0004
 -12273447.46949  -9545890.13549  22700567.3574   22700570.0554   22700568.8134
       220.0004        158.0004
  -3047382.57649  -2094075.97249  23815312.1874   23815315.5884   23815312.0534
       216.0004        148.0004
  -6730952.26349  -4952809.13249  22868786.9504   22868791.2924   22868787.7164
       217.0004        154.0004
 -24391746.97849 -18432756.83949  20227391.9224   20227393.9654   20227391.6004
       237.0004        204.0004
 11 10  9 20 12 30.0000000  0 10G23G17G12G32G01G31G13G11G04G20
 -22035767.68749 -16065085.86549  21071123.8044   21071124.9324   21071125.0024
       241.0004        193.0004
 -16246419.22049 -12642409.94149  21846582.2334   21846584.8864   21846582.8294
       233.0004        185.0004
    -29061.08549     26705.05249  25377282.7144   25377285.0814   25377282.5444
       204.0004        138.0004
 -13132353.92249 -10216855.14949  22019263.5514   22019266.9494   22019263.8364
       234.0004        182.0004
  -6595293.38949  -5121899.26249  21800524.8974   21800529.4474   21800523.9864
       231.0004        182.0004
  -1486110.03049  -1055668.61049  23281063.4904   23281065.7834   23281065.1854
       221.0004        161.0004
 -12379750.87349  -9628723.92549  22680338.7604   22680341.9164   22680339.6784
       222.0004        158.0004
  -2937148.16749  -2008179.06549  23836289.9594   23836292.2564   23836290.5744
       216.0004        148.0004
  -6825829.32649  -5026739.28949  22850733.6654   22850735.5754   22850733.7074
       219.0004        156.0004
 -24364983.46849 -18411902.14849  20232484.9744   20232486.7394   20232484.5744
       237.0004        204.0004
 11 10  9 20 13  0.0000000  0 10G23G17G12G32G01G31G13G11G04G20
 -22098056.48049 -16113622.51549  21059272.3604   21059271.5434   21059271.1944
       243.0004        193.0004
 -16219235.61849 -12621227.92349  21851755.9544   21851757.8484   21851755.7494
       232.0004        185.0004
    -22463.30249     31846.12549  25378537.8644   25378541.0774   25378539.5184
       205.0004        136.0004
 -13061428.94149 -10161588.93249  22032760.5484   22032763.4374   22032760.1764
       234.0004        182.0004
  -6511858.27149  -5056884.88649  21816400.6924   21816406.7914   21816400.5024
       228.0004        181.0004
  -1481688.82249  -1052223.45749  23281906.5264   23281907.4534   23281906.9354
       224.0004        163.0004
 -12485793.27449  -9711354.31549  22660160.0764   22660164.6374   22660160.6634
       224.0004        161.0004
  -2826790.61849  -1922186.19949  23857289.8454   23857293.1744   23857288.8624
       214.0004        147.0004
  -6920472.02449  -5100486.78749  22832721.6954   22832724.6934   22832724.0804
       217.0004        154.0004
 -24337829.13349 -18390742.91649  20237652.4414   20237654.1134   20237651.6524
       238.0004        204.0004
 11 10  9 20 13 30.0000000  0 10G23G17G12G32G01G31G13G11G04G20
 -22159893.16649 -16161806.90949  21047504.0244   21047504.2744   21047504.0444
       242.0004        193.0004
 -16191463.47349 -12599587.29849  21857039.3474   21857043.4164   21857040.7054
       232.0004        185.0004
    -15313.50049     37417.36349  25379897.5274   25379901.2984   25379900.0474
       204.0004        136.0004
 -12990308.05849 -10106170.05949  22046293.8054   22046297.1764   22046294.7604
       234.0004        181.0004
  -6428080.26549  -4991603.35149  21832341.3864   21832349.3394   21832342.4404
       227.0004        181.0004
  -1476675.74949  -1048317.17949  23282859.8574   23282861.2124   23282860.7614
       222.0004        161.0004
 -12591573.09349  -9793780.08149  22640031.6294   22640034.6324   22640030.8574
       225.0004        161.0004
  -2716312.14749  -1836099.12449  23878312.0424   23878316.8174   23878314.1174
       214.0004        147.0004
  -7014878.37549  -5174050.13449  22814758.5054   22814761.1784   22814758.9274
       221.0004        157.0004
 -24310284.96649 -18369279.93349  20242893.3864   20242895.4144   20242893.0954
       237.0004        204.0004
 11 10  9 20 14  0.0000000  0 10G23G17G12G32G01G31G13G11G04G20
 -22221275.45749 -16209637.23549  21035823.8324   21035823.9294   21035823.3004
       242.0004        194.0004
 -16163103.60749 -12577488.71249  21862437.8594   21862439.6984   21862437.2114
       234.0004        185.0004
     -7611.67749     43418.77449  25381364.5534   25381366.9384   25381363.0954
       205.0004        137.0004
 -12918991.77749 -10050598.94349  22059865.2424   22059868.3734   22059864.9204
       232.0004        180.0004
  -6343960.15949  -4926055.24149  21848351.8424   21848357.1154   21848350.7694
       230.0004        182.0004
  -1471070.19949  -1043949.15449  23283925.1064   23283926.9074   23283926.1784
       218.0004        160.0004
 -12697087.13749  -9875998.80349  22619953.2224   22619952.7914   22619951.9794
       225.0004        160.0004
  -2605714.09649  -1749918.86149  23899357.8424   23899363.1874   23899359.0744
       211.0004        146.0004
  -7109045.99449  -5247427.45649  22796838.8544   22796841.4964   22796839.9954
       221.0004        157.0004
 -24282351.22749 -18347513.38249  20248208.6094   20248211.0104   20248208.4064
       237.0004        203.0004
 11 10  9 20 14 30.0000000  0 10G23G17G12G32G01G31G13G11G04G20
 -22282202.55249 -16257112.87849  21024228.7734   21024230.0124   21024229.1804
       241.0004        194.0004
 -16134157.57249 -12554933.37249  21867945.1944   21867947.7394   21867945.5214
       231.0004        185.0004
       641.34949     49849.68349  25382935.9414   25382939.3374   25382936.2224
       206.0004        136.0004
 -12847481.38849  -9994876.59149  22073473.6374   22073476.0864   22073473.4224
       234.0004        181.0004
  -6259499.49649  -4860241.73849  21864423.1094   21864429.0334   21864422.9694
       227.0004        181.0004
  -1464872.35449  -1039119.69549  23285106.1054   23285108.1834   23285107.3044
       220.0004        161.0004
 -12802333.42849  -9958008.89349  22599923.6384   22599927.9054   22599924.2274
       222.0004        162.0004
  -2494998.71349  -1663647.17349  23920428.0314   23920430.6634   23920427.6244
       213.0004        144.0004
  -7202972.62149  -5320616.99249  22778966.4794   22778967.6704   22778967.2794
       222.0004        160.0004
 -24254028.65249 -18325443.83749  20253598.7094   20253600.5394   20253598.4534
       238.0004        203.0004
 11 10  9 20 15  0.0000000  0 10G23G17G12G32G01G31G13G11G04G20
 -22342673.74649 -16304233.26749  21012723.1424   21012722.5944   21012722.0824
       242.0004        194.0004
 -16104626.84849 -12531922.42849  21873565.1664   21873567.3744   21873565.2784
       234.0004        185.0004
      9444.67749     56709.34949  25384610.9284   25384612.5754   25384610.7394
       207.0004        138.0004
 -12775778.74449  -9939004.43249  22087118.4014   22087120.7184   22087118.2114
       235.0004        181.0004
  -6174700.50649  -4794164.61749  21880558.7664   21880565.9424   21880559.6064
       228.0004        181.0004
  -1458082.83749  -1033829.16149  23286396.2994   23286399.2804   23286396.8654
       216.0004        158.0004
 -12907310.32649 -10039809.00849  22579945.6904   22579953.2664   22579947.8564
       223.0004        164.0004
  -2384168.69649  -1577286.12649  23941517.7804   23941520.5704   23941516.9554
       212.0004        142.0004
  -7296656.73049  -5393617.55749  22761138.5184   22761140.2324   22761137.0644
       218.0004        156.0004
 -24225318.70249 -18303072.44849  20259061.8724   20259064.0804   20259061.8044
       237.0004        204.0004
 11 10  9 20 15 30.0000000  0 10G23G17G12G32G01G31G13G11G04G20
 -22402686.65449 -16350996.54949  21001302.7454   21001302.2464   21001301.6324
       242.0004        194.0004
 -16074511.74849 -12508456.12749  21879296.1274   21879298.1784   21879296.0834
       232.0004        185.0004
     18798.73449     63998.24449  25386388.6854   25386391.4544   25386387.9894
       205.0004        134.0004
 -12703883.90449  -9882982.50549  22100799.3534   22100802.1264   22100798.2814
       233.0004        180.0004
  -6089563.57549  -4727824.16449  21896760.4674   21896766.9754   21896761.0904
       230.0004        180.0004
  -1450700.66849  -1028076.80449  23287803.1464   23287804.3824   23287803.2104
       218.0004        161.0004
 -13012014.67549 -10121396.80849  22560024.6534   22560026.5804   22560026.0334
       227.0004        163.0004
  -2273224.99149  -1490836.53349  23962630.8904   23962632.4694   23962630.4034
       212.0004        143.0004
  -7390095.14349  -5466426.67449  22743357.9114   22743358.8444   22743357.3434
       222.0004        158.0004
 -24196220.88549 -18280398.83449  20264600.1824   20264601.1744   20264599.2844
       239.0004        204.0004
 11 10  9 20 16  0.0000000  0 10G23G17G12G32G01G31G13G11G04G20
 -22462240.81049 -16397402.36249  20989969.1304   20989969.5694   20989969.3844
       242.0004        194.0004
 -16043814.16149 -12484535.94749  21885137.9494   21885139.4744   21885138.3954
       234.0004        185.0004
     28702.32649     71715.30849  25388275.9634   25388275.4554   25388276.5434
       207.0004        135.0004
 -12631798.42649  -9826812.01349  22114516.9454   22114519.8564   22114516.4324
       234.0004        180.0004
  -6004090.76849  -4661221.96749  21913026.5934   21913031.9824   21913026.3514
       230.0004        181.0004
  -1442726.61449  -1021863.24249  23289319.1514   23289321.7854   23289320.2284
       220.0004        162.0004
 -13116444.72149 -10202770.83849  22540150.6744   22540152.8804   22540150.9504
       226.0004        162.0004
  -2162170.04149  -1404300.24249  23983765.0114   23983766.3634   23983762.6914
       213.0004        141.0004
  -7483286.25449  -5539043.10449  22725623.1134   22725626.5244   22725623.8444
       220.0004        160.0004
 -24166736.16249 -18257423.70349  20270210.5604   20270212.0074   20270210.0314
       239.0004        204.0004
 11 10  9 20 16 30.0000000  0 10G23G17G12G32G01G31G13G11G04G20
 -22521334.41649 -16443449.28349  20978723.8984   20978724.4054   20978723.7304
       242.0004        194.0004
 -16012535.29149 -12460162.80949  21891089.5104   21891092.2094   21891090.3064
       234.0004        185.0004
     39155.14949     79860.32549  25390263.5954   25390266.8824   25390265.5524
       205.0004        132.0004
 -12559523.40649  -9770493.83049  22128269.7654   22128272.8204   22128269.9034
       233.0004        181.0004
  -5918283.37549  -4594359.06249  21929355.1324   21929360.7604   21929354.4674
       230.0004        181.0004
  -1434160.57949  -1015188.43049  23290950.3214   23290951.5284   23290950.8124
       220.0004        162.0004
 -13220597.85649 -10283929.10749  22520331.1674   22520334.6694   22520330.8834
       227.0004        164.0004
  -2051005.27849  -1317678.39049  24004917.1854   24004919.4554   24004915.6554
       211.0004        140.0004
  -7576227.62249  -5611464.91949  22707936.8854   22707939.4824   22707938.4864
       222.0004        162.0004
 -24136865.72749 -18234148.02349  20275894.1444   20275896.0204   20275893.8004
       238.0004        204.0004
 11 10  9 20 17  0.0000000  0 10G23G17G12G32G01G31G13G11G04G20
 -22579966.15549 -16489136.31049  20967566.7484   20967566.9784   20967566.8464
       243.0004        195.0004
 -15980676.35549 -12435337.68749  21897152.0524   21897154.4844   21897152.2244
       234.0004        185.0004
     50156.60449     88432.89949  25392357.4904   25392356.4974   25392357.3454
       204.0004        133.0004
 -12487059.98849  -9714028.85749  22142060.1094   22142062.0394   22142059.1194
       233.0004        179.0004
  -5832143.02649  -4527236.72549  21945746.4084   21945752.4554   21945746.0574
       230.0004        181.0004
  -1425002.65049  -1008052.39849  23292691.6254   23292694.3234   23292693.0294
       218.0004        162.0004
 -13324472.05349 -10364870.01249  22500565.1794   22500567.1574   22500565.6344
       228.0004        167.0004
  -1939732.76349  -1230972.56949  24026091.8024   24026094.4354   24026092.1004
       209.0004        140.0004
  -7668917.05749  -5683690.43049  22690297.7674   22690300.6204   22690297.7834
       220.0004        158.0004
 -24106610.00649 -18210572.13349  20281651.2524   20281653.2044   20281651.3014
       238.0004        203.0004
 11 10  9 20 17 30.0000000  0 10G23G17G12G32G01G31G13G11G04G20
 -22638134.95849 -16534462.62249  20956498.6104   20956497.8714   20956497.8484
       244.0004        194.0004
 -15948238.42149 -12410061.41349  21903324.2294   21903327.0344   21903324.7714
       234.0004        184.0004
     61706.15749     97432.52949  25394555.4514   25394558.0524   25394555.9704
       203.0004        133.0004
 -12414409.06849  -9657417.77049  22155884.4724   22155887.5324   22155884.1614
       232.0004        179.0004
  -5745671.03749  -4459855.98249  21962203.3444   21962206.4364   21962201.6154
       231.0004        180.0004
  -1415252.78849  -1000455.06149  23294549.1264   23294549.4864   23294549.4044
       223.0004        163.0004
 -13428064.86849 -10445591.63349  22480851.1444   22480853.6294   22480850.8014
       227.0004        163.0004
  -1828354.54549  -1144184.39449  24047284.9524   24047291.1044   24047286.3324
       209.0004        139.0004
  -7761352.10549  -5755717.71949  22672709.0124   22672711.4624   22672709.0044
       221.0004        161.0004
 -24075969.59149 -18186696.47849  20287482.2434   20287483.8054   20287481.6514
       238.0004        203.0004
 11 10  9 20 18  0.0000000  0 10G23G17G12G32G01G31G13G11G04G20
 -22695839.74949 -16579427.36349  20945516.4794   20945516.9974   20945516.3154
       242.0004        195.0004
 -15915223.09449 -12384335.21349  21909607.4324   21909610.0534   21909607.4024
       235.0004        185.0004
     73803.37049    106858.92449  25396856.7744   25396859.5974   25396856.0964
       201.0004        130.0004
 -12341571.93149  -9600661.56349  22169744.5384   22169747.0594   22169743.6174
       231.0004        178.0004
  -5658869.02149  -4392218.07749  21978719.1084   21978725.4014   21978719.4374
       228.0004        180.0004
  -1404911.02349   -992396.53749  23296515.2504   23296517.7794   23296516.1284
       218.0004        162.0004
 -13531374.11149 -10526092.32849  22461193.2584   22461194.5264   22461193.1054
       229.0004        163.0004
  -1716872.68849  -1057315.44449  24068500.1714   24068505.1054   24068501.2164
       210.0004        140.0004
  -7853530.88249  -5827545.29749  22655167.1754   22655170.8944   22655167.7424
       220.0004        162.0004
 -24044945.22449 -18162521.64749  20293385.2514   20293387.7544   20293385.0344
       237.0004        203.0004
 11 10  9 20 18 30.0000000  0 10G23G17G12G32G01G31G13G11G04G20
 -22753079.42149 -16624029.67649  20934624.4184   20934624.5994   20934624.4894
       243.0004        195.0004
 -15881632.27549 -12358160.56249  21916000.3754   21916002.1974   21916000.3124
       235.0004        184.0004
     86446.80549    116710.92149  25399263.8214   25399264.9704   25399267.5624
       199.0004        130.0004
 -12268550.20649  -9543761.52549  22183640.4104   22183642.9814   22183639.7994
       232.0004        178.0004
  -5571739.05149  -4324324.61649  21995298.9714   21995305.4014   21995298.9694
       228.0004        180.0004
  -1393978.44749   -983877.61949  23298597.0484   23298597.7354   23298597.0294
       220.0004        163.0004
 -13634398.11549 -10606370.72449  22441587.8444   22441592.5624   22441588.9654
       230.0004        168.0004
  -1605289.74049   -970367.73849  24089734.6134   24089735.9134   24089735.0864
       211.0004        141.0004
  -7945451.59249  -5899171.78549  22637674.9214   22637679.4784   22637675.9174
       220.0004        161.0004
 -24013538.07749 -18138048.55249  20299362.7744   20299364.4004   20299362.3434
       238.0004        203.0004
 11 10  9 20 19  0.0000000  0 10G23G17G12G32G01G31G13G11G04G20
 -22809851.99949 -16668268.02649  20923821.1084   20923821.2464   20923820.5934
       243.0004        195.0004
 -15847466.36249 -12331537.80149  21922501.7444   21922503.4364   21922501.4894
       235.0004        185.0004
     99636.87349    126988.88749  25401772.4854   25401773.8434   25401770.3124
       197.0004        129.0004
 -12195343.87649  -9486717.64149  22197571.4124   22197574.2544   22197571.1684
       234.0004        179.0004
  -5484281.50349  -4256175.90249  22011942.2244   22011948.4534   22011941.9214
       228.0004        180.0004
  -1382453.70549   -974897.28949  23300789.1914   23300790.7434   23300790.4654
       221.0004        163.0004
 -13737133.45749 -10686424.20649  22422037.0414   22422041.2144   22422037.0404
       228.0004        166.0004
  -1493606.04749   -883341.51249  24110987.9634   24110989.6274   24110986.7914
       211.0004        140.0004
  -8037110.98849  -5970594.66049  22620232.7564   22620236.3804   22620232.8924
       220.0004        161.0004
 -23981747.75249 -18113276.85349  20305412.3804   20305413.6644   20305411.7044
       238.0004        203.0004
 11 10  9 20 19 30.0000000  0 10G23G17G12G32G01G31G13G11G04G20
 -22866157.27149 -16712142.24349  20913106.7054   20913106.4684   20913106.3184
       243.0004        195.0004
 -15812727.55249 -12304468.63249  21929112.1484   21929114.3344   21929111.9894
       234.0004        185.0004
    113372.18249    137691.71549  25404388.1344   25404388.2364   25404385.2274
       192.0004        124.0004
 -12121954.97849  -9429531.51149  22211536.2034   22211538.8434   22211536.3884
       233.0004        177.0004
  -5396498.88049  -4187773.88349  22028647.4484   22028653.1244   22028646.9734
       230.0004        180.0004
  -1370338.38949   -965456.75649  23303095.5724   23303096.3414   23303094.4814
       220.0004        161.0004
 -13839578.95349 -10766251.84749  22402543.7644   22402545.4624   22402543.1304
       228.0004        164.0004
  -1381824.83749   -796239.31749  24132258.7704   24132260.7294   24132258.8754
       211.0004        138.0004
  -8128507.58349  -6041812.77649  22602841.1544   22602843.3684   22602841.5164
       222.0004        161.0004
 -23949576.00049 -18088207.93649  20311534.3964   20311536.1204   20311534.2234
       238.0004        204.0004
 11 10  9 20 20  0.0000000  0 10G23G17G12G32G01G31G13G11G04G20
 -22921993.34749 -16755650.84649  20902480.5514   20902481.0754   20902480.2354
       242.0004        195.0004
 -15777416.54849 -12276953.58149  21935830.1254   21935834.0924   21935831.4724
       233.0004        185.0004
    127652.48649    148819.21849  25407104.7944   25407109.2304   25407103.3374
       196.0004        122.0004
 -12048383.86849  -9372203.37449  22225536.7484   22225539.2754   22225536.1734
       234.0004        177.0004
  -5308392.00749  -4119119.19649  22045413.2704   22045419.0194   22045412.5534
       229.0004        180.0004
  -1357631.85449   -955555.56549  23305512.9404   23305514.6144   23305513.8404
       218.0004        162.0004
 -13941731.79049 -10845851.45749  22383104.5074   22383106.1494   22383103.1344
       229.0004        165.0004
  -1269947.12249   -709061.91949  24153548.5934   24153550.8054   24153548.4404
       212.0004        141.0004
  -8219638.56949  -6112823.90749  22585500.5054   22585502.3264   22585500.8754
       224.0004        160.0004
 -23917022.97649 -18062841.93349  20317729.6334   20317730.9764   20317729.0864
       239.0004        204.0004
 11 10  9 20 20 30.0000000  0 10G23G17G12G32G01G31G13G11G04G20
 -22977359.49849 -16798793.28849  20891945.2084   20891945.1784   20891944.9314
       242.0004        195.0004
 -15741535.46449 -12248994.32349  21942658.2144   21942661.6504   21942659.6414
       232.0004        184.0004
    142476.64749    160370.49249  25409925.9314   25409926.2414   25409926.8164
       189.0004        122.0004
 -11974632.14249  -9314734.49949  22239570.8974   22239573.8634   22239570.9444
       233.0004        177.0004
  -5219962.95649  -4050213.47449  22062240.1874   22062246.3924   22062240.5804
       228.0004        179.0004
  -1344335.01849   -945194.37349  23308042.9654   23308046.0504   23308042.7384
       218.0004        162.0004
 -14043590.24949 -10925221.70049  22363719.0454   22363724.5424   22363721.0554
       227.0004        165.0004
  -1157975.41249   -621811.24349  24174856.1654   24174860.1684   24174854.0084
       211.0004        140.0004
  -8310501.99049  -6183626.52549  22568209.5154   22568211.9924   22568209.8674
       222.0004        163.0004
 -23884089.71549 -18037179.63849  20323995.8674   20323997.7484   20323995.5314
       237.0004        203.0004
 11 10  9 20 21  0.0000000  0 10G23G17G12G32G01G31G13G11G04G20
 -23032253.66649 -16841567.95649  20881499.0734   20881499.1874   20881498.8074
       242.0004        196.0004
 -15705085.00649 -12220591.38449  21949595.5214   21949597.7494   21949595.4154
       233.0004        185.0004
    157844.56449    172345.50549  25412848.3714                   25412844.6914
       188.0004        122.0004
 -11900700.14249  -9257125.17649  22253639.6774   22253642.8924   22253639.8434
       233.0004        178.0004
  -5131212.58749  -3981057.38049  22079129.4374   22079134.8444   22079129.3104
       229.0004        179.0004
  -1330447.49949   -934372.90449  23310685.8854   23310687.6534   23310687.0134
       221.0004        162.0004
 -14145151.21649 -11004360.09849  22344394.6464   22344396.7734   22344394.9684
       228.0004        166.0004
  -1045911.16149   -534488.47449  24196181.3684   24196183.1064   24196178.9404
       209.0004        137.0004
  -8401095.15849  -6254218.57649  22550970.0404   22550973.0934   22550970.1744
       223.0004        164.0004
 -23850776.23949 -18011221.06149  20330335.0144   20330337.1184   20330334.8774
       237.0004        203.0004
 11 10  9 20 21 30.0000000  0 10G23G17G12G32G01G31G13G11G04G20
 -23086675.58749 -16883974.61049  20871143.4654   20871143.7024   20871143.1434
       243.0004        196.0004
 -15668067.78749 -12191746.83349  21956639.9054   21956642.1154   21956640.4854
       234.0004        185.0004
    173754.37749    184742.77449  25415876.9674   25415881.1414   25415879.3614
       189.0004        122.0004
 -11826589.96149  -9199376.99649  22267742.5144   22267745.6894   22267742.6244
       233.0004        178.0004
  -5042143.37149  -3911652.81249  22096079.0074   22096085.2334   22096078.3144
       227.0004        179.0004
  -1315970.25549   -923091.90749  23313440.3954   23313441.3764   23313440.3434
       219.0004        161.0004
 -14246413.39949 -11083265.67449  22325126.2694   22325127.1544   22325126.0704
       230.0004        166.0004
   -933757.45049   -447096.01149  24217524.3854   24217522.1084   24217523.6274
       209.0004        137.0004
  -8491416.67849  -6324598.96049  22533781.6064   22533785.7564   22533782.5774
       223.0004        163.0004
 -23817084.39849 -17984967.66349  20336746.2344   20336748.2254   20336746.0464
       237.0004        203.0004
 11 10  9 20 22  0.0000000  0 10G23G17G12G32G01G31G13G11G04G20
 -23140623.81749 -16926012.15249  20860877.0714   20860877.0464   20860876.5024
       243.0004        196.0004
 -15630484.70649 -12162461.37749  21963790.4364   21963793.9904   21963791.8564
       233.0004        184.0004
    190206.17649    197562.34049  25419007.6564   25419010.4974   25419006.7494
       194.0004        123.0004
 -11752302.01449  -9141490.30349  22281879.3314   22281881.8814   22281878.6974
       233.0004        177.0004
  -4952756.24949  -3842000.52949  22113087.2864   22113093.8764   22113088.1144
       225.0004        178.0004
  -1300903.17149   -911351.32449  23316308.7834   23316310.3704   23316309.1664
       222.0004        162.0004
 -14347374.18849 -11161936.39249  22305913.1304   22305914.2104   22305912.9714
       227.0004        167.0004
   -821515.06849   -359634.46249  24238881.2574   24238885.7724   24238880.6104
       209.0004        138.0004
  -8581463.85049  -6394765.56249  22516646.5034   22516649.2944   22516646.9764
       223.0004        162.0004
 -23783013.94849 -17958419.25549  20343228.9114   20343231.5574   20343228.9834
       237.0004        202.0004
 11 10  9 20 22 30.0000000  0 10G23G17G12G32G01G31G13G11G04G20
 -23194096.78249 -16967679.35949  20850701.3344   20850701.8554   20850701.5164
       242.0004        196.0004
 -15592336.93149 -12132735.87949  21971051.4504   21971053.4974   21971051.4644
       234.0004        185.0004
    207199.55449    210803.92249  25422242.0634                   25422239.6644
       189.0004        120.0004
 -11677836.88949  -9083465.52049  22296049.2374   22296052.2414   22296049.1574
       232.0004        177.0004
  -4863052.38949  -3772101.43549  22130158.0054   22130164.0394   22130158.0964
       226.0004        177.0004
  -1285246.36549   -899151.21349  23319287.3474   23319287.9144   23319287.3424
       221.0004        162.0004
 -14448030.69149 -11240369.99249  22286757.1384   22286760.9794   22286758.4864
       226.0004        167.0004
   -709185.62649   -272105.06249  24260256.5524   24260258.0754   24260255.6464
       209.0004        139.0004
  -8671233.82749  -6464716.15349  22499564.9124   22499565.9804   22499564.3014
       224.0004        163.0004
 -23748565.43149 -17931576.24449  20349785.3284   20349786.8644   20349784.8474
       238.0004        202.0004
 11 10  9 20 23  0.0000000  0 10G23G17G12G32G01G31G13G11G04G20
 -23247094.48049 -17008976.23449  20840617.5854   20840616.4914   20840616.7404
       244.0004        196.0004
 -15553626.68149 -12102572.08349  21978416.0794   21978419.5794   21978417.5954
       233.0004        184.0004
    224732.37249    224465.87449  25425577.4994
       184.0004        114.0004
 -11603196.70049  -9025304.32349  22310253.2214   22310255.7334   22310253.1014
       233.0004        176.0004
  -4773034.42949  -3701957.61249  22147288.2474   22147294.8414   22147287.2654
       226.0004        174.0004
  -1269000.94049   -886492.43049  23322379.3744   23322380.6474   23322379.2364
       222.0004        163.0004
 -14548381.92949 -11318565.75549  22267660.6024   22267665.2544   22267662.3734
       227.0004        168.0004
   -596771.93749   -184510.00349  24281647.1504   24281650.9234   24281649.0604
       208.0004        140.0004
  -8760725.38149  -6534449.77749  22482534.0674   22482536.1634   22482534.4294
       223.0004        161.0004
 -23713740.61949 -17904440.02249  20356412.6244   20356413.5934   20356411.5924
       238.0004        202.0004
 11 10  9 20 23 30.0000000  0 10G23G17G12G32G01G31G13G11G04G20
 -23299615.43749 -17049901.64049  20830621.7204   20830621.9504   20830621.4794
       243.0004        196.0004
 -15514355.47949 -12071971.18449  21985891.0354   21985892.7054   21985890.1044
       233.0004        184.0004
    242804.16349    238547.76149  25429018.2134
       188.0004        116.0004
 -11528382.24149  -8967007.33149  22324490.1534   22324492.1754   22324489.0564
       232.0004        175.0004
  -4682703.60549  -3631570.00549  22164477.2174   22164484.6554   22164477.4884
       224.0004        175.0004
  -1252167.11449   -873375.15649  23325581.4204   23325584.0404   23325582.2644
       218.0004        161.0004
 -14648425.28849 -11396521.57649  22248624.0094   22248627.4404   22248624.7424
       229.0004        167.0004
   -484276.10349    -96850.97549  24303056.7414   24303058.9794   24303055.6394
       213.0004        139.0004
  -8849936.05249  -6603964.55649  22465557.7804   22465559.7044   22465557.8844
       223.0004        163.0004
 -23678540.01449 -17877010.96749  20363110.4204   20363112.3514   20363110.3604
       238.0004        203.0004
 11 10  9 20 24  0.0000000  0 10G23G17G12G32G01G31G13G11G04G20
 -23351658.02449 -17090454.30249  20820718.3584   20820718.4454   20820718.6704
       243.0004        196.0004
 -15474524.34149 -12040933.95849  21993469.8784   21993472.5234   21993469.8704
       232.0004        184.0004
    261414.95349      2306.68749  25432560.5944
       187.0004         74.0004
 -11453394.04749  -8908574.97149  22338758.5964   22338762.3474   22338759.1914
       230.0004        174.0004
  -4592061.02549  -3560939.44549  22181726.6114   22181732.8834   22181726.6654
       225.0004        176.0004
  -1234744.81549   -859799.33749  23328898.0264   23328898.1504   23328897.8494
       219.0004        160.0004
 -14748158.15749 -11474235.45949  22229645.0234   22229648.4174   22229645.3094
       230.0004        167.0004
   -371699.24849     -9128.75949  24324478.3344   24324481.8334   24324479.1994
       213.0004        140.0004
  -8938863.00549  -6673258.26449  22448636.9224   22448637.7304   22448636.8844
       227.0004        164.0004
 -23642963.65049 -17849289.12949  20369881.0574   20369882.4464   20369880.2104
       238.0004        202.0004
