     2.11           OBSERVATION DATA    G (GPS)             RINEX VERSION / TYPE
teqc  2013Mar15                         20160913 13:06:34UTCPGM / RUN BY / DATE
OSX ker:10.8.0|Core 2 Duo|gcc 4.2 -m64|OSX ker:10.8.0+|=+   COMMENT
Linux 2.4.21-27.ELsmp|Opteron|gcc -static|Linux x86_64|=+   COMMENT
HEADER CHANGED BY EPN CB ON 2011-10-10                      COMMENT
TO BE CONFORM WITH THE INFORMATION IN                       COMMENT
ftp://epncb.oma.be/pub/station/log/brus.log                 COMMENT
                                                            COMMENT
teqc  2010Oct21                         20111010 00:01:17UTCCOMMENT
teqc  2010Oct21                         20111010 00:01:02UTCCOMMENT
teqc  2010Oct21                         20111009 01:01:01UTCCOMMENT
BIT 2 OF LLI FLAGS DATA COLLECTED UNDER A/S CONDITION       COMMENT
 SNR is mapped to RINEX snr flag value [0-9]                COMMENT
  L1 & L2: min(max(int(snr_dBHz/6), 0), 9)                  COMMENT
pseudorange smoothing corrections not applied               COMMENT
COORDINATES IN ETRF2000                                     COMMENT
Forced Modulo Decimation to 30 seconds                      COMMENT
BRUS                                                        MARKER NAME
13101M004                                                   MARKER NUMBER
Carine Bruyninx     ROB                                     OBSERVER / AGENCY
RT919994505         ASHTECH Z-XII3T     1L01-1D04           REC # / TYPE / VERS
CR519994604         ASH701945B_M    NONE                    ANT # / TYPE
  4027894.0130   307045.5980  4919474.9120                  APPROX POSITION XYZ
        3.9702        0.0000        0.0000                  ANTENNA: DELTA H/E/N
     1     1                                                WAVELENGTH FACT L1/2
     7    L1    L2    C1    P2    P1    S1    S2            # / TYPES OF OBSERV
    30.0000                                                 INTERVAL
teqc windowed: start @ 2011 Oct  9 12:00:00.000             COMMENT
teqc windowed: delta = 21600.000 sec                        COMMENT
  2011    10     9    12     0    0.0000000     GPS         TIME OF FIRST OBS
                                                            END OF HEADER
 11 10  9 12  0  0.0000000  0 10G06G25G21G23G31G05G16G03G30G29
  -7282666.70349  -5654293.82849  22588156.6074   22588162.9524   22588156.3844
       221.0004        165.0004
   -589938.44449   -445427.63349  24733153.0734   24733165.8104   24733152.9724
       206.0004        137.0004
 -18613591.64549 -14237352.45249  21200262.1364   21200264.9044   21200261.6944
       240.0004        196.0004
   3927547.02359    119097.28659  25325371.6404
       178.0004        111.0004
 -10369386.42549  -8045968.95149  22843795.1234   22843801.9044   22843796.1854
       223.0004        169.0004
   -512633.48849   -393731.32549  24290941.0854   24290948.4934   24290942.8414
       208.0004        147.0004
 -11428550.80049  -8405389.77449  22192411.5394   22192415.2164   22192411.5214
       227.0004        172.0004
  -3039097.33349  -2350652.66549  23465194.8104   23465199.2914   23465194.7414
       211.0004        145.0004
 -16535861.87549 -12622254.73849  21212075.0324   21212080.2704   21212074.9934
       238.0004        189.0004
 -14622915.83649 -11090279.95849  21998031.2954   21998036.8934   21998032.2114
       232.0004        184.0004
 11 10  9 12  0 30.0000000  0 10G06G25G21G23G31G05G16G03G30G29
  -7363455.22249  -5717245.85049  22572783.3674   22572789.3064   22572782.8964
       222.0004        164.0004
   -480760.24649   -360354.00449  24753927.8234   24753943.7414   24753927.6644
       207.0004        137.0004
 -18646087.38349 -14262673.77749  21194077.8974   21194081.0664   21194077.8254
       240.0004        195.0004
   3989449.42659     20461.90359  25337147.1564
       176.0004         74.0004
 -10277206.83349  -7974140.82149  22861337.9504   22861343.3204   22861337.3694
       224.0004        169.0004
   -475956.18649   -365151.61949  24297921.6714   24297927.9454   24297921.3364
       208.0004        144.0004
 -11508856.96549  -8467965.95849  22177130.8894   22177134.2384   22177130.0464
       231.0004        174.0004
  -3143395.59149  -2431923.91349  23445346.8354   23445351.4824   23445345.4954
       209.0004        146.0004
 -16454769.91549 -12559066.24049  21227507.1864   21227511.5724   21227506.4864
       238.0004        189.0004
 -14546123.64549 -11030441.93349  22012645.4534   22012649.1864   22012645.5224
       232.0004        184.0004
 11 10  9 12  1  0.0000000  0 10G06G25G21G23G31G05G16G03G30G29
  -7444037.11149  -5780036.88749  22557449.9134   22557454.9024   22557449.4104
       222.0004        165.0004
   -371486.06649   -275205.59349  24774723.2394   24774736.1614   24774723.4324
       211.0004        140.0004
 -18678125.40849 -14287638.44949  21187981.4944   21187984.6414   21187980.7274
       239.0004        196.0004
   4051706.27659     68994.45959  25348991.4064
       168.0004        106.0004
 -10184738.66749  -7902087.85049  22878936.8364   22878939.8224   22878935.2604
       226.0004        169.0004
   -438730.70949   -336144.76249  24305005.1324   24305010.8964   24305007.1504
       209.0004        145.0004
 -11588888.65249  -8530328.29449  22161902.4204   22161904.6724   22161900.9494
       232.0004        175.0004
  -3247570.35649  -2513098.92649  23425524.0804   23425527.8314   23425521.8104
       210.0004        144.0004
 -16373270.23849 -12495560.06249  21243016.3684   21243020.6774   21243015.5524
       238.0004        189.0004
 -14469127.62549 -10970445.07849  22027297.3484   22027301.2814   22027297.3094
       232.0004        183.0004
 11 10  9 12  1 30.0000000  0 10G06G25G21G23G31G05G16G03G30G29
  -7524411.05149  -5842665.87649  22542154.1834   22542160.1904   22542155.2254
       222.0004        166.0004
   -262116.99149   -189983.24849  24795536.5644   24795549.8114   24795536.4564
       211.0004        141.0004
 -18709706.00149 -14312246.68149  21181972.2514   21181974.9304   21181971.6374
       240.0004        196.0004
   4114313.07659    117814.84259  25360912.4834
       170.0004        107.0004
 -10091984.57349  -7829812.05349  22896583.5934   22896590.2874   22896584.5614
       219.0004        167.0004
   -400958.07549   -306711.54849  24312192.8544   24312199.6074   24312194.9834
       210.0004        147.0004
 -11668643.51249  -8592474.88749  22146724.0514   22146727.7404   22146722.2274
       226.0004        172.0004
  -3351620.23049  -2594176.68149  23405722.0334   23405728.3054   23405722.4054
       212.0004        146.0004
 -16291364.13549 -12431737.17149  21258601.5804   21258606.8524   21258601.4094
       237.0004        189.0004
 -14391928.79949 -10910290.18849  22041987.0454   22041991.8204   22041987.5924
       232.0004        182.0004
 11 10  9 12  2  0.0000000  0 10G06G25G21G23G31G05G16G03G30G29
  -7604577.26649  -5905132.97349  22526898.8184   22526904.4774   22526899.0524
       221.0004        166.0004
   -152655.61049   -104688.95149  24816365.3924   24816379.5114   24816364.4314
       212.0004        140.0004
 -18740830.01349 -14336499.12849  21176048.8264   21176052.3084   21176048.3524
       238.0004        196.0004
   4177270.63459     16774.23459  25372890.8044
       163.0004         74.0004
  -9998948.19449  -7757316.27549  22914286.8984   22914293.2464   22914288.7934
       220.0004        166.0004
   -362640.25449   -276853.52449  24319484.0994   24319490.6234   24319485.2814
       208.0004        144.0004
 -11748120.47549  -8654404.94349  22131599.1084   22131604.7644   22131598.8944
       229.0004        174.0004
  -3455545.43849  -2675157.28649  23385945.2754   23385950.1794   23385944.2844
       210.0004        144.0004
 -16209054.46949 -12367599.82149  21274265.5504   21274270.1704   21274265.1694
       239.0004        189.0004
 -14314529.19849 -10849978.85749  22056716.6314   22056720.8274   22056716.3404
       233.0004        183.0004
 11 10  9 12  2 30.0000000  0  9G06G25G21G31G05G16G03G30G29
  -7684533.65449  -5967436.59049  22511684.3294   22511689.3834   22511683.8514
       223.0004        167.0004
    -43101.95049    -19322.73849  24837212.8834   24837227.9454   24837212.2694
       206.0004        137.0004
 -18771494.17749 -14360393.27049  21170213.6764   21170216.9134   21170213.8844
       239.0004        197.0004
  -9905630.72949  -7684601.47749  22932046.7184   22932052.0194   22932046.8704
       222.0004        166.0004
   -323777.09149   -246570.53549  24326881.4134   24326885.9314   24326879.7604
       209.0004        146.0004
 -11827316.34649  -8716115.97549  22116529.6094   22116533.3164   22116529.7584
       230.0004        175.0004
  -3559342.98149  -2756038.39049  23366193.6664   23366200.4624   23366193.4254
       208.0004        146.0004
 -16126341.31749 -12303148.06149  21290004.6224   21290010.2434   21290004.3424
       236.0004        188.0004
 -14236928.57649 -10789510.87949  22071483.2964   22071487.5884   22071483.2874
       232.0004        183.0004
 11 10  9 12  3  0.0000000  0  9G06G25G21G31G05G16G03G30G29
  -7764280.31749  -6029576.78849  22496508.8604   22496513.5474   22496509.4614
       222.0004        166.0004
     66541.60649     66113.49949  24858075.5694   24858092.1294   24858078.1234
       204.0004        135.0004
 -18801699.58149 -14383929.92849  21164466.4114   21164469.4254   21164465.9254
       240.0004        197.0004
  -9812036.22849  -7611670.83849  22949855.2984   22949863.4454   22949856.6114
       218.0004        165.0004
   -284370.78549   -215864.31249  24334378.7694   24334384.4704   24334378.8774
       207.0004        143.0004
 -11906229.83649  -8777606.96149  22101512.0514   22101516.5004   22101511.5524
       227.0004        173.0004
  -3663012.75749  -2836819.91049  23346465.7204   23346471.7914   23346466.1804
       212.0004        145.0004
 -16043227.39849 -12238384.02549  21305820.0334   21305825.8454   21305819.8984
       234.0004        187.0004
 -14159129.19249 -10728888.01949  22086287.9504   22086292.1964   22086288.4424
       233.0004        183.0004
 11 10  9 12  3 30.0000000  0  9G06G25G21G31G05G16G03G30G29
  -7843815.85749  -6091552.47349  22481372.7884   22481379.8724   22481372.8864
       223.0004        167.0004
    176274.04449    151619.00849  24878959.6884   24878972.0394   24878960.1904
       203.0004        133.0004
 -18831445.78449 -14407108.76749  21158805.1394   21158808.4504   21158805.1104
       239.0004        197.0004
  -9718166.89149  -7538526.02149  22967719.8594   22967724.0294   22967719.6914
       222.0004        165.0004
   -244421.93949   -184735.36349  24341980.3684   24341987.1144   24341982.8804
       208.0004        143.0004
 -11984858.55149  -8838876.04349  22086549.4004   22086554.3244   22086548.7014
       228.0004        173.0004
  -3766552.79549  -2917500.38849  23326760.8994   23326766.4344   23326761.5704
       209.0004        144.0004
 -15959713.89049 -12173308.61149  21321712.6844   21321718.6554   21321712.1124
       236.0004        187.0004
 -14081131.29049 -10668110.45749  22101130.3744   22101134.1154   22101130.9554
       232.0004        182.0004
 11 10  9 12  4  0.0000000  0  9G06G25G21G31G05G16G03G30G29
  -7923140.12249  -6153363.53249  22466278.6494   22466283.6584   22466279.0884
       224.0004        168.0004
    286093.31949    237192.21649  24899858.0824   24899872.7564   24899856.7034
       198.0004        131.0004
 -18860732.67549 -14429929.69849  21153232.7224   21153235.4454   21153232.4674
       240.0004        197.0004
  -9624026.12649  -7465169.69449  22985634.8194   22985638.6394   22985635.3674
       222.0004        163.0004
   -203932.54649   -153185.17549  24349685.7034   24349692.0854   24349687.2734
       207.0004        142.0004
 -12063200.95849  -8899922.05149  22071642.2094   22071646.7164   22071642.0764
       228.0004        175.0004
  -3869962.53849  -2998079.34349  23307083.9714   23307088.5334   23307083.4524
       208.0004        144.0004
 -15875803.02449 -12107923.58749  21337681.4504   21337685.8264   21337680.3664
       236.0004        186.0004
 -14002936.84449 -10607179.76249  22116010.2544   22116014.8594   22116010.6984
       231.0004        181.0004
 11 10  9 12  4 30.0000000  0  9G06G25G21G31G05G16G03G30G29
  -8002251.76849  -6215008.92249  22451225.4564   22451229.9644   22451224.7724
       226.0004        167.0004
    395998.42949    322832.20549  24920773.2914   24920788.1624   24920771.0494
       203.0004        131.0004
 -18889558.85049 -14452391.63449  21147747.2834   21147750.1644   21147746.7374
       240.0004        197.0004
  -9529616.12749  -7391603.58749  23003598.7464   23003605.4744   23003598.3764
       217.0004        164.0004
   -162903.50549   -121214.49849  24357492.7974   24357499.7324   24357492.9224
       206.0004        140.0004
 -12141254.47249  -8960742.92849  22056788.1114   22056792.3054   22056788.1494
       228.0004        174.0004
  -3973240.44449  -3078555.50449  23287427.8084   23287436.0924   23287428.9014
       206.0004        145.0004
 -15791496.12849 -12042229.94949  21353723.8454   21353728.7254   21353723.1404
       235.0004        186.0004
 -13924546.58049 -10546096.48549  22130926.7204   22130931.7034   22130927.0134
       230.0004        180.0004
 11 10  9 12  5  0.0000000  0  9G06G25G21G31G05G16G03G30G29
  -8081149.86449  -6276487.88449  22436211.5384   22436215.9914   22436210.3834
       225.0004        167.0004
    505987.86549    408538.00149  24941703.5644   24941716.4964   24941703.0474
       194.0004        127.0004
 -18917924.05149 -14474494.36849  21142349.2454   21142351.8954   21142349.0304
       239.0004        197.0004
  -9434939.52249  -7317829.72849  23021615.8404   23021621.6534   23021616.8924
       222.0004        165.0004
   -121335.83849    -88824.11549  24365403.5814   24365407.6314   24365403.4094
       209.0004        140.0004
 -12219017.18249  -9021337.20449  22041990.9614   22041995.1314   22041991.6294
       229.0004        174.0004
  -4076385.20749  -3158927.95849  23267803.5444   23267808.9404   23267803.1534
       210.0004        145.0004
 -15706794.86249 -11976229.03049  21369843.2304   21369847.2674   21369842.0084
       236.0004        186.0004
 -13845961.66349 -10484861.52649  22145881.3864   22145885.8734   22145882.9844
       231.0004        180.0004
 11 10  9 12  5 30.0000000  0  9G06G25G21G31G05G16G03G30G29
  -8159834.53449  -6337800.55949  22421235.7984   22421242.9494   22421237.7234
       224.0004        167.0004
    616059.50649    494307.90449  24962649.1464   24962662.6284   24962647.1734
       187.0004        124.0004
 -18945828.63449 -14496238.17949  21137039.3784   21137042.1914   21137038.8424
       239.0004        197.0004
  -9340000.19649  -7243851.15149  23039682.8024   23039687.8074   23039682.5414
       221.0004        164.0004
    -79232.04149    -56016.00849  24373415.8894   24373420.9674   24373417.4094
       206.0004        141.0004
 -12296487.69849  -9081703.81649  22027249.3364   22027251.3504   22027248.3684
       229.0004        174.0004
  -4179396.55149  -3239196.46749  23248200.7634   23248207.0424   23248200.1444
       210.0004        148.0004
 -15621701.76649 -11909922.77549  21386034.6664   21386039.7914   21386034.2504
       236.0004        186.0004
 -13767184.00149 -10423476.38449  22160872.7754   22160877.1964   22160872.5774
       231.0004        180.0004
 11 10  9 12  6  0.0000000  0  9G06G25G21G31G05G16G03G30G29
  -8238303.72349  -6398945.32849  22406304.4764   22406309.8794   22406304.7734
       224.0004        168.0004
    726212.71549    580141.24149  24983608.3254   24983624.0994   24983610.1914
       188.0004        125.0004
 -18973271.41049 -14517622.14349  21131817.0144   21131819.8634   21131816.5904
       239.0004        197.0004
  -9244799.89349  -7169669.22949  23057798.5644   23057803.4934   23057798.2134
       219.0004        162.0004
    -36592.02049    -22790.04549  24381529.6854   24381536.4884   24381527.6664
       206.0004        138.0004
 -12373663.13449  -9141840.48749  22012562.5634   22012567.4724   22012562.1934
       228.0004        173.0004
  -4282271.72649  -3319358.83849  23228623.9234   23228627.7794   23228622.7634
       212.0004        142.0004
 -15536217.55049 -11843311.74649  21402301.9964   21402307.4244   21402302.2494
       236.0004        186.0004
 -13688213.68149 -10361941.11149  22175900.0884   22175904.8424   22175900.3984
       230.0004        179.0004
 11 10  9 12  6 30.0000000  0  9G06G25G21G31G05G16G03G30G29
  -8316556.86249  -6459921.74449  22391412.7774   22391418.9594   22391413.0154
       222.0004        167.0004
    836445.98949    666036.94249  25004586.2454   25004604.9374   25004585.2884
       189.0004        123.0004
 -19000252.06349 -14538646.00649  21126682.6524   21126685.6544   21126682.1564
       239.0004        197.0004
  -9149341.27949  -7095286.03149  23075965.2124   23075969.2484   23075965.1974
       223.0004        167.0004
      6582.20649     10852.22249  24389745.9384   24389749.9724   24389746.2874
       206.0004        139.0004
 -12450541.60849  -9201745.74749  21997933.7954   21997937.7104   21997932.9794
       230.0004        176.0004
  -4385009.98949  -3399414.58649  23209074.0724   23209078.7814   23209073.4014
       210.0004        147.0004
 -15450344.04449 -11776397.38549  21418642.6844   21418648.3684   21418642.4624
       234.0004        185.0004
 -13609051.91849 -10300256.66449  22190964.3494   22190968.5104   22190964.8684
       229.0004        178.0004
 11 10  9 12  7  0.0000000  0  9G06G25G21G31G05G16G03G30G29
  -8394594.15849  -6520729.97349  22376562.5094   22376568.4854   22376563.0694
       222.0004        167.0004
    946756.86249    751993.14249  25025578.7824                   25025576.6454
       185.0004        119.0004
 -19026771.07949 -14559310.15549  21121636.4854   21121638.7474   21121635.9894
       239.0004        197.0004
  -9053628.46349  -7020704.72049  23094178.5844   23094183.9704   23094178.7194
       222.0004        167.0004
     50288.24849     44908.85249  24398061.6924   24398067.0064   24398063.2374
       206.0004        140.0004
 -12527121.91849  -9261418.67349  21983360.7614   21983364.2914   21983360.2114
       229.0004        176.0004
  -4487611.23649  -3479363.52949  23189549.9024   23189555.3284   23189549.4174
       212.0004        149.0004
 -15364084.03249 -11709181.85149  21435057.8594   21435063.3844   21435057.5714
       235.0004        184.0004
 -13529700.96749 -10238424.79049  22206064.3384   22206068.3814   22206065.4834
       231.0004        178.0004
 11 10  9 12  7 30.0000000  0  9G06G25G21G31G05G16G03G30G29
  -8472414.36349  -6581369.05549  22361755.0594   22361760.6544   22361754.4704
       225.0004        168.0004
   1057144.27249    838009.04449  25046583.7564                   25046585.5494
       189.0004        120.0004
 -19052827.50649 -14579613.84349  21116677.4164   21116680.9794   21116677.3564
       238.0004        197.0004
  -8957663.51349  -6945926.97249  23112439.4594   23112445.3214   23112440.3524
       222.0004        165.0004
     94525.60149     79379.50649  24406480.7784   24406486.7474   24406480.7504
       207.0004        139.0004
 -12603401.54949  -9320857.30349  21968843.4674   21968848.5704   21968843.4954
       227.0004        176.0004
  -4590073.66749  -3559204.23649  23170050.0304   23170056.6594   23170049.9834
       210.0004        145.0004
 -15277438.71249 -11641666.07349  21451546.4804   21451551.0944   21451545.9664
       235.0004        184.0004
 -13450161.48749 -10176446.01949  22221199.8124   22221205.1864   22221200.6604
       230.0004        180.0004
 11 10  9 12  8  0.0000000  0  9G06G25G21G31G05G16G03G30G29
  -8550015.83949  -6641837.68749  22346987.6664   22346993.6914   22346986.6174
       224.0004        169.0004
   1167607.50649    924083.95949  25067607.4224                   25067605.6684
       188.0004        119.0004
 -19078420.68249 -14599556.56149  21111807.6634   21111810.7244   21111807.4014
       239.0004        197.0004
  -8861448.78349  -6870954.58049  23130747.1194   23130755.4514   23130749.3244
       220.0004        168.0004
    139293.37249    114263.45649  24414999.1824   24415005.4714   24414999.3404
       202.0004        139.0004
 -12679378.08549  -9380059.75849  21954387.1754   21954390.2044   21954387.3594
       231.0004        177.0004
  -4692395.24249  -3638935.29749  23150578.8954   23150584.2124   23150580.2954
       213.0004        144.0004
 -15190409.33549 -11573851.02749  21468107.6374   21468112.2334   21468107.1124
       235.0004        184.0004
 -13370433.91749 -10114320.67749  22236372.0414   22236376.4644   22236371.9134
       231.0004        180.0004
 11 10  9 12  8 30.0000000  0  9G06G25G21G31G05G16G03G30G29
  -8627398.97849  -6702136.18349  22332262.1784   22332267.7064   22332261.7344
       225.0004        169.0004
   1278143.74849      9362.71749  25088642.1084
       193.0004         74.0004
 -19103551.42449 -14619138.94149  21107026.1704   21107028.3284   21107024.9234
       239.0004        198.0004
  -8764988.28049  -6795790.67649  23149104.7814   23149111.9834   23149105.3314
       223.0004        168.0004
    184588.72849    149558.53349  24423617.9894   24423624.7564   24423619.5634
       203.0004        142.0004
 -12755050.34749  -9439025.13049  21939987.2764   21939990.8734   21939987.3554
       231.0004        178.0004
  -4794575.69349  -3718556.39649  23131135.0994   23131140.8364   23131134.8864
       206.0004        147.0004
 -15102998.80449 -11505738.98749  21484740.4594   21484746.0114   21484740.5284
       233.0004        184.0004
 -13290520.13649 -10052050.24949  22251579.7954   22251583.3834   22251579.6564
       232.0004        180.0004
 11 10  9 12  9  0.0000000  0  9G06G25G21G31G05G16G03G30G29
  -8704561.56049  -6762262.81749  22317578.9034   22317583.7524   22317578.3194
       226.0004        170.0004
   1388752.95149     95559.33349  25109689.2624
       190.0004        101.0004
 -19128218.00549 -14638359.63649  21102330.8234   21102334.6154   21102331.0764
       239.0004        198.0004
  -8668283.27949  -6720436.26849  23167505.9524   23167512.4984   23167507.6344
       219.0004        164.0004
    230411.82649    185264.82549  24432339.2824   24432344.2104   24432339.3834
       206.0004        142.0004
 -12830415.03249  -9497750.81049  21925644.9334   21925648.8954   21925644.8874
       229.0004        177.0004
  -4896613.02949  -3798065.83949  23111717.6094   23111724.2604   23111718.3774
       210.0004        147.0004
 -15015207.48249 -11437330.22249  21501446.7504   21501452.3664   21501446.9234
       236.0004        183.0004
 -13210420.38549  -9989634.90449  22266822.0724   22266826.6514   22266821.6754
       232.0004        179.0004
 11 10  9 12  9 30.0000000  0  9G06G25G21G31G05G16G03G30G29
  -8781504.11849  -6822218.01749  22302936.9834   22302942.1864   22302937.3144
       225.0004        171.0004
   1499432.47849    181831.74749  25130751.7784
       180.0004        108.0004
 -19152421.26849 -14657219.30349  21097725.6944   21097728.9274   21097725.3804
       240.0004        197.0004
  -8571338.17049  -6644894.74149  23185954.5804   23185962.1174   23185955.3384
       221.0004        165.0004
    276759.85049    221380.13649  24441157.9344   24441165.4694   24441159.4724
       206.0004        141.0004
 -12905471.16849  -9556236.07449  21911363.2204   21911366.2254   21911363.1674
       232.0004        178.0004
  -4998506.68549  -3877463.45749  23092329.3904   23092334.9684   23092328.6344
       209.0004        148.0004
 -14927038.39649 -11368627.09849  21518225.4444   21518230.1824   21518224.7724
       235.0004        183.0004
 -13130136.93749  -9927076.42049  22282098.1334   22282103.5604   22282099.4854
       231.0004        179.0004
 11 10  9 12 10  0.0000000  0  9G06G25G21G31G05G16G03G30G29
  -8858225.56949  -6882000.91449  22288337.4614   22288343.3054   22288336.5394
       226.0004        171.0004
   1610180.94849      3610.90749  25151824.3624
       185.0004         74.0004
 -19176160.85049 -14675717.66049  21093207.8314   21093210.8954   21093208.2404
       238.0004        198.0004
  -8474155.35449  -6569168.00849  23204448.0214   23204455.8584   23204449.4504
       222.0004        167.0004
    323631.48949    257903.44349  24450077.5974   24450082.5784   24450079.0014
       207.0004        139.0004
 -12980216.77449  -9614479.37049  21897139.7384   21897142.4914   21897139.0964
       232.0004        179.0004
  -5100255.26749  -3956748.00549  23072966.2974   23072971.2544   23072965.6594
       212.0004        147.0004
 -14838493.28249 -11299630.96249  21535074.5734   21535079.7774   21535074.7044
       235.0004        183.0004
 -13049670.59849  -9864375.41449  22297411.9844   22297415.4224   22297411.8674
       232.0004        178.0004
 11 10  9 12 10 30.0000000  0  9G06G25G21G31G05G16G03G30G29
  -8934724.28949  -6941610.24649  22273780.5544   22273784.4904   22273780.3124
       227.0004        172.0004
   1720997.80359     89941.48259  25172915.1724
       178.0004         94.0004
 -19199435.43249 -14693853.67949  21088779.7524   21088782.2884   21088779.3154
       240.0004        198.0004
  -8376736.54949  -6493257.41349  23222988.1994   23222993.7854   23222987.6604
       221.0004        164.0004
    371026.27849    294834.40849  24459097.4534   24459101.6394   24459097.5004
       208.0004        139.0004
 -13054648.86549  -9672478.37149  21882975.4444   21882979.0474   21882975.7494
       232.0004        179.0004
  -5201856.78949  -4035917.91249  23053632.7934   23053638.7524   23053632.8714
       213.0004        151.0004
 -14749572.87149 -11230342.39049  21551996.3954   21552001.3944   21551995.7294
       236.0004        183.0004
 -12969021.46049  -9801531.98349  22312759.0564   22312761.7114   22312758.4844
       231.0004        178.0004
 11 10  9 12 11  0.0000000  0  9G06G25G21G31G05G16G03G30G29
  -9011000.16349  -7001045.94549  22259265.0474   22259270.7344   22259265.2884
       226.0004        171.0004
   1831880.66659    176242.15159  25194012.2634
       165.0004        109.0004
 -19222245.45749 -14711627.70649  21084438.9624   21084441.6284   21084438.3554
       239.0004        198.0004
  -8279085.66049  -6417165.93449  23241568.2884   23241575.4894   23241569.1494
       220.0004        163.0004
    418941.44949    332170.86149  24468214.5434   24468220.4974   24468214.3924
       204.0004        140.0004
 -13128766.21449  -9730232.10549  21868870.9924   21868873.9034   21868870.5204
       231.0004        179.0004
  -5303311.09049  -4114973.13849  23034327.2434   23034331.6614   23034327.1394
       216.0004        150.0004
 -14660280.05349 -11160763.62049  21568987.6874   21568993.1144   21568987.6994
       235.0004        183.0004
 -12888191.64849  -9738547.73849  22328139.0884   22328144.1144   22328139.5314
       230.0004        179.0004
 11 10  9 12 11 30.0000000  0  8G06G21G31G05G16G03G30G29
  -9087052.41349  -7060307.37749  22244792.3734   22244798.0034   22244792.5124
       226.0004        170.0004
 -19244591.12749 -14729039.89849  21080186.4854   21080189.0024   21080186.4314
       240.0004        198.0004
  -8181205.71849  -6340895.97349  23260195.4094   23260201.4994   23260195.1074
       219.0004        163.0004
    467375.33549    369911.55149  24477432.4424   24477437.7954   24477431.6954
       207.0004        140.0004
 -13202566.84449  -9787739.05249  21854827.0194   21854831.0964   21854826.6964
       231.0004        179.0004
  -5404616.64349  -4193912.47949  23015048.5314   23015052.1004   23015047.6294
       210.0004        146.0004
 -14570616.67449 -11090896.12149  21586050.8064   21586055.4244   21586049.8784
       235.0004        183.0004
 -12807182.28849  -9675423.62149  22343555.5074   22343559.6004   22343555.2924
       231.0004        179.0004
 11 10  9 12 12  0.0000000  0  8G06G21G31G05G16G03G30G29
  -9162879.84849  -7119393.64149  22230363.6384   22230369.1204   22230363.0974
       227.0004        172.0004
 -19266471.72149 -14746089.68949  21076022.5744   21076025.4724   21076022.6234
       239.0004        198.0004
  -8083098.86049  -6264449.20449  23278863.6844   23278872.0914   23278864.2564
       218.0004        163.0004
    516327.09549    408055.78249  24486746.9974   24486752.8974   24486746.8064
       203.0004        139.0004
 -13276048.13349  -9844997.15349  21840844.0374   21840848.4694   21840843.6864
       232.0004        179.0004
  -5505771.79249  -4272734.58849  22995798.1484   22995805.7084   22995797.5414
       212.0004        149.0004
 -14480583.82849 -11020740.71149  21603183.0294   21603188.0834   21603182.4764
       234.0004        183.0004
 -12725994.26549  -9612160.30449  22359006.2004   22359009.2074   22359005.0564
       231.0004        179.0004
 11 10  9 12 12 30.0000000  0  9G06G18G21G31G05G16G03G30G29
  -9238481.90849  -7178304.28749  22215976.7664   22215982.3254   22215977.3644
       226.0004        172.0004
    -62506.23749    -33598.78149  24520246.0284
       205.0004         74.0004
 -19287887.43949 -14762777.24149  21071947.5994   21071950.3374   21071946.9184
       239.0004        198.0004
  -7984768.52649  -6187828.32949  23297576.8054   23297583.1414   23297577.1364
       220.0004        163.0004
    565794.69049    446601.91349  24496160.7674   24496166.5074   24496161.7614
       209.0004        139.0004
 -13349208.39749  -9902005.11949  21826922.9334   21826926.3524   21826922.6444
       233.0004        180.0004
  -5606775.60849  -4351438.80649  22976578.5984   22976584.3894   22976579.6034
       217.0004        153.0004
 -14390184.01849 -10950299.36049  21620386.1484   21620390.3954   21620385.3664
       235.0004        182.0004
 -12644628.61749  -9548758.55049  22374487.0634   22374492.8214   22374488.0474
       229.0004        178.0004
 11 10  9 12 13  0.0000000  0  9G06G18G21G31G05G16G03G30G29
  -9313857.45449  -7237038.41849  22201633.5574   22201638.8644   22201634.0714
       227.0004        172.0004
   -153159.01949   -104236.54449  24502997.5144
       210.0004        114.0004
 -19308837.36949 -14779101.83849  21067960.4664   21067963.3084   21067960.3294
       239.0004        199.0004
  -7886216.89249  -6111034.96149  23316329.8614   23316336.4784   23316330.6874
       218.0004        156.0004
    615777.13949    485549.22249  24505672.1264   24505676.8844   24505671.5944
       205.0004        138.0004
 -13422045.15149  -9958760.99449  21813061.3114   21813064.8094   21813061.1914
       230.0004        177.0004
  -5707626.28449  -4430023.66849  22957388.3364   22957392.5234   22957386.5314
       214.0004        149.0004
 -14299418.58649 -10879573.10249  21637658.2544   21637662.8324   21637657.8364
       234.0004        181.0004
 -12563086.12449  -9485219.00149  22390005.4864   22390009.0704   22390005.3604
       230.0004        176.0004
 11 10  9 12 13 30.0000000  0  9G06G18G21G31G05G16G03G30G29
  -9389006.11849  -7295595.75749  22187333.2904   22187337.8444   22187332.9004
       227.0004        171.0004
   -243731.01449   -174810.84949  24485759.3644
       208.0004        110.0004
 -19329321.88049 -14795063.77649  21064063.2754   21064066.0094   21064062.5244
       239.0004        199.0004
  -7787447.33849  -6034071.81349  23335124.1614   23335132.0744   23335125.0464
       218.0004        159.0004
    666272.16649    524895.95649  24515279.6834   24515287.8594   24515281.1924
       202.0004        139.0004
 -13494556.94349 -10015263.64549  21799262.6384   21799267.1374   21799263.4784
       233.0004        180.0004
  -5808323.34849  -4508488.84949  22938224.5674   22938230.7604   22938225.9934
       216.0004        151.0004
 -14208289.84449 -10808563.74849  21654998.9664   21655004.1554   21654998.7984
       234.0004        182.0004
 -12481368.46849  -9421542.95949  22405556.7014   22405560.2464   22405556.3074
       230.0004        178.0004
 11 10  9 12 14  0.0000000  0  9G06G18G21G31G05G16G03G30G29
  -9463927.43449  -7353975.94449  22173075.5004   22173079.9824   22173075.8864
       226.0004        172.0004
   -334220.46849    -27573.37249  24468541.0174
       204.0004         74.0004
 -19349341.04749 -14810663.11049  21060252.7184   21060255.9694   21060253.3274
       238.0004        199.0004
  -7688463.10749  -5956941.38749  23353960.8544   23353968.4434   23353961.6804
       217.0004        161.0004
    717277.49049    564640.37449  24524986.1084   24524991.8894   24524987.1744
       205.0004        138.0004
 -13566741.77049 -10071511.53649  21785527.6004   21785530.9864   21785527.2924
       234.0004        182.0004
  -5908865.74049  -4586833.49849  22919096.0554   22919097.6884   22919095.3314
       221.0004        155.0004
 -14116799.93649 -10737272.98849  21672407.8864   21672414.8354   21672408.7644
       232.0004        181.0004
 -12399476.87749  -9357731.38449  22421138.2974   22421144.4174   22421138.4534
       228.0004        175.0004
 11 10  9 12 14 30.0000000  0  9G06G18G21G31G05G16G03G30G29
  -9538619.80949  -7412177.74449  22158862.8164   22158866.7584   22158863.0984
       228.0004        172.0004
   -424623.82849    -98016.93149  24451337.1194
       205.0004        128.0004
 -19368894.29749 -14825899.37749  21056532.8214   21056535.0494   21056531.9184
       239.0004        199.0004
  -7589266.34849  -5879645.38449  23372836.1344   23372843.3824   23372837.7734
       211.0004        155.0004
    768792.53149    604781.95249  24534789.8954   24534795.5574   24534790.3874
       207.0004        139.0004
 -13638597.28249 -10127502.81049  21771853.7424   21771857.2554   21771853.4484
       232.0004        181.0004
  -6009251.67049  -4665056.22949  22899990.5334   22899995.9644   22899989.7254
       214.0004        152.0004
 -14024950.15849 -10665701.78049  21689888.0114   21689892.8774   21689887.2264
       234.0004        180.0004
 -12317411.59949  -9293784.48449  22436755.6034   22436760.5424   22436755.5554
       230.0004        177.0004
 11 10  9 12 15  0.0000000  0  9G06G18G21G31G05G16G03G30G29
  -9613082.77249  -7470200.76749  22144692.2344   22144696.4844   22144691.4594
       228.0004        174.0004
   -514938.34549   -168390.99449  24434149.9634
       205.0004        112.0004
 -19387981.56949 -14840772.56449  21052899.4564   21052902.9264   21052899.5764
       238.0004        199.0004
  -7489860.10249  -5802186.07849  23391754.8274   23391760.1794   23391754.8584
       215.0004        157.0004
    820815.16649    645319.00949  24544689.4524   24544695.3024   24544689.7464
       206.0004        140.0004
 -13710121.52049 -10183235.95649  21758243.0874   21758245.6944   21758241.8824
       234.0004        179.0004
  -6109479.67149  -4743155.87449  22880917.2274   22880920.5374   22880917.2094
       217.0004        151.0004
 -13932742.50549 -10593851.72349  21707434.5934   21707439.6264   21707433.7374
       233.0004        182.0004
 -12235174.13349  -9229703.41449  22452405.7334   22452410.3404   22452405.6904
       231.0004        179.0004
 11 10  9 12 15 30.0000000  0  8G06G21G31G05G16G03G30G29
  -9687315.89849  -7528044.70149  22130565.6784   22130571.8224   22130565.7554
       226.0004        172.0004
 -19406603.27549 -14855282.94949  21049357.0124   21049359.2404   21049356.1594
       239.0004        199.0004
  -7390247.82549  -5724566.24949  23410710.5314   23410717.7034   23410711.8064
       217.0004        160.0004
    873343.18749    686249.93349  24554685.6604   24554691.0914   24554685.8634
       205.0004        139.0004
 -13781313.16149 -10238709.93749  21744695.7384   21744698.7124   21744695.5704
       234.0004        181.0004
  -6209549.26849  -4821132.13749  22861874.0304   22861878.9904   22861872.9674
       214.0004        153.0004
 -13840179.55749 -10521724.82349  21725047.2644   21725053.1474   21725048.0004
       231.0004        180.0004
 -12152766.06449  -9165489.39649  22468087.7654   22468092.3804   22468087.9304
       232.0004        178.0004
 11 10  9 12 16  0.0000000  0  8G06G21G31G05G16G03G30G29
  -9761317.51449  -7585708.23549  22116484.0794   22116489.0244   22116485.0684
       228.0004        174.0004
 -19424758.22449 -14869429.64349  21045900.4644   21045904.7244   21045900.8804
       238.0004        199.0004
  -7290431.04849  -5646787.08549  23429704.6244   23429710.7594   23429703.8994
       214.0004        158.0004
    926375.99149    727574.15149  24564777.4224   24564781.7364   24564777.1074
       203.0004        138.0004
 -13852168.68649 -10293921.99949  21731213.2894   21731215.8334   21731212.0474
       234.0004        182.0004
  -6309458.22549  -4898983.21549  22842862.0754   22842867.9724   22842862.5714
       213.0004        153.0004
 -13747262.07849 -10449321.65449  21742729.7954   21742735.5654   21742729.0264
       232.0004        179.0004
 -12070187.60149  -9101142.57449  22483801.5914   22483806.4974   22483801.0194
       231.0004        176.0004
 11 10  9 12 16 30.0000000  0  8G06G21G31G05G16G03G30G29
  -9835087.30449  -7643191.14449  22102445.7214   22102450.5284   22102446.0054
       225.0004        173.0004
 -19442446.95649 -14883213.04949  21042535.5314   21042538.5804   21042535.0634
       239.0004        199.0004
  -7190413.62149  -5568851.56749  23448736.5444   23448743.1284   23448737.6964
       216.0004        157.0004
    979911.15349    769289.89149  24574965.6254   24574970.4304   24574965.2104
       207.0004        139.0004
 -13922686.85249 -10348871.18549  21717793.2634   21717796.9034   21717792.7464
       234.0004        183.0004
  -6409205.84549  -4976708.49449  22823880.5604   22823887.3304   22823880.8884
       216.0004        156.0004
 -13653992.53649 -10376644.15849  21760478.6304   21760483.5594   21760478.5354
       233.0004        180.0004
 -11987440.28949  -9036664.20549  22499547.3394   22499553.0834   22499548.5704
       227.0004        175.0004
 11 10  9 12 17  0.0000000  0  9G06G18G21G31G05G16G03G30G29
  -9908624.61349  -7700492.89549  22088451.4644   22088457.9654   22088452.1254
       227.0004        174.0004
   -875256.98649   -232144.66149  24365584.6244   24365592.9344
       207.0004        130.0004
 -19459669.63549 -14896633.29849  21039258.1094   21039261.1924   21039258.0074
       238.0004        199.0004
  -7090198.15449  -5490761.68849  23467808.9564   23467814.4054   23467808.3434
       219.0004        158.0004
   1033946.71849    811395.54549  24585247.0854   24585254.0464   24585246.8454
       209.0004        140.0004
 -13992865.78049 -10403556.03549  21704437.1674   21704441.8564   21704437.9394
       232.0004        182.0004
  -6508790.65949  -5054306.97349  22804929.9534   22804935.0324   22804931.6384
       216.0004        154.0004
 -13560373.05149 -10303693.98049  21778295.2074   21778298.8754   21778293.5904
       233.0004        179.0004
 -11904525.32749  -8972055.19749  22515325.7054   22515330.4494   22515326.3274
       228.0004        175.0004
 11 10  9 12 17 30.0000000  0  9G06G18G21G31G05G16G03G30G29
  -9981927.80049  -7757612.20849  22074503.7844   22074508.5594   22074502.9374
       228.0004        173.0004
   -965087.43049   -302142.19449  24348488.6994   24348498.1884   24348490.9934
       210.0004        134.0004
 -19476425.31849 -14909689.66049  21036069.6524   21036072.3924   21036069.2604
       238.0004        199.0004
  -6989787.06649  -5412519.43349  23486915.5014   23486922.8814   23486915.7344
       219.0004        161.0004
   1088481.96649    853890.55349  24595625.6624   24595628.6994   24595625.6374
       206.0004        138.0004
 -14062702.57349 -10457974.27949  21691148.7104   21691151.9094   21691148.7774
       234.0004        183.0004
  -6608211.06349  -5131777.35949  22786009.7034   22786015.1174   22786010.1504
       213.0004        152.0004
 -13466404.76249 -10230472.00949  21796174.4434   21796180.6294   21796175.1674
       232.0004        180.0004
 -11821442.92949  -8907315.71749  22531134.9604   22531140.1454   22531135.2034
       226.0004        173.0004
 11 10  9 12 18  0.0000000  0  9G06G18G21G31G05G16G03G30G29
 -10054997.38349  -7814549.49549  22060598.9114   22060602.8914   22060598.2454
       229.0004        175.0004
  -1054813.73249   -372058.57749  24331415.3444   24331422.7424   24331415.9894
       213.0004        135.0004
 -19492715.26349 -14922383.10649  21032969.9334   21032972.3814   21032969.4784
       239.0004        199.0004
  -6889184.59349  -5334128.03049  23506058.8384   23506065.8244   23506060.1374
       218.0004        159.0004
   1143513.19049    896772.03049  24606097.8444   24606103.2564   24606098.4634
       207.0004        138.0004
 -14132196.83649 -10512125.63149  21677925.1344   21677927.7984   21677924.6334
       234.0004        183.0004
  -6707466.57449  -5209119.20549  22767124.7334   22767130.0164   22767122.8774
       218.0004        157.0004
 -13372090.83049 -10156980.70949  21814123.4614   21814128.1934   21814122.6724
       233.0004        177.0004
 -11738195.28049  -8842447.46949  22546977.5274   22546982.2344   22546977.6034
       228.0004        173.0004
 11 10  9 12 18 30.0000000  0  9G06G18G21G31G05G16G03G30G29
 -10127831.20249  -7871303.07549  22046738.3544   22046743.2534   22046738.9874
       227.0004        173.0004
  -1144432.05649   -441890.77449  24314362.1584   24314369.6824   24314360.3054
       212.0004        135.0004
 -19508538.09549 -14934712.57149  21029959.5694   21029961.5804   21029958.7934
       240.0004        200.0004
  -6788391.91349  -5255588.40049  23525241.7174   23525246.6494   23525240.7224
       221.0004        159.0004
   1199040.49849    940040.04449  24616662.0274   24616670.1914   24616662.9734
       202.0004        135.0004
 -14201344.64549 -10566006.99849  21664766.0394   21664769.1764   21664765.3404
       233.0004        183.0004
  -6806554.81749  -5286330.75249  22748267.9744   22748272.9804   22748267.0314
       219.0004        156.0004
 -13277431.93249 -10083220.59449  21832136.6214   21832141.0964   21832135.6324
       232.0004        177.0004
 -11654782.43749  -8777450.49949  22562851.4164   22562855.8344   22562850.5004
       228.0004        172.0004
 11 10  9 12 19  0.0000000  0  9G06G18G21G31G05G16G03G30G29
 -10200429.59649  -7927873.19949  22032923.2494   22032928.4574   22032924.0464
       228.0004        175.0004
  -1233940.77349   -511637.59649  24297327.3454   24297336.2054   24297327.6664
       210.0004        137.0004
 -19523895.08049 -14946679.04049  21027036.0884   21027039.6144   21027036.1414
       239.0004        200.0004
  -6687413.19649  -5176903.78749  23544457.6324   23544461.8564   23544457.3224
       220.0004        158.0004
   1255060.61249    983692.01849  24627323.2624   24627328.9234   24627323.7164
       206.0004        135.0004
 -14270145.25949 -10619617.82249  21651673.5514   21651677.6904   21651673.9714
       235.0004        185.0004
  -6905475.96349  -5363412.08649  22729444.6804   22729447.0854   22729443.6784
       221.0004        154.0004
 -13182431.29449 -10009194.20449  21850214.2864   21850220.0214   21850213.6674
       230.0004        176.0004
 -11571206.49349  -8712326.44449  22578753.6624   22578758.0124   22578754.5174
       224.0004        170.0004
 11 10  9 12 19 30.0000000  0  9G06G18G21G31G05G16G03G30G29
 -10272791.46549  -7984259.01949  22019153.0604   22019158.9994   22019153.0324
       228.0004        175.0004
  -1323336.94549   -581296.75449  24280315.6044   24280323.1634   24280314.5934
       213.0004        138.0004
 -19538785.62749 -14958282.04849  21024203.4944   21024205.8384   21024202.5984
       240.0004        200.0004
  -6586251.05649  -5098076.29949  23563707.1014   23563714.0664   23563707.9744
       221.0004        163.0004
   1311571.98749   1027726.85749  24638077.1334   24638084.3604   24638077.6884
       201.0004        134.0004
 -14338596.62249 -10672956.51049  21638648.3294   21638650.8654   21638647.9534
       234.0004        184.0004
  -7004228.28449  -5440361.86949  22710651.8314   22710657.4954   22710651.7004
       219.0004        155.0004
 -13087090.32649  -9934902.61849  21868356.3324   21868362.3544   21868356.4464
       230.0004        175.0004
 -11487468.11249  -8647075.82149  22594689.2464   22594693.8964   22594689.8654
       226.0004        173.0004
 11 10  9 12 20  0.0000000  0  9G06G18G21G31G05G16G03G30G29
 -10344915.84049  -8040459.79749  22005429.3864   22005433.7104   22005428.8124
       229.0004        176.0004
  -1412617.62349   -650865.89649  24263325.6444   24263332.9484   24263325.5294
       205.0004        136.0004
 -19553209.77849 -14969521.62649  21021458.3144   21021460.6674   21021457.8744
       239.0004        200.0004
  -6484908.04949  -5019107.86049  23582990.4424   23582998.3454   23582990.9674
       218.0004        157.0004
   1368572.98049   1072143.20149  24648923.4034   24648929.4454   24648924.4604
       197.0004        134.0004
 -14406696.43149 -10726021.26149  21625688.4204   21625691.7764   21625688.0284
       233.0004        183.0004
  -7102810.18549  -5517178.85649  22691890.6514   22691897.1614   22691890.6284
       218.0004        155.0004
 -12991410.89149  -9860347.27049  21886563.2934   21886569.2644   21886563.4204
       229.0004        176.0004
 -11403568.30249  -8581699.40049  22610655.9094   22610658.9284   22610655.7104
       226.0004        173.0004
 11 10  9 12 20 30.0000000  0  9G06G18G21G31G05G16G03G30G29
 -10416801.69649  -8096474.70949  21991748.8644   21991753.7664   21991747.9464
       227.0004        176.0004
  -1501779.65649   -720342.54949  24246359.8114   24246367.2804   24246358.9644
       209.0004        135.0004
 -19567167.72549 -14980397.94149  21018801.7574   21018804.4784   21018801.9514
       239.0004        199.0004
  -6383386.77549  -4940000.50249  23602309.2714   23602316.1824   23602310.6624
       214.0004        154.0004
   1426062.08349   1116939.89349  24659863.9624   24659868.6844   24659865.4524
       201.0004        135.0004
 -14474442.12149 -10778810.07549  21612797.5974   21612800.1674   21612796.6804
       233.0004        184.0004
  -7201219.84249  -5593861.63349  22673166.4344   22673169.0084   22673163.6014
       217.0004        154.0004
 -12895394.68749  -9785529.53549  21904835.9204   21904841.2934   21904834.2414
       230.0004        176.0004
 -11319507.71749  -8516197.71149  22626649.7804   22626655.4474   22626650.6784
       225.0004        171.0004
 11 10  9 12 21  0.0000000  0  9G06G18G21G31G05G16G03G30G29
 -10488448.57149  -8152303.40949  21978115.4094   21978119.4894   21978115.3124
       229.0004        176.0004
  -1590821.14549   -789725.26849  24229415.0954   24229421.3624   24229413.6834
       207.0004        134.0004
 -19580659.48549 -14990910.98649  21016235.1024   21016237.0314   21016233.9004
       239.0004        199.0004
  -6281690.79949  -4860757.01849  23621663.0424   23621670.1994   23621664.4884
       218.0004        160.0004
   1484036.83049   1162115.02149  24670895.7224   24670902.7244   24670896.0564
       198.0004        134.0004
 -14541832.35349 -10831321.89749  21599974.4104   21599976.9254   21599973.1454
       235.0004        185.0004
  -7299456.71149  -5670409.78849  22654471.7284   22654476.3714   22654470.7974
       217.0004        155.0004
 -12799044.15849  -9710451.27849  21923169.3874   21923175.5524   21923168.9664
       228.0004        175.0004
 -11235287.77749  -8450571.85249  22642677.9374   22642682.4904   22642677.5944
       226.0004        171.0004
 11 10  9 12 21 30.0000000  0  9G06G18G21G31G05G16G03G30G29
 -10559855.22249  -8207944.89549  21964527.0854   21964532.3574   21964527.3524
       229.0004        177.0004
  -1679739.01849   -859011.70849  24212494.1424   24212500.2034   24212494.1104
       207.0004        134.0004
 -19593684.30649 -15001060.18749  21013755.4874   21013758.8704   21013755.7984
       239.0004        200.0004
  -6179822.37749  -4781379.18449  23641049.7064   23641053.3974   23641048.6674
       217.0004        156.0004
   1542495.75549   1207667.38949  24682021.2054   24682026.4934   24682020.4004
       201.0004        133.0004
 -14608864.50749 -10883554.71349  21587216.9784   21587221.0924   21587217.2054
       233.0004        186.0004
  -7397519.27149  -5746822.10549  22635810.6364   22635816.1074   22635809.4544
       216.0004        156.0004
 -12702360.80249  -9635113.66749  21941567.8294   21941575.0904   21941567.7324
       229.0004        176.0004
 -11150908.92949  -8384822.18249  22658734.9634   22658739.1594   22658734.9454
       227.0004        173.0004
 11 10  9 12 22  0.0000000  0  9G06G18G21G31G05G16G03G30G29
 -10631021.24249  -8263398.90949  21950984.5164   21950989.6234   21950985.2764
       229.0004        178.0004
  -1768530.55649   -928199.69249  24195597.7794   24195605.1174   24195596.8884
       207.0004        135.0004
 -19606242.99349 -15010846.15649  21011366.3604   21011369.2214   21011366.0364
       240.0004        199.0004
  -6077784.52749  -4701869.29349  23660462.9924   23660470.8604   23660463.6214
       209.0004        153.0004
   1601436.61449   1253595.29049  24693237.1824   24693242.0084   24693237.5274
       201.0004        132.0004
 -14675536.92649 -10935507.21849  21574529.8674   21574533.2224   21574529.1154
       233.0004        184.0004
  -7495406.16049  -5823097.52149  22617182.4884   22617188.3394   22617182.9164
       218.0004        157.0004
 -12605346.96149  -9559518.54349  21960031.0034   21960035.6134   21960029.8684
       231.0004        177.0004
 -11066372.73649  -8318949.88549  22674820.8674   22674826.2754   22674822.1214
       227.0004        172.0004
 11 10  9 12 22 30.0000000  0  9G06G18G21G31G05G16G03G30G29
 -10701945.71449  -8318664.67849  21937488.3234   21937493.3134   21937487.5594
       230.0004        178.0004
  -1857193.34449   -997287.36349  24178725.1814   24178732.0724   24178725.6104
       209.0004        135.0004
 -19618335.64549 -15020268.99449  21009064.5984   21009067.5734   21009064.5054
       238.0004        199.0004
  -5975580.33749  -4622229.83049  23679914.4814   23679920.7854   23679915.0734
       218.0004        156.0004
   1660857.71649   1299897.39949  24704544.3794   24704550.0374   24704545.6984
       196.0004        132.0004
 -14741847.70249 -10987177.91449  21561911.4684   21561914.8344   21561911.3494
       235.0004        185.0004
  -7593116.32549  -5899235.24049  22598588.8234   22598595.3644   22598588.4364
       218.0004        157.0004
 -12508004.61449  -9483667.44149  21978553.8144   21978557.5744   21978552.5754
       230.0004        174.0004
 -10981680.43549  -8252955.94749  22690937.8164   22690942.5864   22690938.6844
       228.0004        172.0004
 11 10  9 12 23  0.0000000  0  9G06G18G21G31G05G16G03G30G29
 -10772627.43749  -8373741.31849  21924037.8734   21924042.3574   21924038.1674
       229.0004        177.0004
  -1945723.91849  -1066271.99849  24161878.7334   24161885.8424   24161877.4334
       206.0004        137.0004
 -19629961.87049 -15029328.36649  21006852.9454   21006855.5244   21006852.0324
       239.0004        200.0004
  -5873212.14849  -4542462.52949  23699393.1554   23699402.1294   23699393.8394
       210.0004        156.0004
   1720757.25049   1346572.29649  24715943.9984   24715950.4284   24715945.0814
       197.0004        130.0004
 -14807794.19049 -11038564.76749  21549362.9564   21549366.1384   21549362.6064
       236.0004        187.0004
  -7690647.43749  -5975233.45049  22580028.4754   22580034.7584   22580028.4264
       217.0004        154.0004
 -12410335.21649  -9407561.48549  21997139.8844   21997145.2104   21997139.0434
       231.0004        176.0004
 -10896832.29049  -8186840.58049  22707084.5104   22707087.9544   22707083.9804
       225.0004        171.0004
 11 10  9 12 23 30.0000000  0  9G06G18G21G31G05G16G03G30G29
 -10843066.77449  -8428629.06749  21910633.7494   21910638.9964   21910634.2984
       229.0004        178.0004
  -2034121.02549  -1135152.65849  24145056.2594   24145064.2894   24145056.3154
       204.0004        137.0004
 -19641123.26749 -15038025.55049  21004727.9074   21004731.5074   21004728.4294
       238.0004        199.0004
  -5770683.89149  -4462570.56449  23718903.7684   23718911.0444   23718904.6754
       210.0004        151.0004
   1781131.97749   1393617.52149  24727430.7954   24727439.8614   24727431.5944
       193.0004        130.0004
 -14873375.60049 -11089667.13149  21536881.5824   21536886.2414   21536881.4964
       234.0004        185.0004
  -7788000.00549  -6051092.51749  22561504.5034   22561509.7664   22561503.1404
       219.0004        159.0004
 -12312342.03749  -9331203.24549  22015787.3244   22015792.0894   22015787.6864
       231.0004        175.0004
 -10811830.63749  -8120605.59049  22723257.9574   22723264.3204   22723258.9054
       225.0004        171.0004
 11 10  9 12 24  0.0000000  0  9G06G18G21G31G05G16G03G30G29
 -10913262.04349  -8483326.62149  21897276.2034   21897280.7454   21897275.2664
       229.0004        178.0004
  -2122381.04949  -1203926.49749  24128261.8674   24128268.1374   24128261.7014
       210.0004        138.0004
 -19651818.45449 -15046359.43749  21002694.0774   21002695.8874   21002692.9304
       239.0004        200.0004
  -5667997.74649  -4382555.54549  23738445.0414   23738453.3614   23738446.8174
       218.0004        157.0004
   1841980.96649   1441032.30349  24739007.7874   24739016.3554   24739011.6944
       190.0004        127.0004
 -14938589.08149 -11140482.79749  21524471.7674   21524476.2744   21524471.7034
       235.0004        185.0004
  -7885171.63349  -6126810.59649  22543011.1054   22543018.9224   22543011.2764
       216.0004        159.0004
 -12214026.23149  -9254593.59549  22034495.9434   22034501.5144   22034495.9314
       230.0004        176.0004
 -10726675.39049  -8054250.91349  22739463.1544   22739468.3684   22739463.6784
       225.0004        170.0004
 11 10  9 12 24 30.0000000  0  9G06G18G21G31G05G16G03G30G29
 -10983212.52949  -8537833.45549  21883964.1774   21883969.3414   21883964.6144
       230.0004        179.0004
  -2210501.51349  -1272591.59249  24111492.7124   24111500.4664   24111490.8174
       210.0004        139.0004
 -19662047.68649 -15054330.25849  21000746.4684   21000749.8004   21000746.8494
       240.0004        200.0004
  -5565156.63049  -4302419.76049  23758015.1664   23758022.0064   23758016.1354
       212.0004        150.0004
   1903302.13149   1488815.02149  24750680.8874   24750687.9734   24750681.5594
       199.0004        132.0004
 -15003432.67249 -11191010.26849  21512133.0474   21512136.5734   21512132.8134
       235.0004        186.0004
  -7982160.99749  -6202386.65149  22524555.5814   22524561.9854   22524555.1964
       218.0004        158.0004
 -12115389.76849  -9177734.09349  22053265.9004   22053272.2834   22053265.4394
       231.0004        175.0004
 -10641367.76849  -7987777.51249  22755698.1764   22755702.1594   22755698.2794
       225.0004        170.0004
 11 10  9 12 25  0.0000000  0  9G06G18G21G31G05G16G03G30G29
 -11052917.50849  -8592148.97349  21870699.8314   21870704.8534   21870699.4804
       230.0004        178.0004
  -2298479.65949  -1341145.78449  24094752.1124   24094756.5704   24094752.6944
       213.0004        138.0004
 -19671811.43949 -15061938.35449  20998889.1424   20998891.1904   20998888.3234
       239.0004        200.0004
  -5462163.51349  -4222165.56249  23777612.5314   23777622.2004   23777613.2504
       209.0004        154.0004
   1965093.41049   1536964.04449  24762439.1554   24762447.5644   24762441.5204
       199.0004        134.0004
 -15067904.22349 -11241247.82549  21499865.0664   21499868.5594   21499864.5124
       235.0004        187.0004
  -8078967.06949  -6277819.90049  22506134.0194   22506140.5594   22506133.0744
       218.0004        157.0004
 -12016434.90449  -9100626.49049  22072095.7124   22072102.2774   22072095.4004
       229.0004        174.0004
 -10555908.82249  -7921186.20149  22771958.2464   22771964.4994   22771959.1914
       224.0004        167.0004
 11 10  9 12 25 30.0000000  0  9G06G18G21G31G05G16G03G30G29
 -11122375.86149  -8646272.33349  21857483.5964   21857487.6104   21857482.7334
       231.0004        179.0004
  -2386312.13249  -1409586.50449  24078036.4364   24078043.1974   24078035.0444
       208.0004        139.0004
 -19681109.71149 -15069183.74849  20997119.0504   20997122.1934   20997119.0394
       239.0004        200.0004
  -5359020.89349  -4141794.84549  23797242.2754   23797248.2044   23797244.1164
       216.0004        151.0004
   2027353.11649   1585478.06849  24774285.0524   24774290.6774   24774286.2434
       194.0004        129.0004
 -15132001.76349 -11291193.93349  21487666.8584   21487671.6544   21487667.3314
       236.0004        188.0004
  -8175588.25749  -6353109.08649  22487747.2634   22487754.9124   22487747.9934
       218.0004        161.0004
 -11917163.28449  -9023272.06049  22090986.8804   22090992.8014   22090987.3744
       229.0004        172.0004
 -10470299.40349  -7854477.64249  22788250.1634   22788256.4344   22788250.2614
       223.0004        167.0004
 11 10  9 12 26  0.0000000  0  9G06G18G21G31G05G16G03G30G29
 -11191587.23849  -8700203.23349  21844312.0454   21844317.1804   21844312.0124
       231.0004        179.0004
  -2473997.30549  -1477912.40949  24061350.2034   24061357.7584   24061350.4594
       210.0004        139.0004
 -19689942.92249 -15076066.75049  20995439.1364   20995441.1994   20995438.2364
       240.0004        200.0004
  -5255731.93349  -4061310.08649  23816895.5524   23816905.3024   23816896.5294
       208.0004        150.0004
   2090078.55649   1634354.97049  24786223.0054   24786223.3204   24786220.6964
       198.0004        126.0004
 -15195723.43549 -11340847.16649  21475542.1284   21475544.6914   21475541.6094
       236.0004        187.0004
  -8272023.50049  -6428253.33749  22469397.6304   22469403.9474   22469397.3504
       221.0004        161.0004
 -11817577.32149  -8945672.68249  22109939.2934   22109943.6434   22109938.4024
       233.0004        173.0004
 -10384540.69349  -7787652.75649  22804570.7224   22804575.7304   22804570.2124
       223.0004        168.0004
 11 10  9 12 26 30.0000000  0  9G06G18G21G31G05G16G03G30G29
 -11260551.06249  -8753941.23149  21831188.7034   21831193.5994   21831188.6684
       231.0004        178.0004
  -2561532.39349  -1546121.39349  24044693.2204   24044700.1974   24044693.1854
       209.0004        140.0004
 -19698311.48249 -15082587.69649  20993846.1554   20993848.3894   20993846.0574
       240.0004        200.0004
  -5152299.89349  -3980713.85549  23836580.8894   23836587.8714   23836579.2784
       214.0004        151.0004
   2153267.67449   1683593.19549  24798247.1854   24798252.7454   24798247.8994
       198.0004        129.0004
 -15259067.51649 -11390206.16949  21463488.0374   21463490.9944   21463487.9954
       237.0004        188.0004
  -8368271.73449  -6503251.89849  22451082.1574   22451088.1274   22451081.0024
       223.0004        162.0004
 -11717679.33749  -8867830.17249  22128947.9794   22128952.7224   22128947.1874
       229.0004        171.0004
 -10298634.14349  -7720712.65949  22820917.1564   22820922.9794   22820917.8624
       223.0004        167.0004
 11 10  9 12 27  0.0000000  0  9G06G18G21G31G05G16G03G30G29
 -11329266.09349  -8807485.36749  21818112.2334   21818117.0204   21818112.4524
       231.0004        179.0004
  -2648914.73549  -1614211.34349  24028064.3164   24028070.2124   24028063.8084
       209.0004        137.0004
 -19706215.43949 -15088746.60349  20992341.8954   20992344.4394   20992341.6274
       239.0004        200.0004
  -5048727.16449  -3900008.01849  23856290.9384   23856298.1114   23856290.7874
       219.0004        158.0004
   2216918.63949   1733191.30749  24810359.2314   24810364.7204   24810358.8184
       199.0004        131.0004
 -15322031.71549 -11439269.16349  21451506.4664   21451509.2484   21451505.6124
       237.0004        188.0004
  -8464331.22649  -6578103.38149  22432802.8244   22432808.7824   22432801.7824
       223.0004        161.0004
 -11617471.09949  -8789745.89949  22148015.6524   22148022.0864   22148015.7924
       227.0004        171.0004
 -10212580.36449  -7653657.81249  22837293.0194   22837297.7754   22837293.6564
       224.0004        167.0004
 11 10  9 12 27 30.0000000  0  9G06G18G21G31G05G16G03G30G29
 -11397731.47849  -8860834.98149  21805084.0774   21805088.2904   21805084.2004
       232.0004        180.0004
  -2736140.91449  -1682179.55649  24011467.8244   24011472.1694   24011465.8534
       213.0004        138.0004
 -19713654.90749 -15094543.57449  20990926.1134   20990928.7824   20990926.3414
       239.0004        200.0004
  -4945016.73049  -3819194.84549  23876025.4074   23876029.3354   23876025.0634
       215.0004        147.0004
   2281029.70049   1783147.96149  24822559.8674   24822563.9324   24822562.8194
       200.0004        132.0004
 -15384613.73749 -11488034.33849  21439596.2994   21439601.1074   21439596.4964
       237.0004        188.0004
  -8560200.41749  -6652806.57749  22414558.0484   22414564.9374   22414558.3724
       220.0004        161.0004
 -11516954.34349  -8711421.23249  22167144.2514   22167150.4404   22167143.7164
       228.0004        170.0004
 -10126379.93649  -7586488.72849  22853696.4764   22853701.9234   22853696.3594
       221.0004        166.0004
 11 10  9 12 28  0.0000000  0  9G06G18G21G31G05G16G03G30G29
 -11465945.81549  -8913988.97349  21792103.5424   21792108.1264   21792103.6314
       231.0004        180.0004
  -2823207.86449  -1750023.71049  23994897.6414   23994904.3694   23994897.3184
       211.0004        142.0004
 -19720629.24949 -15099978.11349  20989599.3834   20989601.8544   20989598.8244
       239.0004        200.0004
  -4841170.82149  -3738276.08749  23895786.5514   23895793.3364   23895787.5114
       216.0004        155.0004
   2345598.91849   1833461.66949  24834845.9264   24834853.1484   24834846.6094
       198.0004        132.0004
 -15446811.42849 -11536500.04949  21427761.8524   21427765.1114   21427761.4584
       237.0004        190.0004
  -8655877.67249  -6727360.22849  22396350.4484   22396358.7244   22396350.9214
       220.0004        164.0004
 -11416130.69049  -8632857.42449  22186332.2404   22186336.0024   22186329.0394
       228.0004        169.0004
 -10040033.64949  -7519205.97849  22870126.9804   22870132.7954   22870128.2264
       221.0004        167.0004
 11 10  9 12 28 30.0000000  0  9G06G18G21G31G05G16G03G30G29
 -11533909.16749  -8966947.38749  21779169.4214   21779174.7034   21779169.9084
       230.0004        180.0004
  -2910113.76049  -1817742.37949  23978357.1794   23978367.0184   23978359.4884
       212.0004        141.0004
 -19727139.58049 -15105051.07949  20988359.9024   20988362.5644   20988359.7254
       239.0004        200.0004
  -4737193.05849  -3657254.61949  23915571.2104   23915580.3234   23915573.0344
       217.0004        156.0004
   2410623.63449   1884130.33349  24847218.1314   24847226.6944   24847218.6874
       200.0004        130.0004
 -15508623.39549 -11584665.19649  21415999.0784   21416001.3504   21415998.8854
       237.0004        189.0004
  -8751362.29249  -6801763.76449  22378182.5094   22378186.8874   22378181.9124
       223.0004        163.0004
 -11315002.97549  -8554056.69549  22205574.4634   22205580.7704   22205574.7634
       226.0004        170.0004
  -9953542.88649  -7451810.65849  22886587.1464   22886592.2964   22886586.5534
       222.0004        167.0004
 11 10  9 12 29  0.0000000  0  9G06G18G21G31G05G16G03G30G29
 -11601621.05149  -9019709.87449  21766285.5764   21766289.6594   21766284.9454
       232.0004        181.0004
  -2996856.48549  -1885333.87849  23961853.4574   23961858.5794   23961852.8084
       215.0004        143.0004
 -19733186.86249 -15109763.23449  20987209.4974   20987212.0414   20987209.2504
       240.0004        200.0004
  -4633086.55149  -3576132.84749  23935382.6744   23935392.7024   23935383.6454
       211.0004        153.0004
   2476101.19149   1935151.79249  24859681.1414   24859686.1724   24859681.2344
       201.0004        132.0004
 -15570047.80649 -11632528.34749  21404309.3734   21404313.1384   21404309.1324
       236.0004        187.0004
  -8846653.59749  -6876016.64949  22360047.6224   22360053.8244   22360047.0354
       220.0004        159.0004
 -11213573.67249  -8475020.96749  22224875.9464   22224881.9974   22224876.0774
       227.0004        170.0004
  -9866909.67449  -7384304.36049  22903071.2034   22903077.1434   22903072.2254
       222.0004        169.0004
 11 10  9 12 29 30.0000000  0  9G06G18G21G31G05G16G03G30G29
 -11669080.23949  -9072275.43449  21753448.3464   21753452.9464   21753448.4224
       231.0004        181.0004
  -3083432.67349  -1952795.61749  23945377.6974   23945383.4374   23945377.8304
       215.0004        143.0004
 -19738770.50049 -15114114.10049  20986147.3104   20986149.5294   20986146.5994
       243.0004        200.0004
  -4528853.61649  -3494912.54449  23955218.1014   23955226.0484   23955219.2144
       217.0004        151.0004
   2542029.64349   1986524.61249  24872227.3294   24872232.6394   24872227.4054
       199.0004        130.0004
 -15631082.25549 -11680087.63249  21392695.7914   21392698.7224   21392695.7484
       237.0004        189.0004
  -8941749.34549  -6950117.18849  22341951.7464   22341958.3334   22341952.5524
       223.0004        163.0004
 -11111844.33149  -8395751.42749  22244236.3514   22244240.4814   22244234.6294
       228.0004        170.0004
  -9780134.26849  -7316687.22949  22919584.6874   22919589.5364   22919584.7794
       222.0004        167.0004
 11 10  9 12 30  0.0000000  0  9G06G18G21G31G05G16G03G30G29
 -11736285.55849  -9124643.19449  21740658.8304   21740663.5214   21740659.2484
       232.0004        181.0004
  -3169839.47549  -2020125.33249  23928934.3424   23928941.4814   23928934.3634
       215.0004        142.0004
 -19743890.76849 -15118103.90849  20985171.7944   20985175.1024   20985172.2354
       241.0004        199.0004
  -4424497.04549  -3413595.86349  23975079.3624   23975084.8514   23975078.8264
       220.0004        155.0004
   2608407.66749   2038247.78449  24884858.0414   24884863.5184   24884856.2994
       197.0004        127.0004
 -15691724.51449 -11727341.31649  21381156.6454   21381159.6574   21381155.8674
       237.0004        189.0004
  -9036648.08549  -7024064.19749  22323894.3964   22323898.8264   22323892.6234
       222.0004        165.0004
 -11009816.73849  -8316249.50949  22263649.8584   22263655.2174   22263649.4324
       226.0004        169.0004
  -9693216.80349  -7248959.40749  22936124.0594   22936130.2804   22936124.4344
       224.0004        167.0004
 11 10  9 12 30 30.0000000  0  9G06G18G21G31G05G16G03G30G29
 -11803236.23949  -9176812.51949  21727918.2394   21727923.6784   21727918.9674
       231.0004        182.0004
  -3256074.07249  -2087320.90549  23912524.0544   23912531.4094   23912523.4934
       214.0004        141.0004
 -19748547.89549 -15121732.82049  20984286.3544   20984288.5984   20984285.7434
       242.0004        200.0004
  -4320019.75649  -3332185.20049  23994957.3044   23994966.2984   23994959.1894
       211.0004        154.0004
   2675232.95949   2090319.48649  24897575.1694   24897578.3894   24897572.8234
       199.0004        126.0004
 -15751972.72849 -11774287.94449  21369690.3324   21369692.8164   21369690.7784
       235.0004        188.0004
  -9131348.89749  -7097856.95349  22305872.8624   22305877.4924   22305871.4524
       223.0004        162.0004
 -10907492.98349  -8236516.77749  22283120.8704   22283126.9064   22283120.5784
       226.0004        169.0004
  -9606158.66249  -7181121.96149  22952691.0074   22952696.2184   22952691.7154
       222.0004        166.0004
 11 10  9 12 31  0.0000000  0  9G06G18G21G31G05G16G03G30G29
 -11869932.34549  -9228783.48349  21715227.5004   21715231.3784   21715227.0724
       233.0004        182.0004
  -3342134.94649  -2154381.11549  23896147.0674   23896152.3264   23896145.6154
       214.0004        140.0004
 -19752742.90449 -15125001.65149  20983487.9864   20983490.4184   20983487.8834
       242.0004        200.0004
  -4215425.34949  -3250683.25149  24014862.0964   24014869.4544   24014862.2404
       213.0004        150.0004
   2742502.40049   2142737.26349  24910375.5504   24910380.6544   24910374.8014
       203.0004        127.0004
 -15811825.70349 -11820926.61249  21358301.3394   21358303.7534   21358301.3264
       236.0004        188.0004
  -9225850.66549  -7171494.63849  22287889.3424   22287893.7894   22287888.3104
       223.0004        162.0004
 -10804876.03549  -8156555.62149  22302649.2684   22302654.2764   22302647.5304
       227.0004        169.0004
  -9518961.63549  -7113176.30649  22969284.7544   22969289.3954   22969285.8244
       224.0004        167.0004
 11 10  9 12 31 30.0000000  0  9G06G18G21G31G05G16G03G30G29
 -11936371.83849  -9280554.49249  21702584.6544   21702588.6904   21702584.1154
       232.0004        183.0004
  -3428017.82749  -2221302.61949  23879804.4294   23879810.9124   23879803.8494
       215.0004        143.0004
 -19756475.20049 -15127909.91949  20982778.0074   20982779.9694   20982777.0914
       242.0004        200.0004
  -4110715.47149  -3169091.28449  24034788.1024   24034794.9794   24034789.9194
       212.0004        147.0004
   2810215.00249   2195500.26249  24923261.8774   24923265.9724   24923257.2284
       200.0004        127.0004
 -15871280.22349 -11867254.78149  21346987.9094   21346990.8374   21346987.5404
       237.0004        190.0004
  -9320151.06249  -7244975.41549  22269943.9634   22269948.9594   22269944.0024
       222.0004        162.0004
 -10701966.76049  -8076366.66649  22322232.2064   22322237.3494   22322231.3594
       227.0004        166.0004
  -9431625.40149  -7045122.17749  22985904.8794   22985910.2714   22985905.1774
       225.0004        168.0004
 11 10  9 12 32  0.0000000  0  9G06G18G21G31G05G16G03G30G29
 -12002554.79849  -9332125.59749  21689989.0014   21689994.9664   21689989.7494
       231.0004        182.0004
  -3513721.17349  -2288084.25149  23863495.1624   23863501.5134   23863495.7414
       213.0004        144.0004
 -19759745.82149 -15130458.45449  20982154.7324   20982157.8814   20982155.4284
       241.0004        200.0004
  -4005893.70749  -3087412.12349  24054734.6014   24054743.3424   24054735.7964
       208.0004        151.0004
   2878367.86849   2248606.33049  24936227.7974   24936232.7124   24936229.7284
       191.0004        128.0004
 -15930335.17149 -11913271.60949  21335749.9454   21335752.9834   21335749.9574
       237.0004        190.0004
  -9414249.69049  -7318298.94749  22252038.6824   22252044.3414   22252038.4134
       222.0004        165.0004
 -10598768.16649  -7995952.24949  22341870.5354   22341875.7664   22341869.2844
       229.0004        168.0004
  -9344151.95949  -6976961.10949  23002550.2864   23002553.8124   23002550.9124
       224.0004        167.0004
 11 10  9 12 32 30.0000000  0  9G06G18G21G31G05G16G03G30G29
 -12068480.79949  -9383496.48249  21677444.8074   21677449.0784   21677444.0874
       232.0004        183.0004
  -3599242.50949  -2354724.03449  23847220.7554   23847228.1324   23847220.5434
       213.0004        141.0004
 -19762555.26749 -15132647.61349  20981621.4014   20981623.3254   20981620.5734
       242.0004        200.0004
  -3900963.49349  -3005648.62449  24074700.9494   24074711.4584   24074703.0004
       208.0004        152.0004
   2946958.12849   2302053.27949  24949279.1214   24949288.5974   24949282.8484
       193.0004        128.0004
 -15988988.98949 -11958975.85449  21324587.7704   21324591.3484   21324587.1524
       235.0004        189.0004
  -9508145.36049  -7391464.33049  22234171.1404   22234175.5654   22234170.7114
       224.0004        164.0004
 -10495282.62149  -7915314.25249  22361563.0344   22361569.6804   22361563.2164
       228.0004        168.0004
  -9256542.49649  -6908694.09249  23019221.0494   23019226.5054   23019221.7734
       222.0004        167.0004
 11 10  9 12 33  0.0000000  0  9G06G18G21G31G05G16G03G30G29
 -12134147.56449  -9434665.35949  21664948.5304   21664952.6684   21664948.3144
       232.0004        183.0004
  -3684577.72949  -2421218.79149  23830983.0044   23830988.9514   23830980.8154
       216.0004        142.0004
 -19764902.89049 -15134476.92249  20981173.6814   20981176.6894   20981173.4134
       241.0004        200.0004
  -3795926.33449  -2923801.65649  24094692.7784   24094697.6594   24094691.4824
       214.0004        146.0004
   3015984.97849   2355840.46849  24962417.4734   24962422.9324   24962419.0134
       195.0004        130.0004
 -16047238.43149 -12004365.00749  21313504.0394   21313506.2444   21313503.5934
       237.0004        190.0004
  -9601835.75149  -7464469.75949  22216342.4134   22216345.9684   22216341.3784
       222.0004        163.0004
 -10391510.78149  -7834453.15649  22381308.9514   22381316.5094   22381308.6704
       226.0004        167.0004
  -9168796.43349  -6840320.62949  23035919.5484   23035924.3344   23035920.2514
       224.0004        167.0004
 11 10  9 12 33 30.0000000  0  9G06G18G21G31G05G16G03G30G29
 -12199555.83949  -9485632.81749  21652501.6694   21652506.5674   21652501.3514
       231.0004        183.0004
  -3769725.60749  -2487567.63649  23814778.3974   23814785.1314   23814779.2724
       211.0004        142.0004
 -19766790.13449 -15135947.49949  20980814.7974   20980817.3534   20980814.4784
       241.0004        200.0004
  -3690786.03549  -2841874.29549  24114695.8234   24114706.4364   24114696.8524
       201.0004        141.0004
   3085445.01549   2409965.15849  24975635.1844   24975641.8144   24975635.8604
       199.0004        130.0004
 -16105082.52449 -12049438.32449  21302497.4884   21302499.3614   21302496.0764
       237.0004        190.0004
  -9695320.54049  -7537315.01049  22198551.7354   22198555.5464   22198551.6654
       222.0004        163.0004
 -10287456.19949  -7753371.75949  22401110.8474   22401118.0074   22401110.6614
       227.0004        169.0004
  -9080916.21749  -6771842.59149  23052643.0424   23052646.7414   23052642.1634
       225.0004        167.0004
 11 10  9 12 34  0.0000000  0  9G06G18G21G31G05G16G03G30G29
 -12264704.31849  -9536397.83649  21640105.0364   21640109.2454   21640104.1834
       233.0004        184.0004
  -3854683.28549  -2553768.20849  23798613.0474   23798620.7484   23798610.7954
       215.0004        141.0004
 -19768216.98649 -15137059.32749  20980543.0524   20980545.8034   20980543.1554
       242.0004        200.0004
  -3585545.31249  -2759868.78649  24134724.7034   24134733.5984   24134726.4314
       209.0004        149.0004
   3155336.42549   2464425.95249  24988935.1114   24988939.5614   24988935.5794
       203.0004        129.0004
 -16162519.14849 -12094194.10349  21291565.5734   21291569.8534   21291565.6314
       235.0004        190.0004
  -9788597.87349  -7609998.56049  22180801.6184   22180807.0974   22180801.9774
       223.0004        165.0004
 -10183120.53549  -7672071.33549  22420967.2104   22420971.5424   22420965.3824
       229.0004        166.0004
  -8992902.48249  -6703260.52149  23069390.2934   23069395.4174   23069389.8414
       225.0004        165.0004
 11 10  9 12 34 30.0000000  0  9G06G18G21G31G05G16G03G30G29
 -12329591.57249  -9586959.30349  21627756.6894   21627761.3774   21627756.8574
       231.0004        184.0004
  -3939447.16949  -2619817.82449  23782480.6894   23782487.9814   23782480.7524
       212.0004        144.0004
 -19769183.43949 -15137812.39349  20980359.5214   20980362.0274   20980359.0994
       241.0004        200.0004
  -3480206.58749  -2677786.88349  24154772.1634   24154778.4974   24154771.4024
       211.0004        150.0004
   3225657.41049   2519221.47949  25002317.5994   25002321.9354   25002317.1434
       201.0004        129.0004
 -16219545.83349 -12138630.46249  21280714.5974   21280718.1504   21280714.5634
       239.0004        191.0004
  -9881666.03849  -7682519.14549  22163090.7924   22163095.9974   22163091.3644
       223.0004        165.0004
 -10078505.42649  -7590553.15349  22440874.4914   22440879.0994   22440872.9314
       229.0004        167.0004
  -8904755.61249  -6634574.71649  23086165.2884   23086169.9484   23086164.8554
       222.0004        164.0004
 11 10  9 12 35  0.0000000  0  9G06G18G21G31G05G16G03G30G29
 -12394216.98049  -9637316.73349  21615460.1734   21615463.4514   21615459.5424
       234.0004        184.0004
  -4024014.95449  -2685714.60849  23766390.4994   23766395.0844   23766388.6964
       215.0004        142.0004
 -19769689.98949 -15138207.09849  20980262.6834   20980265.4064   20980262.9184
       242.0004        200.0004
  -3374772.39649  -2595630.60949  24174833.4124   24174839.6974   24174833.2674
       197.0004        135.0004
   3296405.36849   2574349.78349  25015779.5544   25015783.6144   25015780.4194
       197.0004        129.0004
 -16276160.63249 -12182745.87249  21269940.7584   21269943.8954   21269941.1194
       238.0004        190.0004
  -9974523.85849  -7754875.82049  22145420.4624   22145425.5994   22145420.8534
       222.0004        163.0004
  -9973613.09449  -7508818.95049  22460833.7774   22460839.4734   22460833.2694
       227.0004        167.0004
  -8816476.48349  -6565785.86849  23102963.6024   23102969.3714   23102963.4834
       222.0004        164.0004
 11 10  9 12 35 30.0000000  0  9G06G18G21G31G05G16G03G30G29
 -12458580.37249  -9687469.99749  21603211.0614   21603215.5864   21603211.0924
       233.0004        185.0004
  -4108384.30949  -2751456.81749  23750334.2704   23750338.7024   23750333.8004
       215.0004        142.0004
 -19769737.59449 -15138244.18549  20980254.1404   20980257.2114   20980253.0204
       242.0004        200.0004
  -3269246.38149  -2513402.72449  24194916.2274   24194922.6104   24194918.3374
       213.0004        149.0004
   3367577.57549   2629808.65349  25029321.5624   25029327.7794   25029320.9274
       197.0004        131.0004
 -16332362.45949 -12226539.48849  21259246.8714   21259249.3234   21259245.8634
       239.0004        192.0004
 -10067170.33949  -7827067.83349  22127790.7784   22127794.6834   22127790.1604
       223.0004        163.0004
  -9868446.24149  -7426870.84249  22480845.0504   22480851.6484   22480845.5284
       225.0004        165.0004
  -8728066.57549  -6496895.11149  23119786.9564   23119793.5944   23119788.2274
       223.0004        166.0004
 11 10  9 12 36  0.0000000  0  9G06G18G21G31G05G16G03G30G29
 -12522680.69349  -9737418.27549  21591012.5554   21591017.6364   21591013.2624
       232.0004        184.0004
  -4192552.43849  -2817042.23949  23734315.8574   23734323.8954   23734316.7504
       211.0004        141.0004
 -19769326.76049 -15137924.05149  20980331.7074   20980334.5274   20980331.8574
       242.0004        200.0004
  -3163631.42249  -2431105.57649  24215014.4424   24215022.9954   24215014.5474
       211.0004        153.0004
   3439171.82349   2685596.38149  25042945.2644   25042951.9064   25042944.8474
       194.0004        130.0004
 -16388149.12549 -12270009.59249  21248629.5974   21248633.8884   21248629.6124
       238.0004        192.0004
 -10159604.26949  -7899094.20649  22110201.7994   22110206.1404   22110200.5924
       224.0004        165.0004
  -9763006.85949  -7344710.36249  22500910.8564   22500917.0274   22500909.3344
       224.0004        166.0004
  -8639526.95549  -6427903.29449  23136635.5684   23136641.5564   23136635.8534
       223.0004        165.0004
 11 10  9 12 36 30.0000000  0  9G06G18G21G31G05G16G03G30G29
 -12586516.89149  -9787160.72449  21578866.2194   21578870.5374   21578866.0464
       235.0004        186.0004
  -4276516.97549  -2882468.98449  23718339.1224   23718344.9704   23718340.2474
       215.0004        141.0004
 -19768457.83549 -15137246.96049  20980497.6164   20980500.3404   20980497.1194
       241.0004        200.0004
  -3057930.06049  -2348741.22849  24235128.1434   24235135.7104   24235128.2664
       206.0004        142.0004
   3511186.18049   2741711.49149  25056651.0484   25056656.1064   25056650.2094
       197.0004        129.0004
 -16443518.35149 -12313154.41349  21238093.7184   21238097.3574   21238093.8054
       239.0004        193.0004
 -10251824.04949  -7970953.70349  22092651.9304   22092656.0644   22092652.5614
       223.0004        166.0004
  -9657296.83749  -7262338.98549  22521026.9664   22521031.9504   22521026.9924
       224.0004        166.0004
  -8550858.20749  -6358810.86049  23153509.1894   23153515.1524   23153509.0674
       220.0004        162.0004
 11 10  9 12 37  0.0000000  0  9G06G18G21G31G05G16G03G30G29
 -12650088.35049  -9836696.89549  21566768.1444   21566773.1404   21566768.0934
       234.0004        185.0004
  -4360274.78249  -2947734.62249  23702401.2274   23702406.3134   23702400.7194
       213.0004        142.0004
 -19767130.95049 -15136213.02149  20980749.5994   20980752.5064   20980749.5874
       242.0004        200.0004
  -2952145.04849  -2266311.51449  24255259.8504   24255265.2744   24255260.2564
       217.0004        145.0004
   3583618.19549   2798152.06949  25070431.9674   25070439.7444   25070435.5434
       197.0004        128.0004
 -16498468.33849 -12355972.57849  21227636.7574   21227640.1984   21227636.8284
       238.0004        192.0004
 -10343827.89349  -8042644.95849  22075144.8064   22075148.5214   22075144.3524
       223.0004        163.0004
  -9551318.25349  -7179758.37849  22541193.5634   22541200.9604   22541194.1764
       223.0004        164.0004
  -8462061.24649  -6289618.50249  23170406.4314   23170412.5124   23170405.7304
       220.0004        160.0004
 11 10  9 12 37 30.0000000  0  9G06G18G21G31G05G16G03G30G29
 -12713394.38149  -9886026.24249  21554722.6734   21554725.8684   21554722.3094
       236.0004        186.0004
  -4443823.39949  -3012837.28249  23686500.3864   23686507.6954   23686500.0084
       210.0004        139.0004
 -19765346.90049 -15134822.84649  20981089.5374   20981091.9234   20981089.0314
       242.0004        200.0004
  -2846279.46849  -2183819.01049  24275402.1624   24275414.3984   24275403.6394
       207.0004        148.0004
   3656465.62249   2854916.31449  25084296.5694   25084301.2164   25084296.4904
       199.0004        131.0004
 -16552997.29949 -12398462.64849  21217260.0404   21217263.1044   21217260.0084
       237.0004        191.0004
 -10435614.43749  -8114166.89449  22057679.0004   22057681.7284   22057678.5414
       225.0004        164.0004
  -9445073.34049  -7096970.21049  22561411.0884   22561418.3544   22561411.5704
       223.0004        165.0004
  -8373137.22749  -6220327.13749  23187329.1494   23187334.0094   23187329.0174
       222.0004        161.0004
 11 10  9 12 38  0.0000000  0  9G06G18G21G31G05G16G03G30G29
 -12776433.72649  -9935147.78049  21542725.3434   21542730.0714   21542724.9684
       234.0004        186.0004
  -4527159.86949  -3077774.66549  23670643.4944   23670649.2924   23670643.3254
       213.0004        143.0004
 -19763105.76849 -15133076.49549  20981515.8454   20981518.3324   20981515.6784
       241.0004        200.0004
  -2740335.48649  -2101265.64449  24295563.7244   24295574.0374   24295565.0394
       206.0004        148.0004
   3729726.22649   2912002.48849  25098238.3094   25098243.7994   25098238.0824
       198.0004        130.0004
 -16607102.82249 -12440622.77949  21206965.7084   21206967.8974   21206964.7764
       240.0004        193.0004
 -10527182.60449  -8185518.65149  22040253.4284   22040258.2864   22040253.0964
       224.0004        167.0004
  -9338564.01749  -7013976.03349  22581679.2794   22581686.2114   22581679.2724
       222.0004        165.0004
  -8284086.51649  -6150937.08149  23204275.2354   23204279.6124   23204275.3274
       220.0004        163.0004
 11 10  9 12 38 30.0000000  0  9G06G18G21G31G05G16G03G30G29
 -12839206.38949  -9984061.52349  21530779.4944   21530784.7514   21530780.2154
       234.0004        186.0004
  -4610282.41249  -3142545.28549  23654825.0654   23654833.5254   23654825.1314
       214.0004        144.0004
 -19760408.87849 -15130975.02049  20982028.9334   20982031.8404   20982028.8354
       242.0004        200.0004
  -2634316.84449  -2018653.94749  24315741.3084   24315746.8404   24315741.0244
       219.0004        151.0004
   3803396.82949   2969408.17049  25112254.3364   25112262.6234   25112254.4124
       196.0004        129.0004
 -16660783.80649 -12482452.09749  21196750.1734   21196753.1894   21196749.4534
       239.0004        193.0004
 -10618531.28449  -8256699.38549  22022870.8204   22022874.6044   22022870.3134
       225.0004        165.0004
  -9231793.27849  -6930778.13149  22601999.1214   22602002.6804   22601997.0404
       225.0004        163.0004
  -8194910.93549  -6081449.68749  23221242.7714   23221249.6154   23221245.0014
       219.0004        163.0004
 11 10  9 12 39  0.0000000  0  9G06G18G21G31G05G16G03G30G29
 -12901710.99649 -10032766.37649  21518885.8014   21518891.3514   21518886.0734
       233.0004        187.0004
  -4693187.42449  -3207146.48749  23639048.9374   23639053.9004   23639048.2164
       214.0004        145.0004
 -19757256.18349 -15128518.36049  20982629.2694   20982631.9874   20982629.1864
       242.0004        200.0004
  -2528226.08849  -1935985.98149  24335928.8584   24335935.6444   24335930.2694
       211.0004        144.0004
   3877475.76649   3027132.03349  25126352.0994   25126357.7514   25126353.5224
       200.0004        131.0004
 -16714037.99749 -12523948.84449  21186614.8564   21186619.0194   21186615.2584
       237.0004        193.0004
 -10709658.60549  -8327707.61349  22005529.4344   22005533.7474   22005528.5024
       225.0004        166.0004
  -9124762.56449  -6847377.65449  22622365.1304   22622371.9954   22622364.8914
       225.0004        162.0004
  -8105610.63049  -6011865.14949  23238237.9704   23238243.5374   23238238.9904
       219.0004        162.0004
 11 10  9 12 39 30.0000000  0  9G06G18G21G31G05G16G03G30G29
 -12963946.26549 -10081261.36549  21507042.7944   21507047.5684   21507042.9394
       235.0004        186.0004
  -4775872.01049  -3271575.86349  23623314.3104   23623319.4084   23623313.1764
       213.0004        145.0004
 -19753647.32349 -15125706.25449  20983315.1304   20983318.3774   20983315.2044
       241.0004        200.0004
  -2422065.14449  -1853263.51249  24356129.5474   24356140.9624   24356131.0564
       210.0004        149.0004
   3951961.31149   3085172.76149  25140527.8674   25140531.8844   25140530.7684
       201.0004        130.0004
 -16766862.74749 -12565110.96749  21176562.4424   21176565.9344   21176562.9614
       238.0004        192.0004
 -10800562.71049  -8398541.94149  21988230.5474   21988234.4854   21988230.1764
       224.0004        167.0004
  -9017473.55749  -6763775.93349  22642781.7684   22642787.1064   22642780.4244
       223.0004        162.0004
  -8016186.26549  -5942183.92249  23255254.2664   23255259.0334   23255254.8134
       217.0004        159.0004
 11 10  9 12 40  0.0000000  0  9G06G18G21G31G05G16G03G30G29
 -13025912.60849 -10129546.80449  21495251.1704   21495255.8504   21495251.4784
       235.0004        187.0004
  -4858334.86649  -3335832.49249  23607622.7354   23607629.2994   23607621.5374
       214.0004        147.0004
 -19749584.50849 -15122540.42049  20984089.9804   20984091.6684   20984089.0064
       243.0004        200.0004
  -2315838.23949  -1770489.59249  24376345.1884   24376353.2524   24376346.3254
       215.0004        153.0004
   4026849.49649   3143527.22249  25154777.6074   25154785.4344   25154778.1014
       195.0004        128.0004
 -16819257.37649 -12605937.93849  21166594.0394   21166596.1354   21166593.3684
       240.0004        194.0004
 -10891243.64249  -8469202.37049  21970973.0764   21970979.8814   21970973.5064
       223.0004        167.0004
  -8909929.70949  -6679975.63849  22663246.7974   22663251.9164   22663246.6794
       224.0004        161.0004
  -7926639.91649  -5872407.63649  23272292.9014   23272301.6134   23272293.4704
       214.0004        154.0004
 11 10  9 12 40 30.0000000  0  9G06G18G21G31G05G16G03G30G29
 -13087608.55749 -10177621.54049  21483511.0194   21483515.3684   21483511.0954
       236.0004        187.0004
  -4940572.78349  -3399913.82249  23591973.1894   23591978.8084   23591971.5294
       217.0004        146.0004
 -19745067.47149 -15119020.63849  20984947.5064   20984950.8944   20984947.6624
       241.0004        199.0004
  -2209547.62749  -1687665.95749  24396570.7714   24396580.4944   24396570.9334
       209.0004        143.0004
   4102138.92649   3202194.30249  25169105.9784   25169110.9744   25169103.3564
       199.0004        125.0004
 -16871219.55749 -12646427.92149  21156704.9604   21156708.4654   21156704.3204
       238.0004        194.0004
 -10981699.24349  -8539687.18749  21953761.2034   21953765.8974   21953761.1304
       224.0004        168.0004
  -8802132.42849  -6595977.84049  22683760.1104   22683765.6824   22683760.4834
       225.0004        163.0004
  -7836971.78949  -5802536.44949  23289358.1114   23289362.7364   23289358.9094
       215.0004        153.0004
 11 10  9 12 41  0.0000000  0  9G06G18G21G31G05G16G03G30G29
 -13149033.21549 -10225484.88549  21471822.5274   21471826.7834   21471822.6154
       235.0004        187.0004
  -5022582.81549  -3463817.58749  23576366.0824   23576372.3854   23576365.0024
       214.0004        146.0004
 -19740096.53849 -15115147.17249  20985895.1634   20985896.9174   20985894.6444
       243.0004        200.0004
  -2103195.79549  -1604794.70849  24416810.3644   24416818.2624   24416810.4444
       212.0004        146.0004
   4177827.31849   3261172.23849  25183506.3134   25183510.8244   25183508.5784
       196.0004        125.0004
 -16922747.52349 -12686579.55549  21146898.6894   21146902.3094   21146899.1354
       238.0004        193.0004
 -11071928.30549  -8609995.49049  21936592.7354   21936596.1324   21936591.7834
       227.0004        169.0004
  -8694083.74749  -6511784.14449  22704321.2024   22704326.0854   22704320.0324
       225.0004        162.0004
  -7747182.59849  -5732570.94049  23306443.9554   23306450.5364   23306444.0594
       214.0004        152.0004
 11 10  9 12 41 30.0000000  0  9G06G18G21G31G05G16G03G30G29
 -13210185.82649 -10273136.23949  21460185.3904   21460190.3004   21460185.2354
       235.0004        188.0004
  -5104362.44449  -3527541.84249  23560802.8094   23560810.3004   23560804.4114
       216.0004        146.0004
 -19734672.56649 -15110920.68849  20986926.0514   20986928.7014   20986925.9274
       238.0004        199.0004
  -1996785.76549  -1521878.07949  24437060.3204   24437068.9244   24437060.8934
       215.0004        149.0004
   4253912.01649   3320459.02749  25197987.0144   25197989.5434   25197985.6144
       198.0004        130.0004
 -16973838.90249 -12726391.00449  21137178.1254   21137180.2464   21137177.1764
       240.0004        193.0004
 -11161929.01649  -8680125.87649  21919465.1214   21919469.3874   21919464.3474
       225.0004        169.0004
  -8585785.93449  -6427396.34949  22724929.7684   22724935.4854   22724929.9384
       223.0004        160.0004
  -7657273.52349  -5662512.00449  23323552.9124   23323559.2774   23323554.1234
       215.0004        150.0004
 11 10  9 12 42  0.0000000  0  9G06G18G21G31G05G16G03G30G29
 -13271065.75149 -10320575.10649  21448599.9534   21448604.4594   21448599.6274
       234.0004        188.0004
  -5185909.11249  -3591084.52049  23545286.9964   23545292.8134   23545286.9214
       216.0004        148.0004
 -19728796.32549 -15106341.78649  20988044.9664   20988046.4694   20988044.5704
       240.0004        200.0004
  -1890320.25849  -1438918.24149  24457319.3264   24457325.7374   24457318.7274
       208.0004        142.0004
   4330390.53649   3380052.63249  25212540.9504   25212543.3134   25212543.1974
       201.0004        130.0004
 -17024492.18649 -12765861.06649  21127537.4784   21127540.9794   21127537.7584
       237.0004        193.0004
 -11251700.29349  -8750077.47249  21902381.5694   21902386.6854   21902382.3124
       225.0004        168.0004
  -8477241.25049  -6342816.16749  22745583.9694   22745591.5644   22745584.9994
       222.0004        160.0004
  -7567245.21849  -5592360.14949  23340685.4474   23340692.3904   23340684.8234
       217.0004        151.0004
 11 10  9 12 42 30.0000000  0  9G06G18G21G31G05G16G03G30G29
 -13331672.26449 -10367800.93249  21437066.3254   21437070.9874   21437066.5134
       234.0004        187.0004
  -5267220.17649  -3654443.64649  23529814.3994   23529817.4064   23529812.1264
       218.0004        148.0004
 -19722468.53649 -15101411.02949  20989249.0464   20989251.4574   20989248.6734
       239.0004        200.0004
  -1783802.27249  -1355917.48449  24477588.8314   24477595.7384   24477590.2184
       207.0004        137.0004
   4407260.32349   3439951.14149  25227168.2324   25227173.2424   25227169.3654
       202.0004        132.0004
 -17074705.59449 -12804988.38249  21117982.2774   21117985.9844   21117981.9774
       238.0004        194.0004
 -11341240.73849  -8819849.20549  21885342.8014   21885347.2454   21885343.4694
       226.0004        171.0004
  -8368452.04649  -6258045.44249  22766287.7134   22766291.6044   22766286.9914
       223.0004        159.0004
  -7477098.62149  -5522116.13149  23357840.1934   23357845.4104   23357839.3204
       215.0004        149.0004
 11 10  9 12 43  0.0000000  0  9G06G18G21G31G05G16G03G30G29
 -13392004.54049 -10414813.07449  21425585.7044   21425591.0304   21425586.0284
       235.0004        188.0004
  -5348292.79249  -3717616.98449  23514385.8204   23514391.7134   23514385.3204
       217.0004        149.0004
 -19715689.55749 -15096128.70249  20990538.5764   20990540.9874   20990538.7124
       239.0004        200.0004
  -1677234.55549  -1272877.99449  24497870.6394   24497878.3604   24497867.9264
       210.0004        145.0004
   4484519.13449   3500152.80249  25241869.6354   25241877.3274   25241870.6324
       200.0004        134.0004
 -17124477.11549 -12843771.36749  21108511.8144   21108515.0954   21108511.1314
       239.0004        194.0004
 -11430548.83549  -8889439.87649  21868347.7194   21868353.6564   21868347.7024
       226.0004        171.0004
  -8259420.19349  -6173085.65249  22787036.0974   22787040.7934   22787033.8144
       223.0004        162.0004
  -7386834.88049  -5451780.78449  23375016.4534   23375022.8424   23375016.3904
       213.0004        149.0004
 11 10  9 12 43 30.0000000  0  9G06G18G21G31G05G16G03G30G29
 -13452061.51649 -10461610.68649  21414157.7434   21414162.3974   21414157.8724
       235.0004        189.0004
  -5429124.46449  -3780602.53349  23499002.5314   23499007.5614   23499004.0924
       217.0004        149.0004
 -19708460.19649 -15090495.42749  20991913.9484   20991917.0674   20991913.8734
       238.0004        199.0004
  -1570619.77449  -1189801.89049  24518156.4204   24518164.7444   24518157.4024
       207.0004        140.0004
   4562164.81049   3560655.89249  25256644.8124   25256653.3614   25256644.5864
       200.0004        132.0004
 -17173805.29149 -12882208.89949  21099124.9154   21099127.2884   21099124.5534
       238.0004        194.0004
 -11519623.10349  -8958848.35349  21851397.2534   21851401.0664   21851397.5014
       228.0004        171.0004
  -8150147.89549  -6087938.50149  22807829.4454   22807833.9934   22807828.5674
       223.0004        161.0004
  -7296454.52349  -5381354.64549  23392216.7154   23392220.9134   23392216.0924
       214.0004        147.0004
 11 10  9 12 44  0.0000000  0  9G06G18G21G31G05G16G03G30G29
 -13511842.68349 -10508193.39149  21402781.7124   21402786.0614   21402781.5674
       236.0004        188.0004
  -5509713.11949  -3843398.77149  23483670.4834   23483674.2894   23483668.2374
       220.0004        151.0004
 -19700780.71749 -15084511.41249  20993375.9854   20993378.0424   20993375.8004
       239.0004        200.0004
  -1463960.81449  -1106691.37149  24538456.4814   24538464.5094   24538455.7104
       210.0004        138.0004
   4640194.46149   3621458.23049  25271492.7154   25271496.8524   25271491.2124
       199.0004        130.0004
 -17222688.12249 -12920299.39349  21089821.9934   21089825.4254   21089821.7854
       237.0004        193.0004
 -11608462.31149  -9028073.67749  21834491.6444   21834496.9684   21834492.8294
       227.0004        171.0004
  -8040637.67449  -6002605.95549  22828668.1984   22828674.5624   22828667.5254
       223.0004        161.0004
  -7205958.84849  -5310838.61849  23409436.7294   23409440.8434   23409435.4264
       209.0004        143.0004
 11 10  9 12 44 30.0000000  0  9G06G18G21G31G05G16G03G30G29
 -13571346.76749 -10554560.17749  21391458.0754   21391462.5774   21391458.1284
       236.0004        188.0004
  -5590055.26449  -3906002.91749  23468378.7924   23468385.3014   23468379.2174
       216.0004        152.0004
 -19692652.24249 -15078177.52349  20994923.1724   20994925.2334   20994922.2684
       239.0004        200.0004
  -1357260.14749  -1023548.22549  24558755.2254   24558766.7324   24558756.1544
       194.0004        135.0004
   4718606.25849   3682558.34049  25286416.5154   25286419.4414   25286415.4094
       202.0004        133.0004
 -17271123.15449 -12958040.96549  21080606.0374   21080609.2374   21080606.1544
       239.0004        195.0004
 -11697064.77349  -9097114.50249  21817631.9554   21817636.4054   21817630.9074
       228.0004        172.0004
  -7930891.19149  -5917089.30449  22849550.6924   22849558.3014   22849551.2454
       220.0004        160.0004
  -7115348.39049  -5240233.16449  23426679.0434   23426685.0574   23426678.5984
       211.0004        142.0004
 11 10  9 12 45  0.0000000  0  9G06G18G21G31G05G16G03G30G29
 -13630573.67849 -10600710.99149  21380187.5164   21380191.8184   21380187.9374
       236.0004        188.0004
  -5670148.81949  -3968413.36849  23453137.4334   23453142.7814   23453137.3424
       218.0004        150.0004
 -19684075.23749 -15071494.13949  20996554.4184   20996557.4564   20996554.4884
       239.0004        199.0004
  -1250521.23349   -940375.44449  24579067.4184   24579079.3874   24579070.3514
       198.0004        139.0004
   4797397.07049   3743953.80649  25301406.1484   25301415.6504   25301409.6584
       202.0004        132.0004
 -17319109.27749 -12995432.73349  21071474.3944   21071477.3644   21071474.6454
       239.0004        195.0004
 -11785429.63849  -9165970.18949  21800816.4434   21800821.7884   21800816.7614
       228.0004        172.0004
  -7820911.22649  -5831390.73049  22870478.8594   22870488.3074   22870480.2894
       219.0004        159.0004
  -7024624.62549  -5169539.38349  23443943.6194   23443948.1874   23443944.1564
       209.0004        143.0004
 11 10  9 12 45 30.0000000  0  9G06G18G21G31G05G16G03G30G29
 -13689521.94349 -10646644.68049  21368970.4154   21368974.2874   21368970.3264
       235.0004        189.0004
  -5749990.95849  -4030627.91349  23437946.7374   23437948.4844   23437944.0574
       221.0004        150.0004
 -19675050.00449 -15064461.47949  20998272.6194   20998274.7394   20998271.8644
       239.0004        200.0004
  -1143746.09649   -857174.41749  24599388.3844   24599398.4944   24599388.6434
       203.0004        143.0004
   4876564.68749   3805642.90049  25316472.0204   25316481.1054   25316472.1364
       198.0004        135.0004
 -17366644.30549 -13032472.99249  21062428.9444   21062431.6904   21062428.3964
       238.0004        195.0004
 -11873555.07749  -9234639.32149  21784045.9744   21784050.6174   21784046.3984
       226.0004        171.0004
  -7710699.27649  -5745511.39849  22891454.0814   22891459.7634   22891453.7044
       222.0004        160.0004
  -6933787.53949  -5098757.36649  23461229.4104   23461234.2014   23461229.4154
       205.0004        138.0004
 11 10  9 12 46  0.0000000  0  9G06G18G21G31G05G16G03G30G29
 -13748191.57549 -10692361.25049  21357806.1034   21357810.5654   21357806.1684
       236.0004        190.0004
  -5829579.92949  -4092645.18449  23422796.7614   23422804.1224   23422796.4814
       214.0004        150.0004
 -19665577.85149 -15057080.57749  21000074.7074   21000077.3304   21000074.4464
       239.0004        199.0004
  -1036938.27749   -773947.82849  24619713.1234   24619724.6264   24619713.8904
       196.0004        134.0004
   4956106.26149   3867623.35349  25331609.6854   25331616.6554   25331611.3424
       203.0004        137.0004
 -17413727.27149 -13069160.99949  21053469.1684   21053472.0694   21053468.7464
       239.0004        195.0004
 -11961440.15249  -9303121.16949  21767322.5644   21767327.1614   21767321.5664
       228.0004        171.0004
  -7600258.45249  -5659453.69049  22912471.3234   22912475.9614   22912469.5974
       224.0004        160.0004
  -6842838.75749  -5027888.32149  23478535.5984   23478543.1874   23478536.5984
       204.0004        138.0004
 11 10  9 12 46 30.0000000  0  9G06G18G21G31G05G16G03G30G29
 -13806581.00149 -10737859.47549  21346694.6754   21346699.5944   21346694.8854
       237.0004        190.0004
  -5908911.87649  -4154462.19149  23407702.5714   23407708.9044   23407702.0414
       217.0004        149.0004
 -19655658.99149 -15049351.58749  21001962.5184   21001964.5704   21001961.9084
       240.0004        200.0004
   -930099.82249   -690697.41849  24640043.8824   24640053.8864   24640042.3254
       202.0004        137.0004
   5036020.02149   3929893.86649  25346816.3334   25346822.0514   25346816.6984
       200.0004        137.0004
 -17460355.22049 -13105494.45249  21044596.0824   21044599.0424   21044595.7404
       238.0004        196.0004
 -12049082.40449  -9371413.80049  21750643.6114   21750649.4464   21750644.1814
       225.0004        173.0004
  -7489589.90849  -5573218.58249  22933529.4374   22933536.9454   22933527.5614
       219.0004        157.0004
  -6751778.52849  -4956932.41349  23495864.1264   23495865.1854   23495864.6674
       202.0004        132.0004
 11 10  9 12 47  0.0000000  0  9G06G18G21G31G05G16G03G30G29
 -13864689.46549 -10783138.77949  21335637.1524   21335641.9254   21335637.1454
       236.0004        190.0004
  -5987984.70249  -4216077.29649  23392655.7474   23392660.0374   23392653.9334
       215.0004        150.0004
 -19645294.14449 -15041275.07649  21003934.1584   21003937.0964   21003934.1454
       239.0004        200.0004
   -823233.70949   -607425.49149  24660380.5754   24660391.3564   24660381.1714
       209.0004        144.0004
   5116303.10749   3992452.17349  25362093.8854   25362099.2424   25362094.6694
       203.0004        134.0004
 -17506526.70549 -13141472.21449  21035809.5154   21035813.1224   21035809.6324
       238.0004        196.0004
 -12136480.93149  -9439516.50049  21734013.8344   21734019.1374   21734013.1934
       228.0004        173.0004
  -7378696.18149  -5486807.98749  22954629.7884   22954637.2794   22954630.5714
       219.0004        157.0004
  -6660607.56449  -4885890.20549  23513214.3784   23513223.0654   23513214.3474
       198.0004        130.0004
 11 10  9 12 47 30.0000000  0  9G06G18G21G31G05G16G03G30G29
 -13922516.91649 -10828199.10749  21324632.4124   21324636.9294   21324632.6404
       236.0004        189.0004
  -6066796.43349  -4277488.96149  23377657.7014   23377663.6664   23377656.8764
       218.0004        152.0004
 -19634484.89949 -15032852.27949  21005992.5744   21005994.2354   21005991.4954
       240.0004        200.0004
   -716343.43449   -524134.76049  24680722.5784   24680731.5504   24680723.2224
       204.0004        139.0004
   5196952.59749   4055296.01349  25377440.3924   25377445.8924   25377440.7134
       203.0004        133.0004
 -17552240.73349 -13177093.51849  21027110.5694   21027113.9444   21027110.4894
       238.0004        196.0004
 -12223635.20049  -9507428.85949  21717428.1354   21717433.6504   21717428.0264
       227.0004        173.0004
  -7267580.28949  -5400224.27149  22975776.3804   22975782.6854   22975776.1514
       223.0004        159.0004
  -6569327.92049  -4814763.36849  23530581.3644   23530588.5014   23530583.8984
       201.0004        129.0004
 11 10  9 12 48  0.0000000  0  9G06G18G21G31G05G16G03G30G29
 -13980062.21749 -10873039.57849  21313682.3144   21313687.2374   21313681.9994
       235.0004        190.0004
  -6145344.07549  -4338694.82049  23362709.6664   23362716.5254   23362711.7314
       216.0004        151.0004
 -19623231.29549 -15024083.23149  21008132.1684   21008135.3634   21008131.8854
       238.0004        199.0004
   -609431.18149   -440826.90049  24701065.8094   24701077.2294   24701068.4434
       205.0004        140.0004
   5277966.03749   4118423.39949  25392856.9154   25392863.0174   25392857.4824
       203.0004        133.0004
 -17597495.21249 -13212356.73449  21018498.4954   21018502.0794   21018498.8104
       238.0004        196.0004
 -12310543.32049  -9575149.44449  21700890.3134   21700895.2284   21700890.9684
       228.0004        173.0004
  -7156243.93949  -5313468.80149  22996963.5364   22996971.6584   22996962.4084
       220.0004        158.0004
  -6477939.88749  -4743551.99249  23547976.9254   23547977.5574   23547975.2124
       202.0004        130.0004
 11 10  9 12 48 30.0000000  0  9G06G18G21G31G05G16G03G30G29
 -14037324.18349 -10917659.26349  21302785.3904   21302790.6054   21302785.5394
       235.0004        189.0004
  -6223624.17449  -4399692.23349  23347815.2274   23347820.9464   23347814.7564
       217.0004        150.0004
 -19611533.52449 -15014968.07549  21010359.4884   21010361.5834   21010358.9184
       240.0004        199.0004
   -502499.08849   -357503.56849  24721417.7464   24721424.8984   24721416.5604
       212.0004        141.0004
   5359341.80549   4181833.10549  25408341.6514   25408347.8404   25408341.3244
       205.0004        136.0004
 -17642287.71449 -13247259.96349  21009975.1324   21009979.0624   21009974.9264
       239.0004        197.0004
 -12397203.06249  -9642676.47949  21684400.2194   21684403.9664   21684398.4934
       229.0004        173.0004
  -7044688.62249  -5226542.67749  23018190.0494   23018198.0654   23018190.8004
       217.0004        155.0004
  -6386443.69149  -4672256.39549  23565384.8934   23565391.8724   23565386.4154
       196.0004        128.0004
 11 10  9 12 49  0.0000000  0  9G06G18G21G31G05G16G03G30G29
 -14094301.73149 -10962057.33449  21291943.0264   21291947.7704   21291942.6984
       235.0004        190.0004
  -6301634.73549  -4460479.57449  23332970.1504   23332975.5844   23332968.8074
       219.0004        150.0004
 -19599392.30049 -15005507.37649  21012669.3934   21012671.8064   21012669.0084
       240.0004        199.0004
   -395550.34249   -274167.23849  24741766.3254   24741778.3544   24741767.9864
       205.0004        142.0004
   5441077.33349   4245523.15649  25423896.4984   25423902.1694   25423897.8554
       206.0004        137.0004
 -17686616.55349 -13281801.89849  21001539.9404   21001543.3164   21001539.8064
       238.0004        197.0004
 -12483613.10449  -9710008.92649  21667956.3594   21667961.0534   21667956.0274
       229.0004        174.0004
  -6932916.79349  -5139447.85649  23039461.4194   23039467.2924   23039461.3424
       221.0004        157.0004
  -6294840.47349  -4600877.37649  23582818.4164   23582827.3554   23582819.4054
       198.0004        127.0004
 11 10  9 12 49 30.0000000  0  9G06G18G21G31G05G16G03G30G29
 -14150995.27949 -11006234.09749  21281154.8244   21281158.9414   21281154.8234
       237.0004        190.0004
  -6379373.84049  -4521055.44849  23318176.0024   23318181.6554   23318175.6414
       215.0004        149.0004
 -19586809.90849 -14995702.90349  21015063.8784   21015066.3914   21015063.3044
       240.0004        200.0004
   -288588.41449   -190820.71249  24762120.8394   24762134.3464   24762121.2964
       202.0004        143.0004
   5523168.86849   4309490.60549  25439517.7704   25439521.3334   25439518.8154
       203.0004        134.0004
 -17730480.70049 -13315981.74049  20993192.6114   20993195.7474   20993192.7944
       238.0004        198.0004
 -12569772.84449  -9777146.33849  21651559.4774   21651564.5294   21651560.0204
       228.0004        174.0004
  -6820931.52049  -5052186.72549  23060771.6324   23060779.5254   23060770.7104
       220.0004        155.0004
  -6203131.41649  -4529415.90549  23600267.1504   23600271.3554   23600265.0374
       195.0004        124.0004
 11 10  9 12 50  0.0000000  0  9G06G18G21G31G05G16G03G30G29
 -14207403.10949 -11050188.22949  21270421.2564   21270425.3574   21270420.8204
       237.0004        189.0004
  -6456838.16949  -4581417.17249  23303434.5294   23303440.3664   23303433.9294
       218.0004        148.0004
 -19573786.06749 -14985554.45049  21017541.6464   21017544.9124   21017541.8384
       239.0004        199.0004
   -181615.05649   -107465.29549  24782478.3484   24782489.1904   24782478.9004
       206.0004        142.0004
   5605614.81949   4373734.23349  25455205.0294   25455215.1014   25455202.9844
       200.0004        131.0004
 -17773877.94749 -13349797.76149  20984933.9604   20984937.6394   20984934.0934
       242.0004        197.0004
 -12655680.41749  -9844087.26949  21635213.3224   21635217.8264   21635213.0714
       228.0004        174.0004
  -6708734.32749  -4964760.46549  23082120.0744   23082127.8464   23082120.4854
       216.0004        153.0004
  -6111317.13249  -4457872.39149  23617742.3784   23617746.6554   23617739.2304
       198.0004        124.0004
 11 10  9 12 50 30.0000000  0  9G06G18G21G31G05G16G03G30G29
 -14263524.66149 -11093919.27549  21259740.7544   21259745.2374   21259741.1294
       237.0004        189.0004
  -6534025.66949  -4641563.18949  23288748.4834   23288750.6554   23288746.2784
       221.0004        149.0004
 -19560321.52249 -14975062.58249  21020104.7064   21020106.2164   21020104.1044
       240.0004        199.0004
    -74633.53949    -24103.43749  24802838.1864   24802847.8794   24802838.8604
       209.0004        140.0004
   5688412.45149   4438251.86849  25470962.3744   25470965.5614   25470962.8424
       206.0004        131.0004
 -17816806.79949 -13383248.79449  20976765.8484   20976768.5524   20976765.2764
       242.0004        198.0004
 -12741334.32849  -9910830.51549  21618911.3554   21618918.0804   21618911.9704
       226.0004        174.0004
  -6596327.55249  -4877170.88349  23103511.5074   23103518.0814   23103512.2234
       218.0004        155.0004
  -6019398.49749  -4386247.59749  23635232.2704                   23635234.0224
       195.0004        122.0004
 11 10  9 12 51  0.0000000  0  9G06G18G21G31G05G16G03G30G29
 -14319358.88649 -11137426.42949  21249115.9294   21249120.4154   21249116.0664
       236.0004        190.0004
  -6610933.27049  -4701491.11049  23274111.1384   23274116.7904   23274111.1194
       217.0004        148.0004
 -19546416.77149 -14964227.69949  21022750.1484   21022752.9664   21022749.9834
       239.0004        199.0004
     32354.17649     59263.19249  24823196.1304   24823206.7214   24823196.3814
       199.0004        137.0004
   5771559.63749   4503041.91249  25486785.4994   25486790.1654   25486784.4454
       205.0004        134.0004
 -17859265.05549 -13416333.14049  20968685.9034   20968689.1234   20968686.0354
       242.0004        198.0004
 -12826733.15049  -9977375.02549  21602661.8374   21602666.9124   21602662.2234
       227.0004        176.0004
  -6483713.04449  -4789419.42749  23124941.1714   23124947.9894   23124941.0124
       218.0004        153.0004
  -5927375.95049  -4314541.81349  23652743.9284   23652744.1484   23652736.7904
       192.0004        119.0004
 11 10  9 12 51 30.0000000  0  9G06G18G21G31G05G16G03G30G29
 -14374905.37849 -11180709.38849  21238545.3694   21238550.1124   21238545.2844
       236.0004        190.0004
  -6687558.75049  -4761199.17549  23259530.4814   23259536.5284   23259529.9144
       218.0004        151.0004
 -19532073.36749 -14953051.01649  21025479.2864   21025482.5444   21025478.8664
       238.0004        199.0004
    139344.26449    142631.57349  24843555.2174   24843566.2104   24843556.6604
       202.0004        137.0004
   5855053.23049   4568101.87949  25502672.9694   25502677.0154   25502673.7114
       204.0004        133.0004
 -17901251.69049 -13449049.97949  20960696.7154   20960698.9374   20960696.3174
       243.0004        199.0004
 -12911876.19449 -10043720.20249  21586460.7294   21586464.8944   21586459.5644
       229.0004        176.0004
  -6370893.54749  -4701508.25449  23146411.5804   23146416.3384   23146409.9624
       219.0004        153.0004
  -5835250.95349  -4242756.13849  23670276.0914                   23670278.3694
       188.0004        120.0004
 11 10  9 12 52  0.0000000  0  9G06G18G21G31G05G16G03G30G29
 -14430163.03349 -11223767.27149  21228030.1114   21228035.3244   21228030.6884
       236.0004        191.0004
  -6763899.43749  -4820685.29649  23245002.8754   23245008.8314   23245002.6954
       219.0004        150.0004
 -19517291.82649 -14941532.92549  21028292.3684   21028294.9214   21028292.1284
       240.0004        199.0004
    246334.47449    226000.12349  24863918.2704   24863928.1274   24863918.6394
       207.0004        139.0004
   5938891.17849   4633430.16349  25518624.0984   25518632.9354   25518624.6434
       195.0004        130.0004
 -17942764.59349 -13481397.69149  20952796.8274   20952799.4254   20952796.1344
       241.0004        198.0004
 -12996761.07349 -10109864.23349  21570306.8994   21570311.8574   21570307.3514
       230.0004        176.0004
  -6257870.96349  -4613438.83449  23167919.3914   23167924.3404   23167918.6364
       219.0004        153.0004
  -5743023.98149  -4170891.06849  23687820.6274                   23687826.4394
       184.0004        121.0004
 11 10  9 12 52 30.0000000  0  9G06G18G21G31G05G16G03G30G29
 -14485132.25549 -11266600.39149  21217570.8574   21217574.8204   21217570.1344
       238.0004        192.0004
  -6839953.64949  -4879948.19549  23230531.1894   23230535.6164   23230529.3004
       220.0004        151.0004
 -19502073.82249 -14929674.72249  21031188.5174   21031191.1744   21031188.2134
       240.0004        199.0004
    353321.12349    309365.95549  24884272.9644   24884285.8824   24884275.3874
       191.0004        130.0004
   6023069.65349   4699023.80549  25534645.9534   25534653.5244   25534647.3144
       193.0004        128.0004
 -17983802.98949 -13513375.63749  20944986.5534   20944990.4374   20944986.5184
       241.0004        198.0004
 -13081387.58849 -10175806.92249  21554203.1904   21554208.1084   21554202.9674
       229.0004        177.0004
  -6144648.66549  -4525213.78149  23189464.0894   23189471.8854   23189464.4064
       219.0004        155.0004
  -5650696.79949  -4098947.90449  23705391.7074
       184.0004        119.0004
 11 10  9 12 53  0.0000000  0  9G06G18G21G31G05G16G03G30G29
 -14539810.27349 -11309206.61749  21207165.5784   21207169.8504   21207165.3924
       237.0004        191.0004
  -6915717.03549  -4938984.46849  23216112.8354   23216116.9064   23216112.4044
       220.0004        152.0004
 -19486418.34849 -14917475.64349  21034167.2024   21034170.3144   21034166.8564
       239.0004        199.0004
    460303.94949    392728.66849  24904634.0094   24904646.5124   24904635.6774
       200.0004        131.0004
   6107588.00649   4764882.28649  25550728.4564   25550737.5324   25550732.4644
       195.0004        126.0004
 -18024363.50649 -13544981.21549  20937267.7564   20937271.7194   20937267.9734
       240.0004        199.0004
 -13165752.15249 -10241545.50449  21538149.3494   21538154.2374   21538149.3104
       231.0004        178.0004
  -6031226.80849  -4436833.24849  23211047.5414   23211054.7884   23211046.6184
       219.0004        154.0004
  -5558268.62049     66601.25449  23722980.4674
       181.0004         92.0004
 11 10  9 12 53 30.0000000  0 10G06G18G21G19G31G05G16G03G30G29
 -14594197.82849 -11351586.50749  21196814.7424   21196820.1084   21196815.4804
       236.0004        192.0004
  -6991188.87449  -4997793.56349  23201751.9134   23201755.7244   23201750.6194
       223.0004        153.0004
 -19470327.79749 -14904937.54149  21037229.5154   21037231.6004   21037229.3324
       240.0004        199.0004
    -91276.90649    -36762.53049  24670651.5654
       206.0004         74.0004
    567277.95149    476084.56649  24924990.2774   24925000.3944   24924993.0814
       198.0004        137.0004
   6192442.34549   4831002.64349  25566876.9314   25566881.6414   25566874.3044
       194.0004        126.0004
 -18064446.07949 -13576214.37949  20929641.1564   20929644.2904   20929641.3214
       242.0004        199.0004
 -13249855.17649 -10307080.28249  21522144.5094   21522149.4914   21522144.4334
       231.0004        177.0004
  -5917609.24349  -4348300.20849  23232668.7514   23232675.0004   23232668.1384
       220.0004        151.0004
  -5465741.52049    138727.52149  23740592.0814
       191.0004        109.0004
 11 10  9 12 54  0.0000000  0  9G06G18G21G31G05G16G03G30G29
 -14648293.08249 -11393738.61849  21186522.2494   21186526.0234   21186521.7344
       237.0004        193.0004
  -7066365.37249  -5056372.48549  23187444.4504   23187450.8654   23187444.8074
       220.0004        153.0004
 -19453802.23949 -14892060.46249  21040374.2244   21040377.1784   21040373.6864
       240.0004        199.0004
    674241.54449    559432.37849  24945346.5184   24945356.7484   24945347.9174
       199.0004        136.0004
   6277630.96949   4897383.49649  25583088.4664   25583090.6034   25583086.9684
       195.0004        126.0004
 -18104047.76449 -13607072.81549  20922104.8404   20922108.2564   20922104.9424
       239.0004        198.0004
 -13333694.42649 -10372409.52449  21506191.2244   21506195.8934   21506190.2954
       231.0004        178.0004
  -5803797.22549  -4259615.62649  23254325.6134   23254333.5764   23254325.5704
       219.0004        151.0004
  -5373115.60249    210930.77749  23758216.7344
       196.0004        108.0004
 11 10  9 12 54 30.0000000  0 10G06G18G21G19G31G05G16G03G30G29
 -14702095.66049 -11435662.66649  21176284.1484   21176288.0704   21176283.6434
       238.0004        193.0004
  -7141244.66649  -5114719.84349  23173195.7674   23173201.1584   23173196.3924
       219.0004        154.0004
 -19436842.64749 -14878845.19549  21043601.2244   21043603.9664   21043600.9734
       240.0004        199.0004
   -289734.43449   -191404.28349  24632888.4654   24632893.6874
       206.0004        139.0004
    781191.81549    642769.67749  24965699.3964   24965709.8124   24965692.4324
       197.0004        129.0004
   6363151.01949   4964022.58149  25599361.5744   25599362.9324   25599361.7384
       196.0004        121.0004
 -18143167.80749 -13637555.94249  20914660.6664   20914663.9864   20914660.9234
       241.0004        199.0004
 -13417268.63349 -10437532.23249  21490286.4874   21490291.7984   21490286.5754
       230.0004        178.0004
  -5689793.32049  -4170781.55149  23276020.1094   23276027.2124   23276020.1584
       218.0004        151.0004
  -5280392.07449     61950.39249  23775859.3914
       196.0004         82.0004
 11 10  9 12 55  0.0000000  0 10G06G18G21G19G31G05G16G03G30G29
 -14755605.06949 -11477358.28049  21166101.2844   21166105.2914   21166101.1124
       238.0004        193.0004
  -7215824.19149  -5172833.61649  23159003.8734   23159009.3174   23159002.5624
       220.0004        154.0004
 -19419450.25049 -14865292.66649  21046911.2044   21046913.5714   21046910.8704
       240.0004        199.0004
   -388847.84049   -268635.44549  24614026.5064   24614031.6304   24614025.5024
       209.0004        143.0004
    888125.63249    726094.16749  24986047.5154   24986057.5514   24986049.3174
       202.0004        127.0004
   6448999.61849   5030917.64849  25615695.8404   25615704.6144   25615697.1224
       188.0004        125.0004
 -18181804.45249 -13667662.40849  20907309.4654   20907311.2984   20907308.4804
       242.0004        198.0004
 -13500576.48049 -10502447.40349  21474433.7044   21474438.4604   21474433.2834
       230.0004        178.0004
  -5575600.04849  -4081799.88949  23297752.6624   23297757.3144   23297750.7164
       222.0004        153.0004
  -5187571.96049    134385.69349  23793527.5664
       205.0004        109.0004
 11 10  9 12 55 30.0000000  0 10G06G18G21G19G31G05G16G03G30G29
 -14808820.46049 -11518824.79149  21155974.0924   21155978.7504   21155974.0904
       237.0004        193.0004
  -7290101.67249  -5230712.04549  23144870.5614   23144873.9574   23144869.7764
       223.0004        155.0004
 -19401626.02149 -14851403.65049  21050302.6814   21050305.4594   21050302.6184
       240.0004        199.0004
   -487883.38749   -345806.04449  24595179.6344   24595183.1074   24595178.4364
       193.0004        129.0004
    995040.66849    809404.08049  25006393.8044   25006402.5734   25006395.0074
       208.0004        133.0004
   6535174.05349   5098066.59449  25632095.1324   25632102.0564   25632095.5424
       188.0004        122.0004
 -18219956.20849 -13697391.02149  20900047.1614   20900051.2744   20900047.8924
       239.0004        198.0004
 -13583616.85549 -10567154.12849  21458631.6794   21458637.4374   21458631.5374
       230.0004        179.0004
  -5461219.60149  -3992672.37049  23319518.1044   23319523.5764   23319516.5464
       219.0004        152.0004
  -5094655.92549    206895.73849  23811202.9284
       194.0004        110.0004
 11 10  9 12 56  0.0000000  0 10G06G18G21G19G31G05G16G03G30G29
 -14861740.76149 -11560061.36149  21145904.4564   21145908.7264   21145903.7674
       238.0004        193.0004
  -7364074.51749  -5288353.06849  23130790.8214   23130798.8484   23130791.8534
       215.0004        152.0004
 -19383370.40849 -14837178.49749  21053776.9224   21053779.3424   21053776.7524
       240.0004        199.0004
   -586839.74449   -422914.73549  24576347.9164   24576352.0324   24576348.2214
       206.0004        137.0004
   1101934.37749    892697.35349  25026738.5434   25026747.5394   25026736.1994
       203.0004        134.0004
   6621672.42049   5165468.02649  25648555.1194                   25648554.2984
       188.0004        116.0004
 -18257621.05149 -13726740.23049  20892880.9714   20892884.5034   20892880.9634
       240.0004        199.0004
 -13666387.36049 -10631650.58649  21442881.5254   21442886.2894   21442881.0114
       232.0004        179.0004
  -5346653.69449  -3903400.37049  23341318.0544   23341325.4744   23341317.7694
       216.0004        151.0004
  -5001644.32749     57310.89349  23828904.9214
       203.0004         74.0004
 11 10  9 12 56 30.0000000  0 10G06G18G21G19G31G05G16G03G30G29
 -14914365.06449 -11601067.29049  21135889.1704   21135894.6244   21135889.6544
       238.0004        194.0004
  -7437739.64949  -5345754.34349  23116774.9494   23116779.5504   23116774.2514
       223.0004        156.0004
 -19364684.47149 -14822618.02149  21057332.6664   21057334.9684   21057332.1714
       241.0004        199.0004
   -685715.89849   -499960.92049  24557534.3424   24557540.3554   24557533.9664
       204.0004        148.0004
   1208803.88149    975971.63549  25047070.4264   25047084.4104   25047070.0894
       188.0004        130.0004
   6708491.79849   5233119.54849  25665073.9294
       172.0004        115.0004
 -18294797.20549 -13755708.64649  20885806.4944   20885809.4584   20885806.2574
       240.0004        199.0004
 -13748886.86249 -10695935.87049  21427181.8354   21427187.1644   21427180.8784
       231.0004        179.0004
  -5231904.77649  -3813985.76049  23363154.2554   23363162.0584   23363154.2654
       217.0004        150.0004
  -4908537.82649    129835.97549  23846624.8784
       198.0004        109.0004
 11 10  9 12 57  0.0000000  0 10G06G18G21G19G31G05G16G03G30G29
 -14966693.19349 -11641842.42549  21125931.8534   21125936.6574   21125931.8844
       238.0004        193.0004
  -7511094.89649  -5402914.14349  23102816.4194   23102820.3034   23102815.4554
       221.0004        155.0004
 -19345569.33049 -14807723.09549  21060970.1184   21060972.7274   21060969.7364
       240.0004        199.0004
   -784511.88749   -576944.67149  24538730.7454   24538737.0164   24538731.1144
       201.0004        135.0004
   1315646.45849   1059224.92849  25067404.3014   25067415.2734   25067400.0884
       201.0004        128.0004
   6795629.49659   5301019.14959  25681658.4444
       175.0004        113.0004
 -18331483.65249 -13784295.46149  20878824.4774   20878828.8834   20878824.8474
       240.0004        199.0004
 -13831114.39149 -10760009.21749  21411533.8354   21411539.7414   21411534.7714
       232.0004        180.0004
  -5116975.42049  -3724430.55149  23385025.4244   23385032.1394   23385023.5294
       218.0004        149.0004
  -4815338.20149    202432.25949  23864357.3394
       190.0004        109.0004
 11 10  9 12 57 30.0000000  0 11G06G18G21G19G31G05G16G03G30G22G29
 -15018724.34449 -11682386.16249  21116031.2874   21116035.6664   21116031.4414
       240.0004        194.0004
  -7584138.61149  -5459831.20749  23088914.3934   23088921.2994   23088916.2164
       221.0004        157.0004
 -19326026.27549 -14792494.74549  21064688.8774   21064691.7964   21064688.9184
       241.0004        199.0004
   -883226.62749   -653865.22349  24519950.1684   24519952.8164   24519948.3534
       206.0004        137.0004
   1422459.19149   1142455.09149  25087730.1074   25087739.6514   25087729.7034
       205.0004        131.0004
   6883082.54659     40280.52259  25698299.1434
       176.0004         74.0004
 -18367679.19749 -13812499.76149  20871937.9644   20871940.8974   20871937.4444
       241.0004        198.0004
 -13913068.56849 -10823869.57249  21395940.3654   21395944.2974   21395939.8374
       233.0004        180.0004
  -5001868.08749  -3634736.65949  23406929.8144   23406936.2064   23406927.5914
       216.0004        149.0004
    -44024.44649    -22222.83149  24821817.2824
       209.0004         74.0004
  -4722046.38149     51499.43649  23882108.9014
       194.0004         74.0004
 11 10  9 12 58  0.0000000  0 11G06G18G21G19G31G05G16G03G30G22G29
 -15070456.95249 -11722697.25849  21106186.7204   21106190.8024   21106186.7414
       239.0004        194.0004
  -7656867.34449  -5516502.81549  23075076.7874   23075080.3174   23075075.8324
       220.0004        155.0004
 -19306055.17249 -14776932.84049  21068489.4164   21068491.9734   21068489.5174
       241.0004        199.0004
   -981858.63949   -730721.22949  24501178.5224   24501181.5154   24501177.5444
       196.0004        139.0004
   1529240.12549   1225660.42749  25108051.5644   25108062.0354   25108050.0344
       200.0004        130.0004
   6970849.61449    108671.32749  25715002.4014
       184.0004        111.0004
 -18403381.16249 -13840319.46149  20865144.0784   20865147.0594   20865143.9604
       241.0004        199.0004
 -13994747.16849 -10887515.18549  21380395.9814   21380400.8794   21380396.1204
       232.0004        180.0004
  -4886584.07749  -3544905.08249  23428867.6794   23428873.5054   23428866.5664
       215.0004        148.0004
   -147859.64949   -103132.62449  24802057.4274
       210.0004        128.0004
  -4628662.22649    124269.38749  23899881.8384
       198.0004        107.0004
 11 10  9 12 58 30.0000000  0 11G06G18G21G19G31G05G16G03G30G22G29
 -15121890.70749 -11762775.48849  21096398.8814   21096403.3764   21096398.8084
       238.0004        193.0004
  -7729279.16349  -5572927.49949  23061296.4724   23061301.6994   23061296.1924
       224.0004        159.0004
 -19285657.58449 -14761038.61949  21072371.0214   21072373.8784   21072371.0494
       242.0004        200.0004
  -1080407.55149   -807512.39249  24482426.7714   24482430.5814   24482425.7684
       210.0004        141.0004
   1635985.92249   1308838.25449  25128365.2074   25128375.0444   25128364.4024
       199.0004        127.0004
   7058927.13849    177304.30649  25731764.4984
       185.0004        110.0004
 -18438588.79349 -13867753.95449  20858443.7284   20858447.2534   20858443.5814
       240.0004        199.0004
 -14076149.27349 -10950945.36449  21364905.9574   21364910.1764   21364906.2764
       232.0004        180.0004
  -4771126.28849  -3454938.10749  23450837.0894   23450844.6004   23450837.5624
       216.0004        151.0004
   -251701.72149   -184048.06549  24782296.3884
       210.0004        133.0004
  -4535186.97149    197110.88549  23917670.7454
       202.0004        107.0004
 11 10  9 12 59  0.0000000  0 11G06G18G21G19G31G05G16G03G30G22G29
 -15173024.42749 -11802619.91949  21086668.1594   21086673.0384   21086668.2324
       237.0004        193.0004
  -7801370.98949  -5629102.85549  23047576.4724   23047583.9994   23047577.7914
       220.0004        159.0004
 -19264834.05649 -14744812.48949  21076333.8304   21076336.1744   21076333.5374
       242.0004        200.0004
  -1178871.91249   -884237.90849  24463689.3594   24463692.3644   24463687.6394
       203.0004        141.0004
   1742694.89649   1391987.43249  25148670.7984   25148682.9554   25148670.5974
       194.0004        129.0004
   7147313.61749     36084.34449  25748581.6894
       187.0004         74.0004
 -18473299.74949 -13894801.43349  20851837.8824   20851841.7324   20851838.0554
       239.0004        199.0004
 -14157272.62549 -11014158.32849  21349468.9114   21349472.7144   21349468.7414
       233.0004        180.0004
  -4655496.31749  -3364836.98749  23472841.2444   23472850.0944   23472840.8824
       211.0004        148.0004
   -355547.22349   -264966.18849  24762535.2964   24762539.5934   24762532.3304
       209.0004        140.0004
  -4441620.98349     46778.68549  23935474.4434
       198.0004         74.0004
 11 10  9 12 59 30.0000000  0 11G06G18G21G19G31G05G16G03G30G22G29
 -15223858.53949 -11842230.88949  21076994.3264   21076999.3044   21076995.1314
       237.0004        192.0004
  -7873141.68049  -5685027.96049  23033920.8054   23033924.3584   23033920.2124
       223.0004        158.0004
 -19243586.60549 -14728256.03449  21080376.5114   21080379.4774   21080376.5504
       241.0004        199.0004
  -1277252.35849   -960897.78249  24444967.5064   24444970.8204   24444967.0434
       207.0004        140.0004
   1849363.13449   1475104.90049  25168971.1124   25168979.1684   25168969.1554
       204.0004        131.0004
   7236004.77659    105196.86459  25765458.1794
       181.0004        108.0004
 -18507513.83449 -13921461.74749  20845327.8034   20845331.1274   20845327.8474
       240.0004        199.0004
 -14238117.21549 -11077154.06349  21334084.5134   21334089.0734   21334084.6134
       233.0004        180.0004
  -4539697.56149  -3274604.34849  23494878.0414   23494885.9004   23494877.8534
       218.0004        149.0004
   -459394.65249   -345885.67349  24742771.1984   24742780.7134   24742769.4684
       209.0004        141.0004
  -4347965.92049    119758.75649  23953295.1914
       201.0004        103.0004
 11 10  9 13  0  0.0000000  0 11G06G18G21G19G31G05G16G03G30G22G29
 -15274391.01049 -11881606.81049  21067378.8034   21067383.5104   21067379.2104
       237.0004        193.0004
  -7944587.56949  -5740699.99849  23020323.6434   23020329.5094   23020322.8224
       222.0004        158.0004
 -19221915.00849 -14711369.08149  21084501.0154   21084503.3054   21084500.7544
       242.0004        199.0004
  -1375546.47749  -1037490.51049  24426264.0344   24426270.3054   24426263.7224
       211.0004        144.0004
   1955988.71649   1558189.06949  25189260.6594   25189273.0984   25189260.4874
       204.0004        134.0004
   7324999.70559    174547.29559  25782393.0884
       176.0004        108.0004
 -18541228.43849 -13947732.85249  20838911.9984   20838915.0924   20838911.8894
       239.0004        199.0004
 -14318680.55749 -11139930.65749  21318753.1804   21318758.5474   21318753.2654
       231.0004        180.0004
  -4423731.22349  -3184241.10949  23516945.9964   23516951.2064   23516944.9964
       214.0004        145.0004
   -563240.72349   -426804.12649  24723010.4354   24723017.7364   24723009.6214
       207.0004        139.0004
  -4254221.98649    192808.56649  23971138.5864
       206.0004        107.0004
 11 10  9 13  0 30.0000000  0 11G06G18G21G19G31G05G16G03G30G22G29
 -15324620.87549 -11920746.93849  21057821.2184   21057825.0564   21057820.8114
       238.0004        194.0004
  -8015706.21149  -5796117.02949  23006790.9274   23006795.2954   23006790.1424
       224.0004        159.0004
 -19199820.38249 -14694152.49149  21088705.5434   21088707.6004   21088704.8174
       242.0004        199.0004
  -1473753.79849  -1114015.76249  24407573.2114   24407577.1884   24407574.3834
       197.0004        140.0004
   2062569.50549   1641238.31249  25209545.4964   25209555.1834   25209541.8484
       202.0004        130.0004
   7414295.20559     30725.42359  25799385.4004
       172.0004         74.0004
 -18574441.80149 -13973613.37949  20832591.4994   20832594.9664   20832591.6134
       239.0004        199.0004
 -14398960.78049 -11202486.63749  21303476.4864   21303481.2524   21303476.6494
       232.0004        180.0004
  -4307599.44349  -3093748.95049  23539043.7484   23539052.8564   23539043.8434
       212.0004        147.0004
   -667082.50849   -507719.25449  24703248.0964   24703257.4214   24703248.9044
       207.0004        142.0004
  -4160389.46449     42026.03849  23988990.1534
       198.0004         74.0004
 11 10  9 13  1  0.0000000  0 11G06G18G21G19G31G05G16G03G30G22G29
 -15374548.31049 -11959651.41049  21048319.9904   21048324.4544   21048319.9834
       239.0004        195.0004
  -8086495.83449  -5851277.70449  22993320.0594   22993325.2424   22993319.9994
       224.0004        158.0004
 -19177304.42749 -14676607.59449  21092989.8994   21092992.6764   21092989.7984
       241.0004        199.0004
  -1571873.67549  -1190472.58049  24388904.5854   24388908.3294   24388902.3284
       210.0004        150.0004
   2169102.08449   1724250.00549  25229817.3064   25229829.5724   25229815.7884
       204.0004        130.0004
   7503888.83459    100517.91959  25816434.5794
       165.0004        108.0004
 -18607153.41649 -13999102.92749  20826367.0694   20826370.3754   20826366.8034
       239.0004        199.0004
 -14478957.65449 -11264821.82949  21288254.6064   21288257.9224   21288254.1254
       233.0004        181.0004
  -4191305.04149  -3003130.12749  23561173.7814   23561181.2164   23561173.3074
       212.0004        148.0004
   -770918.23849   -588629.67649  24683489.2494   24683498.8174   24683488.9204
       209.0004        139.0004
  -4066470.07849    115208.76749  24006863.2854
       199.0004        108.0004
 11 10  9 13  1 30.0000000  0 11G06G18G21G19G31G05G16G03G30G22G29
 -15424172.33449 -11998319.45849  21038877.0934   21038881.5194   21038876.9774
       239.0004        195.0004
  -8156954.30449  -5906180.34949  22979911.3274   22979916.8884   22979911.0914
       222.0004        158.0004
 -19154367.68749 -14658734.81849  21097354.8584   21097357.0654   21097354.1304
       241.0004        198.0004
  -1669905.42249  -1266860.86849  24370246.0124   24370253.8084   24370244.1574
       202.0004        133.0004
   2275583.47549   1807221.77749  25250078.7804   25250092.5144   25250076.3554
       195.0004        130.0004
   7593778.45559    170527.22359  25833541.9804
       167.0004        110.0004
 -18639361.67249 -14024200.25649  20820237.8764   20820240.9964   20820237.4504
       239.0004        199.0004
 -14558669.52049 -11326934.93049  21273085.1314   21273089.3974   21273084.6184
       234.0004        181.0004
  -4074850.54249  -2912386.51249  23583335.9144   23583342.7344   23583334.4244
       216.0004        147.0004
   -874745.29249   -669533.39449  24663729.2064   24663739.7654   24663730.9644
       201.0004        135.0004
  -3972464.45649    188457.97549  24024752.9484
       197.0004        108.0004
 11 10  9 13  2  0.0000000  0 11G06G18G21G19G31G05G16G03G30G22G29
 -15473491.06949 -12036749.61449  21029492.7194   21029496.3574   21029492.0914
       239.0004        195.0004
  -8227077.70449  -5960821.90349  22966567.3334   22966571.7064   22966567.4784
       224.0004        158.0004
 -19131010.62949 -14640534.52349  21101798.9304   21101801.5324   21101799.1044
       241.0004        199.0004
  -1767846.91749  -1343178.97849  24351610.4334   24351613.6294   24351610.1094
       207.0004        143.0004
   2382012.77149   1890152.84749  25270330.2884   25270345.0874   25270331.6974
       201.0004        133.0004
   7683960.23859     26332.03559  25850703.3994
       165.0004         74.0004
 -18671063.83849 -14048903.22549  20814204.0924   20814208.7554   20814204.3424
       239.0004        199.0004
 -14638093.43549 -11388823.65849  21257970.6204   21257975.4184   21257971.2694
       233.0004        181.0004
  -3958236.66549  -2821518.72049  23605526.7214   23605532.8544   23605525.6054
       212.0004        144.0004
   -978559.82649   -750427.35349  24643976.2244   24643985.4854   24643975.0504
       208.0004        137.0004
  -3878372.15449     37254.54749  24042657.4074
       195.0004         74.0004
 11 10  9 13  2 30.0000000  0 10G06G18G21G19G31G16G03G30G22G29
 -15522505.44049 -12074942.59949  21020164.7514   21020168.9974   21020164.4934
       238.0004        196.0004
  -8296865.29149  -6015201.77549  22953287.4224   22953290.7354   22953287.5334
       222.0004        158.0004
 -19107235.93449 -14622008.78949  21106323.6344   21106326.1204   21106323.2374
       241.0004        199.0004
  -1865699.16249  -1419427.34049  24332990.1904   24332992.8174   24332988.5704
       206.0004        148.0004
   2488385.36449   1973039.80349  25290574.5244   25290589.1084   25290575.4584
       203.0004        133.0004
 -18702260.38849 -14073212.21749  20808269.3014   20808271.9644   20808268.9974
       241.0004        199.0004
 -14717229.72949 -11450488.26649  21242912.2074   21242916.4864   21242911.7934
       234.0004        181.0004
  -3841467.58049  -2730529.99749  23627746.8464   23627753.9874   23627745.8184
       216.0004        146.0004
  -1082361.13649   -831311.03249  24624222.2594   24624229.0334   24624222.4704
       204.0004        137.0004
  -3784196.09149    110639.93349  24060579.6994
       196.0004        116.0004
 11 10  9 13  3  0.0000000  0 10G06G18G21G19G31G16G03G30G22G29
 -15571213.49649 -12112896.90349  21010895.0844   21010899.9854   21010895.8794
       238.0004        195.0004
  -8366313.79449  -6069317.42349  22940071.2904   22940076.7804   22940071.7614
       224.0004        160.0004
 -19083043.36149 -14603157.43749  21110927.3404   21110929.6494   21110926.8144
       241.0004        199.0004
  -1963459.99049  -1495604.48749  24314386.8724   24314391.1564   24314385.0394
       206.0004        143.0004
   2594699.76549   2055881.35849  25310806.5234   25310818.2884   25310808.1364
       202.0004        132.0004
 -18732948.66249 -14097125.13649  20802428.6944   20802432.1784   20802428.5244
       240.0004        200.0004
 -14796076.48549 -11511927.26649  21227907.7894   21227912.7834   21227907.6014
       234.0004        181.0004
  -3724544.35549  -2639421.14549  23649995.5224   23650004.4544   23649995.9514
       213.0004        148.0004
  -1186145.16749   -912181.28749  24604471.1604   24604479.9544   24604471.7384
       197.0004        137.0004
  -3689935.33749    184091.86949  24078515.8454
       189.0004        113.0004
 11 10  9 13  3 30.0000000  0 10G06G18G21G19G31G16G03G30G22G29
 -15619614.85549 -12150612.22449  21001685.3144   21001689.6484   21001684.8894
       238.0004        195.0004
  -8435421.15649  -6123167.25949  22926922.1834   22926926.0584   22926921.8284
       225.0004        161.0004
 -19058433.75449 -14583981.11849  21115610.3244   21115612.9304   21115609.8264
       241.0004        199.0004
  -2061128.94549  -1571710.17049  24295801.6154   24295803.7214   24295800.7594
       207.0004        144.0004
   2700953.32449   2138675.45149  25331028.8094   25331040.7684   25331028.6494
       203.0004        132.0004
 -18763127.58649 -14120641.17249  20796686.2474   20796688.9614   20796686.3124
       241.0004        199.0004
 -14874631.93449 -11573139.27349  21212959.0014   21212963.5174   21212959.6994
       232.0004        181.0004
  -3607469.50549  -2548194.15449  23672274.9254   23672282.5434   23672276.0304
       215.0004        146.0004
  -1289909.60549   -993036.27749  24584727.3954   24584735.1364   24584727.3794
       205.0004        139.0004
  -3595591.24549     31178.70649  24096469.0654
       196.0004         74.0004
 11 10  9 13  4  0.0000000  0 10G06G18G21G19G31G16G03G30G22G29
 -15667708.80249 -12188088.00649  20992532.7164   20992537.2554   20992532.9694
       238.0004        195.0004
  -8504185.13349  -6176749.49849  22913835.7674   22913841.6884   22913834.9894
       222.0004        162.0004
 -19033408.80449 -14564481.16049  21120372.3174   21120374.9144   21120372.1294
       242.0004        199.0004
  -2158705.31349  -1647743.60149  24277230.9124   24277234.1404   24277231.1664
       204.0004        139.0004
   2807143.12749   2221419.86549  25351233.3174   25351248.8524   25351231.3074
       198.0004        128.0004
 -18792795.83249 -14143759.27249  20791040.3284   20791043.8224   20791040.4074
       240.0004        199.0004
 -14952894.71049 -11634123.22349  21198066.7744   21198070.7454   21198066.0504
       234.0004        182.0004
  -3490245.38049  -2456850.85649  23694582.7144   23694590.5664   23694583.5984
       214.0004        147.0004
  -1393652.48149  -1073874.48549  24564984.7734   24564992.3414   24564983.6254
       204.0004        137.0004
  -3501165.07549    104755.34649  24114438.6144
       199.0004        105.0004
 11 10  9 13  4 30.0000000  0 10G06G18G21G19G31G16G03G30G22G29
 -15715494.17849 -12225323.33549  20983439.8004   20983443.7734   20983439.1684
       241.0004        195.0004
  -8572602.45649  -6230061.64049  22900816.0914   22900821.1074   22900815.8044
       222.0004        158.0004
 -19007968.98449 -14544657.92049  21125213.7684   21125215.7534   21125213.3994
       242.0004        199.0004
  -2256187.74749  -1723703.87849  24258683.5014   24258684.0634   24258681.4764
       209.0004        141.0004
   2913267.09549   2304112.94849  25371428.2324   25371444.8314   25371430.0824
       194.0004        127.0004
 -18821951.46949 -14166477.93749  20785492.2864   20785495.3464   20785492.2244
       240.0004        200.0004
 -15030862.83749 -11694877.57149  21183229.4904   21183234.0424   21183229.4004
       234.0004        182.0004
  -3372873.84749  -2365392.69249  23716917.6174   23716924.4724   23716917.6574
       214.0004        146.0004
  -1497370.43149  -1154693.33349  24545248.0864   24545257.0224   24545247.3034
       203.0004        136.0004
  -3406656.79749    178394.56349  24132422.5834
       198.0004        113.0004
 11 10  9 13  5  0.0000000  0 10G06G18G21G19G31G16G03G30G22G29
 -15762970.78749 -12262318.07449  20974404.9724   20974408.9724   20974405.3214
       240.0004        196.0004
  -8640671.94349  -6283102.70549  22887863.3274   22887867.2694   22887862.7294
       223.0004        157.0004
 -18982116.03649 -14524512.75849  21130133.2494   21130135.9704   21130133.0034
       242.0004        199.0004
  -2353576.03249  -1799590.83949  24240145.9994   24240152.1724   24240148.6084
       204.0004        146.0004
   3019322.41349   2386752.47549  25391610.3404   25391625.7904   25391611.6214
       200.0004        127.0004
 -18850593.75949 -14188796.58749  20780041.4344   20780044.8154   20780041.2474
       239.0004        199.0004
 -15108535.42049 -11755401.62649  21168448.7584   21168453.0524   21168448.6384
       234.0004        182.0004
  -3255357.68149  -2273821.81849  23739279.5574   23739288.9834   23739279.7134
       214.0004        143.0004
  -1601061.31949  -1235491.12049  24525517.7944   24525523.8344   24525517.3784
       207.0004        133.0004
  -3312067.71749     25178.06149  24150423.9984
       201.0004         74.0004
 11 10  9 13  5 30.0000000  0 10G06G18G21G19G31G16G03G30G22G29
 -15810137.57749 -12299071.39349  20965430.4674   20965433.7974   20965430.1304
       243.0004        196.0004
  -8708390.76749  -6335870.54349  22874976.7464   22874981.7504   22874975.4284
       224.0004        158.0004
 -18955850.78849 -14504046.32249  21135130.6594   21135133.6454   21135130.6354
       240.0004        198.0004
  -2450868.93249  -1875403.32549  24221635.0194   24221639.5214   24221634.0794
       207.0004        147.0004
   3125306.58549   2469336.60349  25411781.5304   25411793.9844   25411780.1124
       195.0004        131.0004
 -18878721.08649 -14210713.96949  20774689.1364   20774692.5904   20774688.9454
       240.0004        200.0004
 -15185910.77649 -11815694.08649  21153724.4354   21153729.4704   21153724.9784
       234.0004        183.0004
  -3137698.90249  -2182139.80649  23761671.0644   23761677.1754   23761668.7424
       217.0004        145.0004
  -1704722.51649  -1316265.83849  24505791.3914   24505795.3524   24505789.1974
       202.0004        131.0004
  -3217398.66649     98946.41549  24168438.7754
       202.0004        120.0004
 11 10  9 13  6  0.0000000  0 10G06G18G21G19G31G16G03G30G22G29
 -15856993.73049 -12335582.65249  20956513.9084   20956517.8094   20956513.7264
       242.0004        197.0004
  -8775756.76949  -6388363.45549  22862157.5524   22862161.2224   22862156.9864
       225.0004        161.0004
 -18929174.25149 -14483259.40049  21140207.7344   21140209.9804   21140207.1704
       242.0004        198.0004
  -2548065.57149  -1951140.87549  24203138.2024   24203143.0784   24203138.1464
       207.0004        138.0004
   3231216.60349   2551862.97049  25431936.5584   25431951.6674   25431937.6654
       198.0004        129.0004
 -18906332.18949 -14232229.10049  20769435.5844   20769438.1744   20769434.6044
       240.0004        200.0004
 -15262987.82249 -11875754.07349  21139057.6524   21139062.1874   21139056.9064
       233.0004        184.0004
  -3019899.87249  -2090348.53649  23784086.9564   23784095.2304   23784087.2844
       214.0004        144.0004
  -1808351.24149  -1397015.26349  24486067.6464   24486077.9644   24486068.8524
       206.0004        134.0004
  -3122650.18849    172776.45449  24186466.4164
       198.0004        109.0004
 11 10  9 13  6 30.0000000  0 10G06G18G21G19G31G16G03G30G22G29
 -15903538.44649 -12371851.24149  20947656.3334   20947660.1874   20947656.4684
       242.0004        197.0004
  -8842767.24349  -6440579.34449  22849404.7934   22849409.7134   22849404.1564
       223.0004        162.0004
 -18902087.27149 -14462152.65849  21145361.8614   21145364.9624   21145361.4284
       240.0004        198.0004
  -2645165.07349  -2026802.81149  24184662.3044   24184662.7304   24184661.3734
       211.0004        142.0004
   3337050.85949   2634330.36249  25452074.2384   25452090.0424   25452074.4494
       197.0004        131.0004
 -18933425.44549 -14253340.71649  20764278.3174   20764282.4274   20764278.8934
       239.0004        199.0004
 -15339764.47849 -11935580.00349  21124448.6574   21124451.8904   21124447.8654
       237.0004        185.0004
  -2901962.54749  -1998449.49849  23806530.1894   23806536.8524   23806528.8394
       213.0004        144.0004
  -1911944.70849  -1477737.16049  24466355.4724   24466363.6864   24466354.2544
       199.0004        136.0004
  -3027822.92449     19020.91449  24204513.2114
       197.0004         74.0004
 11 10  9 13  7  0.0000000  0 10G06G18G21G19G31G16G03G30G22G29
 -15949770.58849 -12407876.26449  20938858.6694   20938863.0574   20938858.5184
       241.0004        197.0004
  -8909419.74449  -6492516.28149  22836723.1154   22836726.8014   22836722.2674
       225.0004        160.0004
 -18874591.17349 -14440727.11749  21150594.1624   21150596.4724   21150594.2674
       241.0004        197.0004
  -2742166.12149  -2102387.99949  24166203.5094   24166207.7854   24166203.4164
       210.0004        149.0004
   3442806.63649   2716736.56749  25472199.3454   25472215.5494   25472202.8854
       199.0004        131.0004
 -18959999.48549 -14274047.75249  20759222.4434   20759225.3924   20759221.9154
       240.0004        200.0004
 -15416239.42649 -11995170.83549  21109894.9414   21109900.4094   21109894.9674
       234.0004        186.0004
  -2783888.95449  -1906444.27949  23829000.1064   23829006.5204   23828999.1094
       216.0004        144.0004
  -2015499.94149  -1558429.36749  24446651.6824   24446658.4834   24446650.5604
       207.0004        136.0004
  -2932917.53049     92976.08349  24222575.7034
       199.0004        103.0004
 11 10  9 13  7 30.0000000  0 10G06G18G21G19G31G16G03G30G22G29
 -15995689.81949 -12443657.46449  20930119.8694   20930124.1624   20930120.3924
       241.0004        197.0004
  -8975712.80549  -6544173.14449  22824107.1174   22824111.3944   22824106.3234
       226.0004        163.0004
 -18846687.26849 -14418983.80549  21155904.3264   21155906.4654   21155903.8684
       241.0004        197.0004
  -2839068.40449  -2177896.14449  24147762.4344   24147764.8364   24147759.7184
       200.0004        142.0004
   3548481.19149   2799079.58749  25492312.2794   25492324.9184   25492311.5944
       200.0004        131.0004
 -18986053.17549 -14294349.31349  20754264.5614   20754267.5924   20754264.4724
       240.0004        200.0004
 -15492411.35449 -12054525.53149  21095399.4164   21095404.2014   21095398.8384
       234.0004        186.0004
  -2665681.78449  -1814334.98949  23851493.5104   23851499.5384   23851492.3314
       213.0004        141.0004
  -2119014.78649  -1639090.11349  24426953.4344   24426958.9534   24426951.1504
       208.0004        139.0004
  -2837935.19249    166995.43749  24240645.4374
       193.0004        111.0004
 11 10  9 13  8  0.0000000  0 10G06G18G21G19G31G16G03G30G22G29
 -16041295.14249 -12479194.05749  20921441.7054   20921446.3664   20921441.7544
       241.0004        197.0004
  -9041643.50149  -6595547.60649  22811560.2274   22811565.2764   22811558.9814
       225.0004        161.0004
 -18818376.20749 -14396923.23749  21161291.7134   21161294.0164   21161291.3514
       241.0004        197.0004
  -2935870.59949  -2253326.27849  24129342.1684   24129345.6034   24129341.7684
       208.0004        144.0004
   3654072.45349   2881357.75049  25512404.5964   25512420.1264   25512401.3164
       193.0004        124.0004
 -19011585.11649 -14314244.32649  20749406.0234   20749408.9654   20749405.7644
       241.0004        201.0004
 -15568278.51449 -12113642.76449  21080962.3494   21080966.7744   21080961.9124
       235.0004        186.0004
  -2547342.88749  -1722123.06549  23874012.4194   23874019.4364   23874010.7164
       212.0004        141.0004
  -2222486.07349  -1719716.80549  24407262.4174   24407267.6034   24407260.8684
       206.0004        137.0004
  -2742876.15649     12954.21549  24258734.6054
       196.0004         74.0004
 11 10  9 13  8 30.0000000  0 10G06G18G21G19G31G16G03G30G22G29
 -16086586.23049 -12514485.79349  20912823.1154   20912827.7294   20912823.3174
       241.0004        198.0004
  -9107209.69649  -6646638.06049  22799083.7794   22799088.1554   22799084.9424
       224.0004        162.0004
 -18789659.36349 -14374546.46649  21166756.0494   21166758.7764   21166755.8084
       242.0004        197.0004
  -3032572.37149  -2328678.29649  24110940.4574   24110943.2214   24110940.1444
       211.0004        146.0004
   3759577.26649   2963568.61549  25532482.1094   25532493.7664   25532481.7004
       193.0004        124.0004
 -19036594.44249 -14333732.09849  20744646.9744   20744650.0814   20744646.9034
       240.0004        201.0004
 -15643839.82049 -12172521.66649  21066584.7744   21066588.2844   21066583.8914
       236.0004        187.0004
  -2428875.19649  -1629810.73649  23896554.3444   23896564.7244   23896554.3324
       212.0004        141.0004
  -2325912.06049  -1800308.22449  24387581.2514   24387586.5214   24387580.2114
       210.0004        140.0004
  -2647741.58949     87112.10349  24276841.9634
       194.0004        103.0004
 11 10  9 13  9  0.0000000  0 10G06G18G21G19G31G16G03G30G22G29
 -16131562.02149 -12549531.83849  20904264.3124   20904269.1254   20904264.4054
       241.0004        198.0004
  -9172409.30949  -6697442.85549  22786677.0914   22786681.5764   22786675.9594
       226.0004        162.0004
 -18760537.65349 -14351854.21849  21172297.5834   21172300.7624   21172297.4884
       240.0004        197.0004
  -3129172.46849  -2403951.07449  24092558.0854   24092559.1754   24092558.2294
       203.0004        145.0004
   3864993.66349   3045710.61549  25552540.1774                   25552539.2424
       189.0004        122.0004
 -19061079.48349 -14352811.34149  20739987.3164   20739991.1674   20739987.4364
       239.0004        202.0004
 -15719093.57749 -12231160.92649  21052263.0374   21052267.6164   21052263.6754
       234.0004        186.0004
  -2310280.49349  -1537399.44149  23919123.7664   23919135.1604   23919121.6254
       206.0004        138.0004
  -2429289.45149  -1880861.73849  24367908.0924   24367915.4024   24367906.9664
       209.0004        139.0004
  -2552532.34149    161382.58149  24294959.2844
       190.0004        110.0004
 11 10  9 13  9 30.0000000  0 10G06G18G21G19G31G16G03G30G22G29
 -16176222.28149 -12584332.02049  20895766.1934   20895770.7004   20895766.1764
       241.0004        198.0004
  -9237240.50849  -6747960.60049  22774339.4134   22774343.2364   22774339.4914
       226.0004        161.0004
 -18731012.60349 -14328847.69449  21177915.9994   21177919.0294   21177916.0624
       240.0004        196.0004
  -3225670.72149  -2479144.32149  24074194.7254   24074199.1314   24074194.2474
       208.0004        146.0004
   3970318.50049   3127781.27649  25572586.3494   25572601.7874   25572585.4624
       188.0004        122.0004
 -19085039.59849 -14371481.54049  20735428.3954   20735431.4344   20735428.2734
       241.0004        202.0004
 -15794038.99749 -12289559.90949  21038001.8994   21038006.2124   21038001.7704
       235.0004        186.0004
  -2191561.48649  -1444891.35849  23941715.2254   23941724.3414   23941714.7444
       210.0004        139.0004
  -2532616.38249  -1961375.96649  24348245.0084   24348251.1334   24348244.4604
       208.0004        139.0004
  -2457249.38049      6733.88449  24313092.2534
       176.0004         74.0004
 11 10  9 13 10  0.0000000  0  9G06G18G21G19G31G16G03G30G22
 -16220565.10549 -12618884.85549  20887327.8524   20887332.0974   20887328.0864
       241.0004        197.0004
  -9301699.89849  -6798188.62949  22762073.1954   22762077.6274   22762072.4294
       227.0004        160.0004
 -18701084.99449 -14305527.47949  21183611.9944   21183613.2984   21183611.0874
       241.0004        196.0004
  -3322064.89749  -2554256.60749  24055853.7364   24055855.9874   24055852.0494
       213.0004        149.0004
   4075550.62249   3209779.66549  25592611.3654   25592627.0634   25592613.5834
       188.0004        122.0004
 -19108472.78149 -14389741.15749  20730968.9074   20730972.3134   20730968.8914
       240.0004        201.0004
 -15868673.49149 -12347716.62449  21023798.8244   21023803.3944   21023798.9384
       234.0004        186.0004
  -2072719.45849  -1352287.35249  23964331.1154   23964340.2384   23964329.2654
       209.0004        139.0004
  -2635889.03549  -2041847.84949  24328593.2124   24328600.8214   24328592.0544
       208.0004        144.0004
 11 10  9 13 10 30.0000000  0  9G06G18G21G19G31G16G03G30G22
 -16264590.76149 -12653190.54949  20878950.4354   20878954.2114   20878950.6134
       242.0004        198.0004
  -9365786.02149  -6848125.78149  22749877.7374   22749882.6874   22749878.1364
       227.0004        161.0004
 -18670756.47549 -14281894.86249  21189382.2564   21189385.3554   21189381.3494
       240.0004        196.0004
  -3418355.02149  -2629287.91349  24037526.5894   24037529.4854   24037526.3764
       204.0004        142.0004
   4180686.88149   3291703.42549  25612619.5014                   25612624.0374
       177.0004        118.0004
 -19131378.29849 -14407589.59849  20726610.2544   20726613.7514   20726610.1414
       240.0004        202.0004
 -15942996.46649 -12405630.58549  21009656.2284   21009660.5554   21009655.5044
       234.0004        186.0004
  -1953757.45249  -1259589.90649  23986967.9574   23986975.7934   23986968.3604
       208.0004        138.0004
  -2739105.66949  -2122276.02249  24308949.7034   24308957.1504   24308949.2464
       209.0004        144.0004
 11 10  9 13 11  0.0000000  0  9G06G18G21G19G31G16G03G30G22
 -16308297.82049 -12687247.97849  20870633.2514   20870637.1604   20870632.9984
       241.0004        198.0004
  -9429496.14149  -6897769.96049  22737754.1194   22737757.7074   22737753.8024
       226.0004        161.0004
 -18640027.58749 -14257950.28749  21195230.1824   21195232.8644   21195230.0074
       241.0004        197.0004
  -3514540.01649  -2704237.11949  24019223.8924   24019228.8084   24019224.2844
       209.0004        150.0004
   4285724.93149   3373550.68349  25632606.2784
       179.0004        116.0004
 -19153754.40549 -14425025.51149  20722351.9554   20722355.4164   20722351.8424
       240.0004        202.0004
 -16017005.92549 -12463300.25249  20995573.1844   20995577.1224   20995573.0094
       236.0004        188.0004
  -1834677.33449  -1166800.38249  24009628.1444   24009637.6594   24009628.4974
       207.0004        138.0004
  -2842262.56249  -2202657.67249  24289321.6244   24289327.4304   24289320.5614
       209.0004        146.0004
 11 10  9 13 11 30.0000000  0  9G06G18G21G19G31G16G03G30G22
 -16351685.74949 -12721056.74049  20862376.3924   20862380.5044   20862376.5814
       241.0004        197.0004
  -9492828.13549  -6947119.47449  22725702.4374   22725708.1004   22725700.8324
       226.0004        162.0004
 -18608899.46849 -14233694.60449  21201153.4724   21201156.2774   21201153.3274
       241.0004        196.0004
  -3610618.61149  -2779103.46049  24000942.9234   24000947.0824   24000941.7814
       213.0004        153.0004
   4390662.38359   3455319.50859  25652576.9894
       179.0004        110.0004
 -19175599.83749 -14442047.91549  20718195.4784   20718198.4674   20718195.0274
       240.0004        202.0004
 -16090700.41949 -12520724.49949  20981549.2834   20981552.9104   20981548.5074
       238.0004        187.0004
  -1715481.30449  -1073920.57649  24032311.4814   24032319.3694   24032310.7484
       210.0004        139.0004
  -2945357.62549  -2282991.13549  24269703.4794   24269709.7584   24269702.3124
       214.0004        145.0004
 11 10  9 13 12  0.0000000  0  9G06G18G21G19G31G16G03G30G22
 -16394754.02249 -12754616.41749  20854180.3894   20854185.1504   20854180.5624
       241.0004        196.0004
  -9555780.44249  -6996173.12449  22713722.8854   22713726.3844   22713722.9024
       226.0004        162.0004
 -18577374.04949 -14209129.35449  21207153.0544   21207155.5084   21207152.8134
       241.0004        197.0004
  -3706590.38249  -2853886.64149  23982678.4354   23982680.0804   23982677.3904
       205.0004        145.0004
   4495496.38759     57868.24059  25672526.9564
       171.0004         74.0004
 -19196914.16149 -14458656.47349  20714138.6624   20714142.1774   20714139.1254
       240.0004        202.0004
 -16164078.66649 -12577902.33649  20967584.7284   20967589.4154   20967585.6904
       237.0004        187.0004
  -1596171.96749   -980952.45449  24055015.3794   24055023.1524   24055014.1024
       211.0004        139.0004
  -3048388.80349  -2363274.87949  24250096.0694   24250102.2794   24250094.3944
       212.0004        145.0004
 11 10  9 13 12 30.0000000  0  9G06G18G21G19G31G16G03G30G22
 -16437501.51449 -12787926.13049  20846045.5454   20846050.3814   20846045.9614
       239.0004        196.0004
  -9618350.15349  -7044928.64749  22701815.9814   22701820.4474   22701815.5324
       225.0004        162.0004
 -18545451.94549 -14184254.99349  21213227.8074   21213230.2354   21213226.9594
       241.0004        197.0004
  -3802454.10049  -2928585.56949  23964435.8554   23964439.5204   23964434.9814
       212.0004        146.0004
   4600225.35959    139354.62759  25692459.6824
       170.0004        108.0004
 -19217695.83149 -14474849.97049  20710184.7164   20710187.6904   20710184.6414
       241.0004        202.0004
 -16237139.16049 -12634832.56349  20953682.3884   20953686.1164   20953682.0924
       238.0004        186.0004
  -1476751.27149   -887897.57149  24077739.4144   24077747.4864   24077738.2764
       209.0004        140.0004
  -3151352.66749  -2443506.11149  24230501.7414   24230507.8484   24230500.9684
       207.0004        145.0004
 11 10  9 13 13  0.0000000  0  8G06G18G21G19G16G03G30G22
 -16479927.56549 -12820985.37149  20837972.8164   20837977.0034   20837972.8744
       241.0004        196.0004
  -9680535.18049  -7093384.41349  22689983.1364   22689987.8584   22689982.5404
       227.0004        161.0004
 -18513134.45049 -14159072.53849  21219376.9604   21219379.4134   21219376.7934
       241.0004        196.0004
  -3898209.13249  -3003199.82549  23946215.7574   23946219.1034   23946214.7084
       213.0004        155.0004
 -19237943.63849 -14490627.46549  20706331.6384   20706334.8424   20706331.6394
       241.0004        202.0004
 -16309880.24149 -12691513.89549  20939839.8864   20939844.6654   20939839.6764
       237.0004        188.0004
  -1357221.35349   -794757.59649  24100486.7224   24100493.0284   24100486.5944
       212.0004        141.0004
  -3254246.57949  -2523682.85249  24210923.5494   24210928.6734   24210921.4024
       211.0004        146.0004
 11 10  9 13 13 30.0000000  0  8G06G18G21G19G16G03G30G22
 -16522031.50549 -12853793.61349  20829959.9794   20829964.4614   20829960.0664
       239.0004        195.0004
  -9742333.87949  -7141539.15949  22678222.5234   22678227.6444   22678222.2704
       226.0004        161.0004
 -18480422.80549 -14133582.95949  21225601.5184   21225604.3484   21225602.0974
       241.0004        196.0004
  -3993854.53749  -3077728.59249  23928013.1044   23928016.4564   23928012.4314
       210.0004        149.0004
 -19257656.87449 -14505988.41849  20702579.6844   20702583.2874   20702579.6134
       239.0004        202.0004
 -16382300.61849 -12747945.33149  20926058.8084   20926063.3614   20926059.2694
       238.0004        189.0004
  -1237584.88449   -701534.54449  24123252.0094   24123261.0314   24123252.0844
       210.0004        139.0004
  -3357068.39649  -2603803.44149  24191355.1844   24191361.1364   24191354.7564
       211.0004        145.0004
 11 10  9 13 14  0.0000000  0  8G06G18G21G19G16G03G30G22
 -16563812.24949 -12886350.02349  20822009.2964   20822013.8354   20822009.9344
       240.0004        196.0004
  -9803743.24349  -7189390.53849  22666536.4144   22666541.3364   22666536.0654
       227.0004        163.0004
 -18447317.57149 -14107786.67549  21231902.4034   21231904.1634   21231901.4264
       241.0004        196.0004
  -4089388.77749  -3152170.83249  23909833.2974   23909836.2234   23909834.3884
       210.0004        144.0004
 -19276833.63049 -14520931.33949  20698930.7864   20698934.1094   20698930.8454
       240.0004        202.0004
 -16454398.40549 -12804125.39649  20912339.9144   20912344.0784   20912339.7504
       240.0004        190.0004
  -1117843.60149   -608229.86049  24146038.5444   24146047.6134   24146039.1564
       213.0004        138.0004
  -3459814.68149  -2683865.19349  24171800.9214   24171808.8864   24171801.0634
       205.0004        142.0004
 11 10  9 13 14 30.0000000  0  8G06G18G21G19G16G03G30G22
 -16605269.60749 -12918654.43449  20814120.7794   20814124.9564   20814120.9734
       240.0004        196.0004
  -9864761.60149  -7236937.22849  22654925.8674   22654929.1374   22654925.7114
       229.0004        164.0004
 -18413820.44049 -14081685.02549  21238275.1534   21238278.3084   21238275.5054
       240.0004        195.0004
  -4184812.19349  -3226526.69049  23891677.2504   23891678.6884   23891676.1664
       215.0004        152.0004
 -19295473.48249 -14535455.88949  20695383.9014   20695387.1794   20695383.5114
       239.0004        202.0004
 -16526172.87349 -12860053.52549  20898681.7144   20898685.6874   20898681.0224
       239.0004        190.0004
   -998000.01949   -514845.41949  24168844.0594   24168854.7434   24168842.5044
       208.0004        138.0004
  -3562483.59249  -2763866.65249  24152263.7494   24152271.4614   24152264.1284
       211.0004        144.0004
 11 10  9 13 15  0.0000000  0  8G06G18G21G19G16G03G30G22
 -16646401.89949 -12950705.54549  20806292.5694   20806298.1014   20806293.1364
       240.0004        197.0004
  -9925386.39849  -7284177.25249  22643389.4244   22643394.1914   22643386.7034
       226.0004        163.0004
 -18379932.68949 -14055278.98749  21244725.7084   21244727.8324   21244724.4934
       242.0004        196.0004
  -4280122.41349  -3300794.31849  23873538.5124   23873542.3174   23873538.1894
       212.0004        150.0004
 -19313574.64649 -14549560.68149  20691939.5114   20691942.8234   20691938.9124
       240.0004        202.0004
 -16597621.97149 -12915728.11849  20885084.7084   20885089.1364   20885084.8584
       240.0004        190.0004
   -878055.94649   -421382.71749  24191668.5524   24191678.3104   24191667.9654
       210.0004        138.0004
  -3665071.28749  -2843804.83149  24132742.6294   24132748.8704   24132742.6544
       210.0004        145.0004
 11 10  9 13 15 30.0000000  0  8G06G18G21G19G16G03G30G22
 -16687209.56449 -12982503.70649  20798528.3234   20798532.6174   20798528.4514
       241.0004        197.0004
  -9985616.69049  -7331109.88349  22631926.4114   22631932.2774   22631927.0634
       226.0004        165.0004
 -18345655.94049 -14028569.84849  21251246.9684   21251249.5004   21251246.8964
       240.0004        195.0004
  -4375319.52849  -3374973.76249  23855424.6484   23855427.7674   23855422.3544
       212.0004        151.0004
 -19331137.02449 -14563245.64949  20688597.5154   20688600.1774   20688596.8114
       240.0004        201.0004
 -16668744.51549 -12971148.24949  20871549.9384   20871554.7054   20871550.1764
       239.0004        189.0004
   -758014.41449   -327844.08049  24214511.1904   24214520.4914   24214510.9864
       209.0004        139.0004
  -3767576.58949  -2923678.80549  24113234.3654   24113242.9734   24113235.1964
       207.0004        141.0004
 11 10  9 13 16  0.0000000  0  8G06G18G21G19G16G03G30G22
 -16727690.97449 -13014047.64049  20790824.9964   20790829.1944   20790824.9064
       241.0004        198.0004
 -10045449.22749  -7377732.56449  22620542.2884   22620546.7244   22620541.2254
       228.0004        165.0004
 -18310990.61649 -14001557.90749  21257844.4334   21257846.3974   21257843.7104
       242.0004        196.0004
  -4470401.96749  -3449063.95249  23837330.9714   23837333.3714   23837330.8454
       212.0004        150.0004
 -19348158.78549 -14576509.35049  20685357.6904   20685361.0764   20685357.5634
       239.0004        201.0004
 -16739538.83249 -13026312.62649  20858078.9384   20858082.8854   20858079.1104
       239.0004        189.0004
   -637876.90349   -234230.65849  24237374.6324   24237382.2624   24237373.1974
       207.0004        138.0004
  -3869995.53049  -3003485.54749  24093746.7514   24093753.3334   24093746.1364
       207.0004        144.0004
 11 10  9 13 16 30.0000000  0  8G06G18G21G19G16G03G30G22
 -16767845.83449 -13045337.12549  20783183.5254   20783187.7094   20783183.5644
       241.0004        197.0004
 -10104882.44149  -7424044.08749  22609232.6824   22609236.9524   22609231.8354
       229.0004        165.0004
 -18275938.70749 -13974244.74549  21264513.5094   21264516.7694   21264513.7054
       241.0004        196.0004
  -4565369.45749  -3523064.50149  23819259.8214   23819260.1654   23819258.7214
       216.0004        152.0004
 -19364639.34649 -14589351.35149  20682222.9714   20682224.9194   20682222.6014
       240.0004        202.0004
 -16810003.45949 -13081220.10749  20844669.2284   20844674.0144   20844669.8134
       238.0004        189.0004
   -517646.25049   -140544.62949  24260253.3194   24260261.0814   24260252.6034
       207.0004        139.0004
  -3972325.99249  -3083223.28749  24074276.0184   24074280.0564   24074274.7174
       207.0004        145.0004
 11 10  9 13 17  0.0000000  0  8G06G18G21G19G16G03G30G22
 -16807673.06849 -13076371.31149  20775604.4654   20775608.8524   20775604.9144
       242.0004        198.0004
 -10163913.67349  -7470042.35749  22597997.9334   22598002.1814   22597998.2404
       226.0004        164.0004
 -18240500.82349 -13946630.80749  21271258.1594   21271259.9084   21271257.8774
       241.0004        196.0004
  -4660220.55749  -3596974.39049  23801210.2484   23801211.2904   23801209.7294
       214.0004        150.0004
 -19380577.06249 -14601770.33149  20679188.8844   20679192.5474   20679188.9104
       239.0004        202.0004
 -16880136.90549 -13135869.51549  20831323.7274   20831328.4434   20831323.7264
       238.0004        190.0004
   -397324.17049    -46787.39649  24283151.0134   24283159.6154   24283150.7454
       210.0004        141.0004
  -4074565.12149  -3162889.83949  24054819.0564   24054824.6484   24054818.0244
       211.0004        144.0004
 11 10  9 13 17 30.0000000  0  8G06G18G21G19G16G03G30G22
 -16847171.87649 -13107149.58049  20768088.4664   20768092.7004   20768088.5134
       242.0004        198.0004
 -10222541.10849  -7515726.01749  22586842.2854   22586846.7364   22586842.5854
       227.0004        165.0004
 -18204678.35049 -13918717.19149  21278073.8734   21278077.4884   21278073.8054
       241.0004        196.0004
  -4754954.47349  -3670792.92049  23783182.5524   23783185.2234   23783181.1804
       213.0004        153.0004
 -19395971.36949 -14613765.89549  20676259.7494   20676262.7454   20676259.5414
       240.0004        202.0004
 -16949937.73149 -13190259.72749  20818040.3484   20818045.8834   20818040.5804
       237.0004        191.0004
   -276912.98549     47039.31249  24306063.3864   24306071.9634   24306061.1694
       207.0004        137.0004
  -4176710.12849  -3242483.07849  24035381.6464   24035386.3964   24035381.1464
       213.0004        145.0004
 11 10  9 13 18  0.0000000  0  8G06G18G21G19G16G03G30G22
 -16886341.82949 -13137671.61049  20760634.4454   20760638.8464   20760634.8734
       242.0004        198.0004
 -10280762.76749  -7561093.47349  22575762.3514   22575766.1284   22575762.9934
       228.0004        165.0004
 -18168471.67649 -13890504.19849  21284964.6524   21284967.1764   21284964.2424
       242.0004        196.0004
  -4849570.21549  -3744519.31849  23765176.3674   23765180.2474   23765176.6554
       214.0004        153.0004
 -19410821.44549 -14625337.37449  20673433.4304   20673437.1044   20673433.2924
       239.0004        201.0004
 -17019404.49649 -13244389.64249  20804821.9794   20804826.3364   20804821.7094
       238.0004        190.0004
   -156415.01349    140933.60249  24328992.1144   24329000.5064   24328993.5484
       208.0004        135.0004
  -4278758.56649  -3322001.08349  24015962.4234   24015966.6844   24015961.7104
       211.0004        144.0004
 11 10  9 13 18 30.0000000  0  8G06G18G21G19G16G03G30G22
 -16925182.02349 -13167936.67649  20753243.3284   20753247.6034   20753243.6424
       242.0004        198.0004
 -10338576.63149  -7606143.20249  22564761.4974   22564766.1004   22564760.4534
       228.0004        165.0004
 -18131883.61049 -13861994.01449  21291926.9834   21291929.3154   21291926.7694
       241.0004        196.0004
  -4944066.84849  -3818153.05949  23747195.2644   23747195.8034   23747193.5464
       210.0004        149.0004
 -19425126.07149 -14636483.83149  20670711.3184   20670714.4234   20670711.3924
       239.0004        201.0004
 -17088535.34049 -13298257.80549  20791665.8884   20791670.9784   20791666.6364
       238.0004        190.0004
    -35832.53449    234893.74449  24351940.0014   24351949.4694   24351938.4974
       207.0004        134.0004
  -4380707.35149  -3401441.44949  23996561.4824   23996566.8714   23996560.9854
       213.0004        145.0004
 11 10  9 13 19  0.0000000  0  8G06G18G21G19G16G03G30G22
 -16963691.91449 -13197944.37049  20745914.5134   20745919.3184   20745915.0964
       240.0004        197.0004
 -10395980.46849  -7650873.38949  22553836.6044   22553840.8594   22553836.1794
       227.0004        166.0004
 -18094914.91049 -13833187.23449  21298962.1774   21298964.3504   21298961.8544
       241.0004        196.0004
  -5038443.89449  -3891693.49249  23729233.4914   23729238.7124   23729233.2984
       208.0004        150.0004
 -19438884.55649 -14647204.72949  20668094.1164   20668096.6014   20668093.5064
       239.0004        202.0004
 -17157329.49549 -13351863.61849  20778576.3914   20778580.0154   20778576.5854
       240.0004        191.0004
     84832.10549    328917.93149  24374902.2264   24374911.4124   24374902.0744
       208.0004        137.0004
  -4482554.33449  -3480802.48449  23977178.8174   23977185.4384   23977177.7544
       211.0004        142.0004
 11 10  9 13 19 30.0000000  0  8G06G18G21G19G16G03G30G22
 -17001870.49949 -13227693.89549  20738649.5084   20738653.7924   20738649.6724
       240.0004        198.0004
 -10452972.59149  -7695282.80549  22542992.0284   22542996.2854   22542991.7944
       229.0004        167.0004
 -18057566.57049 -13804084.62249  21306069.3554   21306071.6194   21306069.1734
       242.0004        196.0004
  -5132699.96549  -3965139.66249  23711298.2874   23711302.8584   23711296.9514
       214.0004        154.0004
 -19452095.65949 -14657499.08349  20665579.5474   20665582.6424   20665579.4964
       239.0004        201.0004
 -17225785.24249 -13405205.72849  20765549.1254   20765553.4724   20765549.0254
       239.0004        192.0004
    205576.90149    423004.54549  24397878.7314   24397888.1634   24397877.6474
       205.0004        135.0004
  -4584296.49049  -3560081.87149  23957820.3704   23957823.3484   23957818.1744
       213.0004        144.0004
 11 10  9 13 20  0.0000000  0  8G06G18G21G19G16G03G30G22
 -17039717.10049 -13257184.73949  20731447.9924   20731452.1884   20731447.7244
       241.0004        198.0004
 -10509550.61549  -7739369.53849  22532226.8284   22532229.8174   22532225.4534
       229.0004        167.0004
 -18019840.08749 -13774687.36149  21313248.3484   21313250.5674   21313247.5104
       242.0004        196.0004
  -5226834.41049  -4038491.10849  23693386.1844   23693387.0744   23693383.4404
       213.0004        151.0004
 -19464758.53949 -14667366.26649  20663170.4714   20663172.8904   20663169.9574
       240.0004        202.0004
 -17293900.96949 -13458282.88949  20752586.4064   20752592.2094   20752587.1484
       239.0004        193.0004
    326399.52649    517151.76749  24420872.5744   24420879.5524   24420870.5704
       206.0004        135.0004
  -4685931.23649  -3639277.52249  23938479.7244   23938483.5144   23938478.5034
       216.0004        143.0004
 11 10  9 13 20 30.0000000  0  8G06G18G21G19G16G03G30G22
 -17077231.14149 -13286416.44349  20724309.2354   20724313.3034   20724309.4694
       241.0004        199.0004
 -10565712.79549  -7783132.23249  22521537.9674   22521541.1444   22521537.9954
       229.0004        168.0004
 -17981736.84249 -13744996.51249  21320499.0274   21320501.2164   21320498.8804
       242.0004        196.0004
  -5320846.24649  -4111746.98049  23675495.8864   23675497.4894   23675494.9114
       212.0004        149.0004
 -19476872.37649 -14676805.61149  20660864.0484   20660867.9194   20660864.3434
       239.0004        201.0004
 -17361675.18349 -13511093.92849  20739689.5274   20739694.9844   20739689.6674
       238.0004        192.0004
    447297.64549    611357.86049  24443878.8324   24443886.4244   24443877.8734
       209.0004        136.0004
  -4787455.82549  -3718387.36949  23919158.9954   23919163.9624   23919157.6334
       214.0004        147.0004
 11 10  9 13 21  0.0000000  0  9G06G18G07G21G19G16G03G30G22
 -17114411.32249 -13315387.99749  20717233.6244   20717238.4774   20717234.2684
       241.0004        199.0004
 -10621456.54849  -7826568.86049  22510929.9304   22510935.8874   22510929.1814
       228.0004        169.0004
   -129352.58249    -92786.20949  24439968.2574
       211.0004        115.0004
 -17943257.49149 -13715012.59149  21327821.1624   21327824.0864   21327820.4554
       241.0004        196.0004
  -5414733.94049  -4184906.18949  23657628.8514   23657631.7284   23657627.8834
       212.0004        153.0004
 -19488435.84249 -14685816.09149  20658664.3564   20658667.1224   20658664.1434
       240.0004        201.0004
 -17429105.97849 -13563637.36949  20726857.7174   20726862.7114   20726858.0294
       239.0004        192.0004
    568269.52349    705621.38849  24466898.9624   24466906.4594   24466897.6154
       210.0004        136.0004
  -4888867.11449  -3797408.93349  23899859.0464   23899866.0764   23899859.7074
       215.0004        146.0004
 11 10  9 13 21 30.0000000  0  8G06G18G21G19G16G03G30G22
 -17151257.60249 -13344099.37349  20710222.5214   20710226.6004   20710222.5494
       241.0004        199.0004
 -10676780.74649  -7869678.57149  22500402.5484   22500407.0004   22500403.4564
       231.0004        168.0004
 -17904403.84749 -13684737.02949  21335214.3024   21335217.4314   21335214.6904
       242.0004        196.0004
  -5508497.23049  -4257968.37149  23639786.8324   23639790.0234   23639785.2674
       213.0004        153.0004
 -19499448.98349 -14694397.75649  20656568.5354   20656571.4744   20656568.1754
       240.0004        202.0004
 -17496193.17349 -13615913.07949  20714092.7574   20714096.3654   20714092.4764
       241.0004        192.0004
    689312.25049    799940.18249  24489930.9924   24489943.1834   24489930.9034
       208.0004        135.0004
  -4990163.05149  -3876340.64449  23880584.0874   23880589.4564   23880584.4554
       212.0004        149.0004
 11 10  9 13 22  0.0000000  0  9G06G18G07G21G19G16G03G30G22
 -17187769.21649 -13372549.97049  20703274.5004   20703278.5244   20703274.8264
       241.0004        199.0004
 -10731683.18649  -7912459.64449  22489955.9814   22489959.7194   22489954.1644
       228.0004        170.0004
   -242039.72749    -43318.85449  24418523.5434
       208.0004        126.0004
 -17865177.32249 -13654170.88349  21342680.1344   21342681.5554   21342679.3914
       243.0004        196.0004
  -5602135.10449  -4330932.87549  23621967.4354   23621970.1574   23621966.1774
       209.0004        151.0004
 -19509910.65049 -14702549.69949  20654578.0834   20654580.6464   20654577.3474
       240.0004        202.0004
 -17562934.48549 -13667919.26849  20701392.6014   20701395.5234   20701391.7604
       241.0004        192.0004
    810423.79949    894312.54949  24512978.0994   24512986.8084   24512977.0594
       207.0004        134.0004
  -5091340.91449  -3955180.33949  23861329.5854   23861336.4824   23861330.4654
       213.0004        150.0004
 11 10  9 13 22 30.0000000  0  9G06G18G07G21G19G16G03G30G22
 -17223945.09449 -13400738.94949  20696391.0674   20696394.7234   20696390.6784
       241.0004        199.0004
 -10786161.76249  -7954910.42449  22479587.9844   22479590.5844   22479587.8954
       231.0004        168.0004
   -297617.33349    -86626.07349  24407947.9364   24407952.8204
       209.0004        145.0004
 -17825578.87949 -13623314.94449  21350214.8424   21350217.7084   21350214.3134
       243.0004        197.0004
  -5695646.36949  -4403798.71249  23604172.2824   23604174.7254   23604172.1434
       212.0004        151.0004
 -19519819.78849 -14710271.10149  20652691.7844   20652695.0134   20652691.3244
       239.0004        201.0004
 -17629328.36149 -13719654.72849  20688756.4754   20688761.7714   20688757.1184
       239.0004        192.0004
    931602.19049    988737.00349  24536036.7974   24536049.2584   24536037.0944
       203.0004        133.0004
  -5192397.55649  -4033925.61949  23842099.2784   23842106.1194   23842099.4504
       215.0004        150.0004
 11 10  9 13 23  0.0000000  0  9G06G18G07G21G19G16G03G30G22
 -17259784.11849 -13428665.45249  20689570.2654   20689574.9484   20689570.7454
       240.0004        199.0004
 -10840214.15949  -7997029.11649  22469302.7054   22469305.6164   22469302.8274
       231.0004        168.0004
   -352681.36049   -129533.03249  24397471.5114   24397474.8034   24397469.9164
       212.0004        147.0004
 -17785609.30949 -13592169.81449  21357821.4364   21357823.1964   21357820.6974
       243.0004        196.0004
  -5789029.73749  -4476564.92849  23586403.8404   23586406.3134   23586401.7504
       213.0004        154.0004
 -19529175.05849 -14717560.91849  20650911.7224   20650914.8134   20650911.4414
       239.0004        202.0004
 -17695372.90949 -13771117.96949  20676190.0984   20676193.4524   20676189.1304
       240.0004        192.0004
   1052845.61349   1083212.14849  24559109.4714   24559115.0454   24559107.9044
       202.0004        130.0004
  -5293329.89549  -4112574.04949  23822893.4694   23822899.6754   23822894.2264
       215.0004        152.0004
 11 10  9 13 23 30.0000000  0  9G06G18G07G21G19G16G03G30G22
 -17295286.49249 -13456329.61949  20682815.5844   20682818.9514   20682814.9364
       241.0004        199.0004
 -10893839.15549  -8038814.76449  22459096.6074   22459102.0144   22459097.3774
       229.0004        170.0004
   -407230.95049   -172039.18749  24387090.7754   24387094.0484   24387090.4264
       214.0004        146.0004
 -17745270.99749 -13560737.35749  21365496.5694   21365499.2694   21365496.4684
       242.0004        196.0004
  -5882285.33149  -4549231.50549  23568657.2794   23568659.6564   23568654.2754
       212.0004        152.0004
 -19537976.73649 -14724419.36349  20649237.1584   20649239.8824   20649236.6474
       238.0004        201.0004
 -17761067.86349 -13822308.82049  20663688.4224   20663692.1014   20663687.8224
       240.0004        193.0004
   1174150.87749   1177735.45149  24582194.3084   24582204.0154   24582194.6264
       202.0004        127.0004
  -5394136.22149  -4191124.28749  23803708.9064   23803715.1244   23803709.7174
       215.0004        152.0004
 11 10  9 13 24  0.0000000  0  9G06G18G07G21G19G16G03G30G22
 -17330450.71949 -13483730.29449  20676122.6794   20676127.2614   20676122.9684
       240.0004        199.0004
 -10947034.16749  -8080265.37549  22448975.6784   22448978.9484   22448975.2994
       230.0004        167.0004
   -461263.44649   -214142.38849  24376804.7014   24376812.0744   24376807.5184
       211.0004        147.0004
 -17704564.35349 -13529017.87949  21373243.1234   21373245.6434   21373242.8794
       242.0004        196.0004
  -5975411.03649  -4621796.90849  23550933.9874   23550939.5714   23550934.2284
       214.0004        156.0004
 -19546223.08549 -14730845.08249  20647667.3344   20647670.7884   20647667.5324
       239.0004        202.0004
 -17826410.53449 -13873225.15049  20651254.1814   20651258.1484   20651254.0534
       240.0004        193.0004
   1295516.60249   1272305.86049  24605289.1764   24605297.0614   24605287.1594
       201.0004        126.0004
  -5494813.12149  -4269573.72849  23784550.9294   23784557.4844   23784552.0054
       216.0004        151.0004
 11 10  9 13 24 30.0000000  0  9G06G18G07G21G19G16G03G30G22
 -17365276.27049 -13510867.06449  20669495.7304   20669500.6494   20669496.3364
       240.0004        199.0004
 -10999797.54349  -8121379.64449  22438933.8804   22438938.2744   22438934.3454
       230.0004        170.0004
   -514777.06549   -255841.24049  24366623.1574   24366629.1524   24366623.9394
       209.0004        147.0004
 -17663490.95349 -13497012.62849  21381059.4504   21381061.0474   21381058.9994
       242.0004        195.0004
  -6068406.34749  -4694260.73549  23533237.2764   23533241.8424   23533236.5714
       210.0004        154.0004
 -19553913.85949 -14736837.89249  20646204.3004   20646207.1884   20646204.2694
       240.0004        202.0004
 -17891399.95249 -13923866.23249  20638886.8704   20638890.5994   20638886.5074
       239.0004        193.0004
   1416940.45049   1366921.56949  24628395.6064   24628402.4174   24628397.1094
       198.0004        126.0004
  -5595358.17549  -4347920.37949  23765418.8924   23765424.5644   23765417.6684
       215.0004        152.0004
 11 10  9 13 25  0.0000000  0  9G06G18G07G21G19G16G03G30G22
 -17399762.75149 -13537739.62149  20662933.7004   20662937.5964   20662933.5574
       241.0004        199.0004
 -11052127.55449  -8162156.19349  22428977.1404   22428981.4854   22428977.0374
       231.0004        170.0004
   -567770.52349   -297134.78449  24356539.3324   24356545.3674   24356539.6884
       210.0004        149.0004
 -17622052.47149 -13464722.89149  21388944.5384   21388946.7214   21388943.9884
       242.0004        195.0004
  -6161270.63349  -4766622.41949  23515566.7564   23515570.0254   23515565.6934
       214.0004        155.0004
 -19561048.56349 -14742397.39749  20644846.7794   20644849.5464   20644846.6104
       239.0004        202.0004
 -17956035.31849 -13974231.42049  20626586.7354   20626591.2694   20626586.6904
       239.0004        192.0004
   1538419.63049   1461580.41049  24651513.9064   24651521.8014   24651511.8744
       201.0004        125.0004
  -5695768.60349  -4426162.16249  23746313.7694   23746317.0674   23746312.2774
       217.0004        154.0004
 11 10  9 13 25 30.0000000  0  9G06G18G07G21G19G16G03G30G22
 -17433908.90949 -13564346.99949  20656436.2364   20656439.9704   20656435.3784
       240.0004        199.0004
 -11104021.83249  -8202593.24749  22419101.9534   22419105.4664   22419100.0814
       231.0004        170.0004
   -620241.16949   -338020.97349  24346556.0654   24346558.4844   24346555.2064
       213.0004        149.0004
 -17580249.71949 -13432149.31649  21396899.3604   21396901.6854   21396898.7804
       241.0004        195.0004
  -6254001.97149  -4838880.53549  23497919.8904   23497923.9484   23497919.7484
       213.0004        156.0004
 -19567625.79949 -14747522.51149  20643593.6944   20643597.9994   20643593.9884
       238.0004        201.0004
 -18020314.05249 -14024318.72749  20614354.6124   20614359.3234   20614354.4524
       238.0004        192.0004
   1659952.67649   1556281.20649  24674639.9754   24674648.1404   24674639.1724
       196.0004        126.0004
  -5796041.42449  -4504296.73049  23727230.1704   23727235.9944   23727229.8134
       216.0004        154.0004
 11 10  9 13 26  0.0000000  0  9G06G18G07G21G19G16G03G30G22
 -17467713.97749 -13590688.59749  20650002.4634   20650006.9384   20650002.8644
       241.0004        199.0004
 -11155478.84949  -8242689.55349  22409307.8214   22409313.5504   22409308.7724
       230.0004        171.0004
   -672187.55249   -378498.64149  24336669.7424   24336675.2694   24336669.6694
       211.0004        149.0004
 -17538084.16449 -13399293.03749  21404922.6794   21404926.0584   21404922.6964
       241.0004        195.0004
  -6346599.82249  -4911034.60849  23480299.1404   23480303.3224   23480298.2444
       213.0004        155.0004
 -19573644.83749 -14752212.67549  20642450.1424   20642452.6294   20642449.8014
       241.0004        202.0004
 -18084234.94349 -14074127.18849  20602190.7294   20602195.4644   20602190.8414
       238.0004        192.0004
   1781537.15949   1651022.07049  24697777.0404   24697789.7844   24697774.0604
       195.0004        122.0004
  -5896173.85449  -4582321.91049  23708175.3014   23708180.6234   23708175.2184
       217.0004        153.0004
 11 10  9 13 26 30.0000000  0  9G06G18G07G21G19G16G03G30G22
 -17501177.89949 -13616764.35849  20643634.7624   20643638.6924   20643634.8864
       240.0004        199.0004
 -11206497.05549  -8282443.94249  22399601.1514   22399604.2064   22399599.4514
       230.0004        169.0004
   -723608.28249   -418566.70449  24326885.7844   24326889.4414   24326885.2774
       212.0004        148.0004
 -17495557.65349 -13366155.50149  21413015.9094   21413018.2574   21413015.6024
       242.0004        195.0004
  -6439063.93849  -4983084.51949  23462703.7624   23462706.9814   23462703.7524
       213.0004        154.0004
 -19579105.62549 -14756467.82849  20641410.2244   20641413.6324   20641410.3094
       239.0004        203.0004
 -18147797.15149 -14123656.15249  20590095.2484   20590099.7984   20590095.6694
       238.0004        192.0004
   1903170.61449   1745801.09949  24720919.4064                   24720920.8334
       187.0004        122.0004
  -5996163.73049  -4660236.00749  23689147.2414   23689152.1724   23689146.4744
       214.0004        148.0004
 11 10  9 13 27  0.0000000  0  9G06G18G07G21G19G16G03G30G22
 -17534299.78049 -13642573.59849  20637331.5464   20637335.9024   20637331.5864
       239.0004        199.0004
 -11257074.73649  -8321855.05749  22389976.0184   22389980.0894   22389975.8924
       230.0004        171.0004
   -774501.49349   -458223.70849  24317200.4214   24317204.3224   24317199.8774
       209.0004        148.0004
 -17452671.26349 -13332737.53249  21421177.1564   21421179.1554   21421176.1214
       242.0004        194.0004
  -6531393.10549  -5055029.23949  23445133.9354   23445138.0884   23445133.7234
       215.0004        156.0004
 -19584007.80249 -14760287.70649  20640477.4784   20640480.7694   20640477.3804
       240.0004        202.0004
 -18210998.89049 -14172904.24049  20578069.4064   20578073.3924   20578069.0404
       240.0004        194.0004
   2024850.57549   1840616.28749  24744076.7704   24744089.4494   24744081.2794
       189.0004        121.0004
  -6096008.20049  -4738036.79149  23670147.2544   23670152.2964   23670147.0304
       213.0004        149.0004
 11 10  9 13 27 30.0000000  0  9G06G18G07G21G19G16G03G30G22
 -17567078.34749 -13668115.32449  20631094.3684   20631098.1634   20631094.2924
       241.0004        199.0004
 -11307209.28649  -8360920.87049  22380435.8544   22380439.4824   22380434.9824
       232.0004        171.0004
   -824864.96949   -497467.91049  24307615.6094   24307622.2914   24307615.4954
       212.0004        150.0004
 -17409425.68249 -13299039.68349  21429405.6554   21429408.3084   21429405.6924
       240.0004        193.0004
  -6623585.64149  -5126867.49849  23427591.9874   23427593.7664   23427589.5964
       214.0004        156.0004
 -19588349.60449 -14763670.93149  20639651.8904   20639654.2424   20639651.6014
       240.0004        203.0004
 -18273838.00649 -14221869.76149  20566111.0924   20566115.2854   20566110.9344
       240.0004        194.0004
   2146575.85949   1935466.86749  24767240.9504                   24767241.3744
       197.0004        119.0004
  -6195703.81949  -4815721.58849  23651177.4224   23651181.3684   23651176.7724
       216.0004        151.0004
 11 10  9 13 28  0.0000000  0  9G06G18G07G21G19G16G03G30G22
 -17599513.51549 -13693389.47049  20624922.2094   20624926.2494   20624922.0884
       241.0004        199.0004
 -11356899.52949  -8399640.47849  22370979.8024   22370983.4034   22370978.7554
       230.0004        170.0004
   -874697.71749   -536298.58749  24298133.3944   24298138.2194   24298133.7414
       210.0004        150.0004
 -17365823.17749 -13265063.69849  21437703.4814   21437706.1994   21437702.9204
       240.0004        193.0004
  -6715641.17049  -5198598.99849  23410072.0774   23410075.9744   23410071.6934
       211.0004        153.0004
 -19592131.33849 -14766617.74349  20638931.7454   20638934.5634   20638931.5004
       240.0004        202.0004
 -18336314.12949 -14270552.43549  20554221.9844   20554225.9754   20554221.9294
       239.0004        194.0004
   2268343.28649   2030350.27749  24790413.2784   24790425.9724   24790409.3674
       190.0004        122.0004
  -6295248.89149  -4893289.06149  23632233.5014   23632238.7614   23632232.4814
       214.0004        150.0004
 11 10  9 13 28 30.0000000  0  9G06G18G07G21G19G16G03G30G22
 -17631604.24449 -13718395.22249  20618815.3794   20618819.5484   20618815.4534
       240.0004        199.0004
 -11406143.42349  -8438012.28149  22361608.7744   22361612.9304   22361608.5814
       231.0004        170.0004
   -923997.70749   -574714.11749  24288750.7244   24288756.6074   24288752.2184
       210.0004        148.0004
 -17321864.61249 -13230810.28049  21446068.1634   21446070.8074   21446068.2034
       240.0004        193.0004
  -6807558.26349  -5270222.62049  23392582.4004   23392586.0924   23392581.6534
       215.0004        159.0004
 -19595351.86249 -14769127.23449  20638318.7324   20638321.5754   20638318.5874
       240.0004        202.0004
 -18398425.33849 -14318950.75349  20542402.1344   20542406.1994   20542401.8584
       238.0004        193.0004
   2390151.27349   2125265.21449  24813594.9734   24813606.4494   24813593.7704
       196.0004        121.0004
  -6394640.03749  -4970736.56349  23613320.2184   23613324.2904   23613319.1964
       216.0004        153.0004
 11 10  9 13 29  0.0000000  0  9G06G18G07G21G19G16G03G30G22
 -17663349.70849 -13743131.93149  20612774.1944   20612778.8374   20612774.5724
       241.0004        200.0004
 -11454938.95149  -8476034.68649  22352323.7934   22352328.2084   22352322.0734
       232.0004        170.0004
   -972762.99549   -612712.97049  24279470.5644   24279477.1964   24279471.0084
       209.0004        147.0004
 -17277551.01049 -13196280.19649  21454500.8594   21454503.0824   21454500.4314
       240.0004        192.0004
  -6899336.06349  -5341737.71149  23375115.5084   23375120.2754   23375116.1294
       213.0004        158.0004
 -19598010.51549 -14771198.90849  20637812.8874   20637816.0704   20637812.7874
       240.0004        202.0004
 -18460170.24049 -14367063.64049  20530652.6534   20530657.2834   20530652.8894
       239.0004        194.0004
   2511997.60149   2220210.09149  24836779.9214                   24836784.0014
       191.0004        117.0004
  -6493874.24949  -5048061.77949  23594435.7944   23594440.0414   23594435.5824
       214.0004        152.0004
 11 10  9 13 29 30.0000000  0  9G06G18G07G21G19G16G03G30G22
 -17694749.33749 -13767599.16749  20606799.6434   20606802.9344   20606799.4284
       242.0004        200.0004
 -11503284.73749  -8513706.67449  22343122.9704   22343127.3414   22343123.4364
       231.0004        170.0004
  -1020992.24849   -650294.19349  24270292.7464   24270298.5464   24270294.2904
       209.0004        147.0004
 -17232884.25749 -13161474.93949  21463000.2184   21463003.2854   21463000.1674
       239.0004        191.0004
  -6990973.71549  -5413143.58049  23357676.9294   23357682.2394   23357677.3514
       212.0004        156.0004
 -19600106.87549 -14772832.43949  20637414.2984   20637417.2264   20637414.3014
       240.0004        203.0004
 -18521547.24049 -14414889.85449  20518973.7214   20518977.7114   20518973.4354
       239.0004        195.0004
   2633879.80449   2315182.89949  24859975.6284
       191.0004        119.0004
  -6592949.37449  -5125263.02849  23575581.4024   23575587.4564   23575581.9874
       215.0004        153.0004
 11 10  9 13 30  0.0000000  0  9G06G18G07G21G19G16G03G30G22
 -17725802.40349 -13791796.35049  20600890.8334   20600893.7624   20600890.6904
       242.0004        200.0004
 -11551178.68249  -8551026.55349  22334009.2894   22334013.6214   22334008.4594
       231.0004        170.0004
  -1068683.61849   -687456.27349  24261219.1924   24261223.4314   24261219.3774
       209.0004        148.0004
 -17187865.48849 -13126395.36849  21471567.7544   21471569.9734   21471567.0624
       241.0004        192.0004
  -7082470.01249  -5484439.31249  23340267.4274   23340270.9614   23340266.0404
       214.0004        159.0004
 -19601640.37649 -14774027.37149  20637121.9774   20637125.4694   20637122.0284
       239.0004        202.0004
 -18582554.75449 -14462428.15049  20507363.9024   20507368.4064   20507363.7374
       239.0004        195.0004
   2755796.00449   2410182.20549  24883174.4304
       188.0004        114.0004
  -6691862.34949  -5202337.93649  23556760.0654   23556764.8984   23556759.7034
       215.0004        152.0004
 11 10  9 13 30 30.0000000  0  9G06G18G07G21G19G16G03G30G22
 -17756507.99549 -13815722.76949  20595047.2764   20595050.8704   20595047.2144
       242.0004        200.0004
 -11598619.17949  -8587993.13049  22324982.6224   22324985.4404   22324981.9254
       231.0004        170.0004
  -1115835.41949   -724197.91049  24252247.2004   24252251.7034   24252246.2924
       213.0004        148.0004
 -17142495.91949 -13091042.46349  21480200.8454   21480202.9744   21480200.3204
       240.0004        191.0004
  -7173824.18849  -5555624.33149  23322882.7724   23322886.9314   23322881.2114
       213.0004        157.0004
 -19602610.48349 -14774783.28849  20636936.7894   20636940.6594   20636936.7594
       240.0004        202.0004
 -18643191.58149 -14509677.58749  20495824.3394   20495829.4684   20495824.0414
       239.0004        195.0004
   2877743.89749     32501.28249  24906384.2584
       191.0004         74.0004
  -6790610.67049  -5279284.50449  23537969.2674   23537974.2464   23537969.1084
       218.0004        153.0004
 11 10  9 13 31  0.0000000  0  9G06G18G07G21G19G16G03G30G22
 -17786866.17449 -13839378.48049  20589270.8324   20589274.1634   20589270.5504
       243.0004        200.0004
 -11645605.15449  -8624605.49949  22316040.3494   22316044.8944   22316040.0594
       230.0004        170.0004
  -1162446.53449   -760518.27349  24243377.8244   24243381.8374   24243376.6764
       209.0004        149.0004
 -17096777.39549 -13055417.64349  21488901.1184   21488903.7034   21488900.3594
       240.0004        192.0004
  -7265035.79349  -5626698.21249  23305526.7734   23305530.7654   23305524.9454
       213.0004        160.0004
 -19603017.21349 -14775100.22549  20636860.4294   20636863.0724   20636860.2684
       240.0004        202.0004
 -18703456.55249 -14556637.28049  20484357.3434   20484361.5324   20484356.7894
       241.0004        196.0004
   2999720.75749    127564.08549  24929596.3534
       188.0004        110.0004
  -6889191.97349  -5356100.97349  23519210.8044   23519213.5994   23519208.9424
       216.0004        152.0004
 11 10  9 13 31 30.0000000  0  9G06G18G07G21G19G16G03G30G22
 -17816875.55249 -13862762.39749  20583559.3594   20583563.7844   20583559.5744
       241.0004        200.0004
 -11692134.35749  -8660861.96849  22307186.6864   22307190.8444   22307186.1234
       232.0004        171.0004
  -1208514.86049   -796415.63049  24234608.9844   24234613.5144   24234610.4394
       208.0004        148.0004
 -17050710.88449 -13019521.66849  21497667.0064   21497669.8694   21497666.5184
       241.0004        192.0004
  -7356102.90449  -5697659.49949  23288196.3084   23288199.5084   23288196.6304
       216.0004        159.0004
 -19602859.37249 -14774977.22749  20636890.3054   20636892.9294   20636890.0784
       239.0004        202.0004
 -18763347.91349 -14603305.85349  20472961.2764   20472964.2264   20472960.8694
       243.0004        198.0004
   3121725.10549    222664.26849  24952808.6604
       177.0004        108.0004
  -6987602.85149  -5432784.61449  23500482.2564   23500486.2054   23500481.8174
       215.0004        153.0004
 11 10  9 13 32  0.0000000  0  9G06G18G07G21G19G16G03G30G22
 -17846535.87049 -13885874.31749  20577915.1404   20577919.2704   20577915.2674
       242.0004        200.0004
 -11738205.43849  -8696761.43949  22298419.9104   22298422.9764   22298419.2754
       231.0004        172.0004
  -1254039.45049   -831889.25749  24225945.7914   24225951.9564   24225945.2524
       209.0004        146.0004
 -17004298.24349 -12983355.98649  21506498.5714   21506501.7434   21506498.9754
       240.0004        192.0004
  -7447025.18149  -5768507.97549  23270895.4174   23270898.4874   23270894.1484
       217.0004        158.0004
 -19602137.05449 -14774414.38349  20637027.5734   20637030.6244   20637027.6114
       241.0004        202.0004
 -18822864.56449 -14649682.45149  20461635.3114   20461638.3424   20461634.7834
       242.0004        197.0004
   3243754.20159     24518.53059  24976031.8224
       179.0004         74.0004
  -7085841.13649  -5509333.77649  23481788.0124   23481791.8154   23481786.8974
       217.0004        153.0004
 11 10  9 13 32 30.0000000  0  8G06G18G07G21G19G16G03G22
 -17875845.76349 -13908713.17249  20572337.7854   20572341.9014   20572337.9554
       242.0004        201.0004
 -11783815.91449  -8732302.01149  22289739.9774   22289743.3614   22289738.5414
       231.0004        170.0004
  -1299018.03049   -866937.46149  24217387.6914   24217392.9404   24217387.9384
       211.0004        147.0004
 -16957540.13549 -12946921.09949  21515397.4244   21515399.4924   21515396.6664
       241.0004        192.0004
  -7537800.97249  -5839242.27349  23253619.0854   23253624.6574   23253618.5244
       213.0004        160.0004
 -19600849.15249 -14773410.81649  20637273.3814   20637275.7214   20637272.8104
       240.0004        202.0004
 -18882004.24549 -14695765.28749  20450379.2054   20450384.0094   20450380.0024
       241.0004        196.0004
  -7183903.39649  -5585745.77449  23463126.2214   23463131.2324   23463126.2674
       215.0004        154.0004
 11 10  9 13 33  0.0000000  0  8G06G18G07G21G19G16G03G22
 -17904804.88849 -13931278.71449  20566827.2484   20566831.2064   20566827.2084
       242.0004        201.0004
 -11828964.53449  -8767482.68349  22281148.5024   22281152.0894   22281147.8984
       233.0004        172.0004
  -1343449.16749   -901559.09649  24208933.0474   24208937.5794   24208933.1214
       209.0004        146.0004
 -16910438.11949 -12910218.23749  21524360.0114   21524362.5714   21524359.8114
       240.0004        191.0004
  -7628429.37349  -5909861.72749  23236375.3054   23236378.4914   23236373.3474
       214.0004        161.0004
 -19598995.30549 -14771966.25549  20637624.6044   20637628.9274   20637624.7794
       238.0004        202.0004
 -18940765.68449 -14741553.40249  20439198.9004   20439202.4064   20439198.8694
       242.0004        196.0004
  -7281787.38949  -5662018.83949  23444499.2014   23444505.5484   23444500.6234
       218.0004        154.0004
 11 10  9 13 33 30.0000000  0  8G06G18G07G21G19G16G03G22
 -17933412.47949 -13953570.32549  20561384.2504   20561387.2324   20561383.9664
       242.0004        201.0004
 -11873649.63449  -8802302.16849  22272645.1984   22272648.5264   22272644.4654
       232.0004        172.0004
  -1387331.57949   -935753.11649  24200582.4074   24200585.8204   24200583.2744
       209.0004        147.0004
 -16862993.68249 -12873248.54849  21533388.1364   21533391.0474   21533388.0894
       240.0004        191.0004
  -7718909.46449  -5980365.59249  23219156.6024   23219160.6324   23219155.0014
       215.0004        160.0004
 -19596575.02049 -14770080.30249  20638085.9564   20638089.2614   20638085.5814
       240.0004        202.0004
 -18999147.84249 -14787045.96649  20428088.8924   20428092.9994   20428088.9084
       241.0004        198.0004
  -7379490.19549  -5738150.74849  23425908.1284   23425913.2834   23425907.8664
       217.0004        155.0004
 11 10  9 13 34  0.0000000  0  8G06G18G07G21G19G16G03G22
 -17961668.55649 -13975588.03349  20556007.4094   20556010.0584   20556006.4444
       242.0004        201.0004
 -11917870.48249  -8836759.90349  22264230.1884   22264234.3304   22264229.7694
       234.0004        174.0004
  -1430664.40649   -969518.90749  24192334.8834   24192341.2704   24192336.0664
       208.0004        146.0004
 -16815208.90949 -12836013.66249  21542481.6574   21542484.0584   21542481.6184
       241.0004        191.0004
  -7809241.07549  -6050753.81549  23201966.7524   23201969.8254   23201964.8304
       216.0004        158.0004
 -19593589.14549 -14767753.65049  20638654.7744   20638657.3094   20638654.6804
       240.0004        202.0004
 -19057150.00949 -14832242.43249  20417051.8974   20417055.9974   20417051.9034
       242.0004        198.0004
  -7477009.90649  -5814139.94449  23407351.4414   23407355.7664   23407350.3764
       219.0004        157.0004
 11 10  9 13 34 30.0000000  0  8G06G18G07G21G19G16G03G22
 -17989571.51749 -13997330.58049  20550696.4774   20550700.5544   20550696.7624
       242.0004        201.0004
 -11961624.43749  -8870853.82549  22255904.2684   22255908.1824   22255903.5684
       232.0004        174.0004
  -1473445.39949  -1002854.72649  24184194.9664   24184198.8334   24184195.7054
       210.0004        148.0004
 -16767084.18949 -12798513.87949  21551639.2304   21551642.5434   21551639.1114
       241.0004        191.0004
  -7899422.32649  -6121024.82849  23184805.3914   23184809.8174   23184804.6294
       214.0004        161.0004
 -19590036.19849 -14764985.12449  20639331.0984   20639333.2374   20639330.8244
       241.0004        202.0004
 -19114769.61749 -14877140.80149  20406087.3394   20406090.8934   20406087.0004
       240.0004        197.0004
  -7574342.85649  -5889983.66049  23388828.2394   23388832.0954   23388828.2334
       217.0004        155.0004
 11 10  9 13 35  0.0000000  0  8G06G18G07G21G19G16G03G22
 -18017121.09649 -14018797.77449  20545454.0754   20545457.6924   20545454.5684
       242.0004        201.0004
 -12004910.08049  -8904582.81549  22247666.2404   22247670.4644   22247666.3264
       232.0004        173.0004
  -1515673.34649  -1035759.54349  24176160.0794   24176163.1864   24176159.9614
       211.0004        148.0004
 -16718621.03149 -12760750.39349  21560862.2444   21560864.0254   21560861.8504
       242.0004        192.0004
  -7989452.34349  -6191178.00249  23167673.1864   23167677.7994   23167673.3344
       215.0004        161.0004
 -19585915.96349 -14761774.55449  20640113.4784   20640117.0744   20640113.6514
       238.0004        201.0004
 -19172005.67749 -14921740.31349  20395194.9584   20395198.4614   20395194.8364
       240.0004        197.0004
  -7671486.58749  -5965679.89749  23370341.4774   23370347.8864   23370342.3064
       216.0004        157.0004
 11 10  9 13 35 30.0000000  0  8G06G18G07G21G19G16G03G22
 -18044316.04449 -14039988.62349  20540278.8944   20540282.8184   20540278.9754
       241.0004        201.0004
 -12047725.51149  -8937945.42249  22239520.1234   22239522.0694   22239519.6384
       233.0004        173.0004
  -1557346.59349  -1068232.16049  24168228.8104   24168233.7094   24168228.7144
       210.0004        147.0004
 -16669820.75349 -12722724.19849  21570148.4004   21570150.9654   21570147.8744
       241.0004        191.0004
  -8079329.69349  -6261212.23749  23150569.6924   23150573.5794   23150570.0854
       215.0004        160.0004
 -19581227.61849 -14758121.28949  20641006.0624   20641009.4044   20641005.9704
       239.0004        201.0004
 -19228856.62249 -14966039.73449  20384376.1154   20384380.3784   20384376.6004
       240.0004        196.0004
  -7768437.82749  -6041226.16049  23351892.3434   23351897.6324   23351892.2244
       215.0004        157.0004
 11 10  9 13 36  0.0000000  0  8G06G18G07G21G19G16G03G22
 -18071156.22049 -14060903.03349  20535171.1044   20535175.1474   20535171.1614
       241.0004        201.0004
 -12090069.68249  -8970940.80149  22231460.3284   22231464.8684   22231460.8224
       232.0004        173.0004
  -1598463.91749  -1100271.59549  24160405.3344   24160409.2964   24160404.3994
       212.0004        147.0004
 -16620685.28449 -12684436.82149  21579497.9654   21579501.3924   21579497.6304
       240.0004        191.0004
  -8169053.70449  -6331126.97549  23133494.5204   23133499.9054   23133494.8864
       212.0004        160.0004
 -19575971.56349 -14754025.66649  20642006.5834   20642010.0074   20642006.3894
       239.0004        202.0004
 -19285320.99449 -15010037.91849  20373632.2334   20373635.5944   20373631.1814
       241.0004        196.0004
  -7865194.53349  -6116620.82249  23333482.9134   23333485.6824   23333480.3624
       220.0004        158.0004
 11 10  9 13 36 30.0000000  0  8G06G18G07G21G19G16G03G22
 -18097641.04049 -14081540.53949  20530131.6494   20530135.8084   20530131.6204
       242.0004        201.0004
 -12131941.08649  -9003567.80249  22223494.0914   22223497.4594   22223493.2674
       234.0004        173.0004
  -1639024.24949  -1131877.03549  24152685.4154   24152690.7364   24152686.1254
       211.0004        148.0004
 -16571216.13349 -12645889.44149  21588912.5274   21588914.6984   21588911.7354
       240.0004        191.0004
  -8258623.75749  -6400921.72749  23116452.5784   23116455.7904   23116451.2374
       219.0004        162.0004
 -19570147.58049 -14749487.49449  20643114.6784   20643117.9314   20643114.8004
       240.0004        202.0004
 -19341397.65249 -15053733.98849  20362960.1904   20362964.8204   20362960.4564
       241.0004        197.0004
  -7961754.01949  -6191861.81549  23315108.5534   23315110.5134   23315106.1174
       222.0004        159.0004
 11 10  9 13 37  0.0000000  0  8G06G18G07G21G19G16G03G22
 -18123769.86149 -14101900.64249  20525159.3954   20525163.4394   20525159.3754
       242.0004        201.0004
 -12173338.42449  -9035825.39449  22215616.3634   22215618.9874   22215615.7634
       233.0004        173.0004
  -1679026.01949  -1163047.22149  24145074.1944   24145078.7704   24145074.1674
       212.0004        149.0004
 -16521414.37249 -12607082.87449  21598388.8164   21598391.1414   21598388.7134
       241.0004        190.0004
  -8348038.55549  -6470595.51249  23099437.3654   23099438.9154   23099436.5284
       216.0004        161.0004
 -19563755.03649 -14744506.29349  20644332.4384   20644334.8674   20644331.6364
       240.0004        203.0004
 -19397085.24749 -15097126.89049  20352364.8094   20352367.7644   20352364.2064
       242.0004        198.0004
  -8058113.68649  -6266947.11549  23296769.9584   23296773.4254   23296768.7154
       220.0004        158.0004
 11 10  9 13 37 30.0000000  0  8G06G18G07G21G19G16G03G22
 -18149542.02649 -14121982.84149  20520254.8734   20520259.1274   20520255.2584
       242.0004        201.0004
 -12214260.12449  -9067712.36649  22207828.1234   22207831.5634   22207829.1144
       233.0004        173.0004
  -1718468.09449  -1193781.26249  24137567.6414   24137573.1004   24137568.3204
       214.0004        150.0004
 -16471281.33349 -12568018.17949  21607929.3614   21607931.5354   21607929.3064
       241.0004        190.0004
  -8437297.15449  -6540147.60249  23082451.2664   23082453.9754   23082450.8934
       218.0004        160.0004
 -19556794.06949 -14739082.16749  20645656.4884   20645659.3694   20645656.4794
       240.0004        202.0004
 -19452382.34149 -15140215.51049  20341841.0424   20341845.2094   20341840.8944
       241.0004        197.0004
  -8154270.73449  -6341874.50549  23278470.5594   23278476.0144   23278469.7804
       216.0004        158.0004
 11 10  9 13 38  0.0000000  0  8G06G18G07G21G19G16G03G22
 -18174955.89449 -14141785.83549  20515419.4904   20515422.7844   20515419.5794
       243.0004        202.0004
 -12254703.97749  -9099226.98349  22200132.5224   22200135.9984   22200132.3454
       233.0004        172.0004
  -1757348.27049  -1224077.44649  24130170.5334   24130174.4884   24130170.8304
       214.0004        150.0004
 -16420817.90849 -12528696.03249  21617532.0254   21617534.2814   21617531.5504
       240.0004        190.0004
  -8526397.80749  -6609576.60849  23065496.6094   23065498.0814   23065496.2774
       220.0004        163.0004
 -19549263.34249 -14733214.06049  20647088.9984   20647092.0444   20647088.6914
       239.0004        202.0004
 -19507286.82249 -15182998.18849  20331392.2774   20331397.2024   20331392.4074
       240.0004        197.0004
  -8250221.64749  -6416641.25549  23260211.4944   23260216.8434   23260211.0644
       218.0004        160.0004
 11 10  9 13 38 30.0000000  0  8G06G18G07G21G19G16G03G22
 -18200011.95749 -14161310.04049  20510650.9194   20510654.7844   20510651.2334
       242.0004        202.0004
 -12294669.00349  -9130368.48249  22192527.4184   22192531.0054   22192527.2854
       233.0004        174.0004
  -1795666.22849  -1253935.55549  24122877.8274   24122883.5674   24122878.2864
       214.0004        149.0004
 -16370026.43749 -12489118.26949  21627197.3744   21627199.0954   21627196.5744
       241.0004        189.0004
  -8615340.61249  -6678882.61149  23048572.1874   23048572.8084   23048571.0354
       220.0004        162.0004
 -19541163.70849 -14726902.65749  20648629.9364   20648632.7704   20648629.8694
       239.0004        201.0004
 -19561797.89349 -15225474.30849  20321019.5454   20321023.8814   20321019.3854
       241.0004        197.0004
  -8345964.60949  -6491245.98449  23241992.7704   23241996.5474   23241992.7034
       220.0004        158.0004
 11 10  9 13 39  0.0000000  0  8G06G18G07G21G19G16G03G22
 -18224708.93149 -14180554.41749  20505951.1424   20505954.8104   20505951.4974
       242.0004        201.0004
 -12334153.55549  -9161135.58649  22185013.8084   22185016.7914   22185012.9744
       234.0004        174.0004
  -1833420.04049  -1283354.06049  24115693.4464   24115698.6624   24115693.7774
       213.0004        150.0004
 -16318907.73449 -12449285.51649  21636924.9284   21636927.1564   21636924.9034
       240.0004        189.0004
  -8704123.57049  -6748064.03849  23031677.6394   23031678.3034   23031676.4104
       222.0004        164.0004
 -19532494.50549 -14720147.44049  20650280.5654   20650282.5604   20650280.4764
       241.0004        201.0004
 -19615914.01149 -15267642.68849  20310722.2944   20310726.0354   20310721.8054
       243.0004        198.0004
  -8441496.08049  -6565685.92549  23223815.2924   23223817.3664   23223813.9014
       221.0004        157.0004
 11 10  9 13 39 30.0000000  0  8G06G18G07G21G19G16G03G22
 -18249046.51749 -14199518.76349  20501319.8134   20501323.6694   20501320.0224
       241.0004        202.0004
 -12373156.46249  -9191527.39249  22177591.0144   22177594.6554   22177591.2364
       232.0004        174.0004
  -1870609.29049  -1312332.66749  24108615.4764   24108621.1824   24108617.0004
       212.0004        151.0004
 -16267463.60949 -12409199.19249  21646714.3414   21646716.9444   21646713.5494
       240.0004        188.0004
  -8792745.98149  -6817120.39149  23014812.9274   23014812.7774   23014811.7874
       222.0004        162.0004
 -19523256.00349 -14712948.61049  20652038.3284   20652041.3264   20652038.2774
       240.0004        202.0004
 -19669633.86249 -15309502.29249  20300499.6104   20300502.9644   20300499.9394
       243.0004        199.0004
  -8536814.24249  -6639959.65649  23205674.1414   23205679.9764   23205673.3094
       219.0004        160.0004
 11 10  9 13 40  0.0000000  0  8G06G18G07G21G19G16G03G22
 -18273023.79949 -14218202.35049  20496756.9974   20496761.0304   20496757.5904
       241.0004        201.0004
 -12411676.30049  -9221542.78449  22170261.6284   22170264.2114   22170261.6864
       233.0004        175.0004
  -1907232.23149  -1340869.98049  24101648.1514   24101652.4024   24101648.6374
       215.0004        152.0004
 -16215694.73449 -12368859.82249  21656565.4654   21656568.2574   21656564.8774
       238.0004        188.0004
  -8881206.91549  -6886050.91549  22997978.4304   22997979.9154   22997978.5354
       221.0004        163.0004
 -19513447.75149 -14705305.80649  20653904.8764   20653907.7194   20653904.8414
       241.0004        202.0004
 -19722956.13349 -15351052.08649  20290352.2854   20290356.3094   20290352.3584
       242.0004        199.0004
  -8631915.99849  -6714064.69649  23187576.8164   23187583.0954   23187577.8074
       220.0004        162.0004
 11 10  9 13 40 30.0000000  0  8G06G18G07G21G19G16G03G22
 -18296640.12649 -14236604.65849  20492263.6674   20492267.0614   20492263.1644
       242.0004        201.0004
 -12449711.28249  -9251180.36949  22163023.2614   22163026.6914   22163022.6484
       235.0004        175.0004
  -1943287.37149  -1368964.85149  24094785.7384   24094792.3354   24094787.9994
       212.0004        153.0004
 -16163603.43949 -12328269.21849  21666478.0184   21666480.9594   21666478.5994
       241.0004        189.0004
  -8969505.19749  -6954854.67149  22981176.0874   22981177.0344   22981174.6714
       221.0004        164.0004
 -19503069.53249 -14697218.87649  20655879.9084   20655882.7534   20655879.1404
       240.0004        202.0004
 -19775879.10349 -15392290.72649  20280281.2984   20280286.0164   20280281.0244
       243.0004        200.0004
  -8726798.54449  -6787998.96649  23169522.5094   23169526.8674   23169522.2874
       222.0004        162.0004
 11 10  9 13 41  0.0000000  0  8G06G18G07G21G19G16G03G22
 -18319895.25749 -14254725.52649  20487837.1414   20487841.9164   20487837.5394
       241.0004        201.0004
 -12487260.65549  -9280439.54049  22155877.6924   22155881.6664   22155877.6144
       234.0004        175.0004
  -1978774.19549  -1396616.86549  24088033.3194   24088037.9374   24088034.3204
       210.0004        148.0004
 -16111191.12849 -12287428.46049  21676451.7464   21676454.0774   21676451.8404
       239.0004        189.0004
  -9057639.94049  -7023531.00449  22964404.5204   22964406.3744   22964403.7234
       221.0004        165.0004
 -19492121.15449 -14688687.67449  20657963.0864   20657966.2294   20657962.8014
       239.0004        201.0004
 -19828401.58149 -15433217.29649  20270287.2344   20270291.4394   20270286.6824
       243.0004        200.0004
  -8821459.70549  -6861760.72749  23151509.7074   23151512.0334   23151507.3794
       221.0004        160.0004
 11 10  9 13 41 30.0000000  0  8G06G18G07G21G19G16G03G22
 -18342788.52549 -14272564.42849  20483481.3924   20483485.1034   20483481.4744
       242.0004        201.0004
 -12524322.73049  -9309319.02349  22148825.6924   22148828.4394   22148824.7624
       234.0004        174.0004
  -2013691.48449  -1423825.13249  24081389.0494   24081393.2574   24081389.3394
       212.0004        149.0004
 -16058458.82549 -12246338.35949  21686486.0984   21686489.3834   21686486.3534
       239.0004        187.0004
  -9145610.18849  -7092079.17449  22947664.7324   22947664.3284   22947663.9294
       222.0004        165.0004
 -19480603.25949 -14679712.68149  20660153.4294   20660157.8524   20660153.8824
       238.0004        201.0004
 -19880522.85849 -15473831.25049  20260367.7584   20260372.5364   20260368.1154
       242.0004        200.0004
  -8915896.60649  -6935347.75749  23133539.3734   23133541.7214   23133536.1344
       223.0004        161.0004
 11 10  9 13 42  0.0000000  0  8G06G18G07G21G19G16G03G22
 -18365318.54549 -14290120.27449  20479193.9264   20479197.6764   20479194.0604
       241.0004        201.0004
 -12560895.44149  -9337817.17449  22141865.5464   22141868.9264   22141864.6684
       234.0004        174.0004
  -2048037.39549  -1450588.13049  24074851.8204   24074858.6004   24074852.2004
       210.0004        150.0004
 -16005407.29249 -12204999.51749  21696582.6674   21696584.8134   21696582.5744
       240.0004        189.0004
  -9233414.41949  -7160498.00349  22930955.5364   22930956.5104   22930954.7744
       222.0004        162.0004
 -19468514.70749 -14670293.03349  20662455.6314   20662457.9694   20662455.4244
       240.0004        202.0004
 -19932240.28749 -15514130.52149  20250526.7554   20250530.6674   20250526.8954
       243.0004        200.0004
  -9010105.87249  -7008757.38949  23115610.5614   23115614.1354   23115610.1644
       220.0004        161.0004
 11 10  9 13 42 30.0000000  0  8G06G18G07G21G19G16G03G22
 -18387485.42149 -14307393.14449  20474976.2954   20474979.5404   20474975.9304
       242.0004        200.0004
 -12596978.61249  -9365933.85649  22134998.9724   22135001.5934   22134998.9314
       234.0004        175.0004
  -2081811.58749  -1476905.61949  24068425.0434   24068430.6974   24068426.1664
       213.0004        152.0004
 -15952039.42949 -12163414.16849  21706738.1264   21706739.8624   21706737.3704
       240.0004        189.0004
  -9321052.13449  -7228787.05149  22914278.0184   22914280.8944   22914278.0074
       220.0004        166.0004
 -19455856.05949 -14660429.15349  20664864.6124   20664866.7624   20664864.2824
       241.0004        202.0004
 -19983553.38349 -15554114.72649  20240762.8174   20240765.9334   20240762.4714
       244.0004        200.0004
  -9104085.41049  -7081988.03649  23097726.2964   23097729.4054   23097725.4684
       219.0004        161.0004
 11 10  9 13 43  0.0000000  0  8G06G18G07G21G19G16G03G22
 -18409287.99649 -14324382.14949  20470827.0614   20470830.5584   20470826.8604
       240.0004        201.0004
 -12632570.31149  -9393667.59049  22128226.4254   22128229.6984   22128225.8054
       234.0004        175.0004
  -2115012.40749  -1502776.34049  24062109.2874   24062112.7344   24062109.2174
       215.0004        150.0004
 -15898355.70249 -12121582.70749  21716952.6324   21716955.9644   21716953.0664
       239.0004        189.0004
  -9408521.63549  -7296945.01649  22897634.1164   22897635.8074   22897632.8524
       220.0004        166.0004
 -19442627.27249 -14650121.01449  20667381.3554   20667384.0154   20667381.2924
       240.0004        201.0004
 -20034460.05749 -15593782.24049  20231075.5764   20231079.0264   20231075.8994
       244.0004        201.0004
  -9197832.10749  -7155037.22849  23079887.2814   23079891.1584   23079886.9564
       221.0004        161.0004
 11 10  9 13 43 30.0000000  0  8G06G18G07G21G19G16G03G22
 -18430726.07649 -14341087.11549  20466746.6724   20466751.1414   20466746.9054
       240.0004        201.0004
 -12667669.22849  -9421017.32749  22121546.6784   22121551.0434   22121547.1994
       234.0004        175.0004
  -2147639.21949  -1528199.77749  24055898.5674   24055902.9844   24055899.7724
       212.0004        151.0004
 -15844357.84549 -12079506.45949  21727229.0634   21727231.1234   21727228.3834
       239.0004        188.0004
  -9495822.35349  -7364971.47149  22881020.3374   22881022.0994   22881019.5394
       220.0004        165.0004
 -19428828.34549 -14639368.59649  20670007.5124   20670010.2804   20670007.0594
       241.0004        202.0004
 -20084959.71349 -15633132.58149  20221465.6174   20221469.3554   20221465.2684
       243.0004        201.0004
  -9291343.77749  -7227903.29749  23062092.0734   23062095.8304   23062091.4254
       222.0004        162.0004
 11 10  9 13 44  0.0000000  0  8G06G18G07G21G19G16G03G22
 -18451798.66749 -14357507.30149  20462737.1924   20462741.1694   20462737.2814
       241.0004        201.0004
 -12702274.48549  -9447982.39649  22114962.1564   22114964.7924   22114961.5474
       235.0004        177.0004
  -2179690.73349  -1553174.94649  24049800.3324   24049804.7264   24049800.0364
       215.0004        151.0004
 -15790047.02849 -12037186.35449  21737563.4404   21737565.8804   21737563.0554
       239.0004        187.0004
  -9582953.12249  -7432865.51849  22864439.1144   22864441.8894   22864438.5944
       220.0004        165.0004
 -19414458.95849 -14628171.66649  20672741.7494   20672744.7974   20672741.4104
       239.0004        202.0004
 -20135050.78149 -15672164.54949  20211932.8404   20211937.4814   20211932.7174
       243.0004        201.0004
  -9384617.67249  -7300584.10149  23044342.7914   23044346.0924   23044342.7694
       225.0004        165.0004
 11 10  9 13 44 30.0000000  0  8G06G18G07G21G19G16G03G22
 -18472505.19649 -14373642.23949  20458796.7334   20458800.9974   20458796.5474
       241.0004        201.0004
 -12736384.46449  -9474561.55349  22108470.7454   22108473.6914   22108471.0274
       235.0004        176.0004
  -2211165.64149  -1577700.82649  24043809.9634   24043815.4284   24043811.4104
       213.0004        150.0004
 -15735424.42649 -11994623.29749  21747958.3254   21747960.6714   21747957.7254
       239.0004        188.0004
  -9669912.42049  -7500625.94549  22847891.8114   22847894.5154   22847890.9284
       220.0004        167.0004
 -19399519.19049 -14616530.28949  20675584.2634   20675587.7554   20675584.0734
       239.0004        201.0004
 -20184731.63949 -15710876.88249  20202478.7454   20202483.2354   20202478.8264
       243.0004        200.0004
  -9477650.50249  -7373077.05749  23026637.5384   23026642.7264   23026638.9544
       221.0004        163.0004
 11 10  9 13 45  0.0000000  0  8G06G18G07G21G19G16G03G22
 -18492844.71349 -14389491.20149  20454926.8344   20454930.7774   20454926.8064
       241.0004        201.0004
 -12769997.46549  -9500753.45849  22102074.8094   22102077.1584   22102073.9694
       234.0004        176.0004
  -2242063.23149  -1601776.83249  24037932.2974   24037934.3354   24037932.6094
       218.0004        152.0004
 -15680491.56949 -11951818.48949  21758411.3414   21758414.2644   21758410.6524
       238.0004        187.0004
  -9756699.21549  -7568251.93149  22831378.6004   22831379.7184   22831375.7664
       221.0004        167.0004
 -19384008.98249 -14604444.40549  20678535.4204   20678539.2224   20678535.3324
       240.0004        201.0004
 -20234000.68549 -15749268.32349  20193104.0424   20193107.4294   20193103.7614
       243.0004        200.0004
  -9570439.62949  -7445380.12649  23008979.2564   23008984.8984   23008980.0144
       219.0004        161.0004
 11 10  9 13 45 30.0000000  0  8G06G18G07G21G19G16G03G22
 -18512817.50649 -14405054.39549  20451125.0634   20451129.8834   20451125.6884
       240.0004        201.0004
 -12803113.30549  -9526557.96249  22095772.2734   22095776.1964   22095772.4874
       234.0004        176.0004
  -2272382.89549  -1625402.51049  24032161.2654   24032165.3814   24032162.3364
       216.0004        152.0004
 -15625250.61149 -11908773.59949  21768922.6714   21768926.1084   21768923.1364
       239.0004        188.0004
  -9843313.28649  -7635743.35649  22814895.3484   22814897.1184   22814893.7724
       223.0004        167.0004
 -19367929.19849 -14591914.70949  20681596.0494   20681598.6664   20681595.5014
       240.0004        201.0004
 -20282857.26049 -15787338.35349  20183806.5064   20183810.9514   20183806.2464
       242.0004        200.0004
  -9662983.53349  -7517492.12549  22991371.8304   22991374.1494   22991371.2264
       227.0004        163.0004
 11 10  9 13 46  0.0000000  0  8G06G18G07G21G19G16G03G22
 -18532421.99949 -14420330.60249  20447394.6724   20447399.1434   20447394.6954
       241.0004        201.0004
 -12835729.92049  -9551973.46949  22089565.9774   22089568.7924   22089565.5074
       233.0004        175.0004
  -2302122.89649  -1648576.52449  24026503.1844   24026505.9984   24026502.4694
       215.0004        152.0004
 -15569702.25149 -11865489.16049  21779494.5674   21779496.6874   21779493.6344
       240.0004        188.0004
  -9929752.62949  -7703098.63949  22798445.5494   22798447.6734   22798444.0124
       221.0004        164.0004
 -19351278.91849 -14578940.46449  20684764.6244   20684767.1304   20684764.4064
       240.0004        202.0004
 -20331299.60349 -15825085.61349  20174588.1404   20174591.9834   20174588.0614
       242.0004        201.0004
  -9755278.37549  -7589410.05449  22973808.5194   22973811.2544   22973806.8704
       225.0004        166.0004
 11 10  9 13 46 30.0000000  0  8G06G18G07G21G19G16G03G22
 -18551658.66749 -14435320.20049  20443735.0204   20443738.5184   20443734.7614
       241.0004        202.0004
 -12867847.05249  -9576999.76849  22083454.7024   22083457.5714   22083453.9954
       234.0004        177.0004
  -2331283.60349  -1671299.14849  24020951.2004   24020957.9824   24020953.6844
       212.0004        151.0004
 -15513848.67949 -11821966.90749  21790121.9074   21790125.1414   21790122.2654
       238.0004        188.0004
 -10016017.24349  -7770317.78049  22782028.9064   22782032.7344   22782028.8654
       220.0004        168.0004
 -19334059.40049 -14565522.65249  20688040.6084   20688043.6344   20688040.3274
       240.0004        201.0004
 -20379327.24949 -15862509.73549  20165448.7274   20165452.7604   20165448.6884
       242.0004        200.0004
  -9847322.34649  -7661132.48849  22956291.9714   22956295.7554   22956291.0534
       225.0004        165.0004
 11 10  9 13 47  0.0000000  0  8G06G18G07G21G19G16G03G22
 -18570525.27549 -14450021.43349  20440144.4584   20440148.2744   20440144.5694
       241.0004        201.0004
 -12899461.91649  -9601634.68049  22077437.9874   22077441.9664   22077437.5304
       233.0004        176.0004
  -2359862.46449  -1693568.35949  24015514.7284   24015519.6954   24015514.6104
       213.0004        151.0004
 -15457690.01849 -11778206.90249  21800809.8994   21800811.7624   21800809.4934
       240.0004        187.0004
 -10102104.37849  -7837398.59249  22765648.3924   22765651.5684   22765647.0174
       220.0004        169.0004
 -19316268.99749 -14551659.99349  20691426.1844   20691429.2654   20691426.1304
       241.0004        201.0004
 -20426937.08149 -15899608.28449  20156388.7314   20156392.8944   20156388.8854
       243.0004        200.0004
  -9939111.28049  -7732656.21949  22938824.2964   22938828.3304   22938823.4414
       223.0004        163.0004
 11 10  9 13 47 30.0000000  0  8G06G18G07G21G19G16G03G22
 -18589022.48649 -14464434.82949  20436623.8384   20436628.6074   20436624.1254
       240.0004        201.0004
 -12930574.72349  -9625878.38349  22071517.6364   22071520.7174   22071517.1544
       233.0004        175.0004
  -2387859.66149  -1715384.33949  24010187.4344   24010191.4744   24010188.2694
       215.0004        153.0004
 -15401228.81049 -11734211.15549  21811553.9684   21811555.6744   21811553.3004
       240.0004        186.0004
 -10188014.21149  -7904341.25049  22749300.5594   22749304.0384   22749299.2964
       222.0004        169.0004
 -19297909.23749 -14537353.68949  20694920.4864   20694923.1094   20694920.2754
       242.0004        201.0004
 -20474128.79949 -15936381.03349  20147408.6114   20147412.8354   20147408.4954
       242.0004        201.0004
 -10030643.85049  -7803980.19349  22921406.8964   22921410.1884   22921406.2364
       225.0004        165.0004
 11 10  9 13 48  0.0000000  0  8G06G18G07G21G19G16G03G22
 -18607149.45149 -14478559.72249  20433175.3784   20433178.9674   20433175.5984
       241.0004        201.0004
 -12961184.07749  -9649729.80449  22065692.4404   22065696.2274   22065691.6574
       233.0004        175.0004
  -2415274.23149  -1736746.30749  24004969.8864   24004975.0184   24004969.3734
       214.0004        151.0004
 -15344466.03049 -11689980.41349  21822355.1114   21822357.2314   21822354.4604
       239.0004        187.0004
 -10273745.55449  -7971144.86849  22732985.2024   22732988.2164   22732984.8394
       220.0004        167.0004
 -19278979.94949 -14522603.59549  20698521.8064   20698525.9334   20698521.6214
       240.0004        201.0004
 -20520901.08549 -15972826.95449  20138507.8954   20138512.2414   20138507.9154
       241.0004        200.0004
 -10121917.21349  -7875102.18749  22904038.3284   22904041.4014   22904038.3094
       226.0004        166.0004
 11 10  9 13 48 30.0000000  0  8G06G18G07G21G19G16G03G22
 -18624905.41449 -14492395.51849  20429796.0534   20429799.9234   20429796.3474
       241.0004        201.0004
 -12991288.37949  -9673187.67449  22059963.8244   22059966.7614   22059963.8124
       233.0004        175.0004
  -2442104.94749  -1757653.32749  23999864.3934   23999869.1124   23999865.2284
       213.0004        152.0004
 -15287403.63949 -11645516.20849  21833213.8014   21833215.7004   21833213.3524
       240.0004        186.0004
 -10359297.07449  -8037808.31849  22716707.2974   22716708.8554   22716705.3744
       223.0004        170.0004
 -19259481.37649 -14507409.89149  20702232.5964   20702236.1114   20702232.5434
       241.0004        201.0004
 -20567252.75449 -16008945.11449  20129687.3784   20129691.6194   20129687.4984
       242.0004        201.0004
 -10212928.48849  -7946019.95449  22886719.2494   22886722.4694   22886718.1274
       222.0004        163.0004
 11 10  9 13 49  0.0000000  0  8G06G18G07G21G19G16G03G22
 -18642289.67949 -14505941.68149  20426487.9534   20426491.6534   20426487.9904
       241.0004        201.0004
 -13020886.96049  -9696251.45549  22054331.3394   22054334.3764   22054331.0924
       234.0004        177.0004
  -2468351.16749  -1778104.89149  23994869.4154   23994874.6624   23994870.7954
       211.0004        151.0004
 -15230042.50449 -11600819.22049  21844129.1664   21844131.6554   21844128.8144
       239.0004        186.0004
 -10444667.47549  -8104330.63849  22700460.4784   22700463.9174   22700459.6394
       222.0004        171.0004
 -19239413.52349 -14491772.60749  20706051.4624   20706054.4594   20706051.7724
       241.0004        201.0004
 -20613182.38349 -16044734.41449  20120947.8564   20120951.6944   20120947.6814
       242.0004        201.0004
 -10303674.95649  -8016731.37149  22869449.5834   22869454.0134   22869449.4524
       222.0004        165.0004
 11 10  9 13 49 30.0000000  0  8G06G18G07G21G19G16G03G22
 -18659301.98149 -14519198.00749  20423250.3554   20423254.5034   20423250.4464
       241.0004        200.0004
 -13049978.83949  -9718920.42149  22048796.4924   22048798.6354   22048795.6804
       235.0004        177.0004
  -2494012.31349  -1798100.57649  23989986.0584   23989990.9104   23989987.0834
       212.0004        151.0004
 -15172383.98649 -11555890.50549  21855101.2174   21855103.7324   21855100.7904
       239.0004        186.0004
 -10529855.96649  -8170711.22349  22684249.5514   22684252.0644   22684249.3094
       223.0004        170.0004
 -19218776.87049 -14475692.11249  20709979.3324   20709981.1254   20709979.0734
       241.0004        201.0004
 -20658688.43549 -16080193.66049  20112287.9294   20112292.0264   20112288.0634
       242.0004        200.0004
 -10394154.22249  -8087234.59649  22852234.1064   22852235.8184   22852232.8094
       224.0004        165.0004
 11 10  9 13 50  0.0000000  0  8G06G18G07G21G19G16G03G22
 -18675941.44049 -14532163.79949  20420083.9754   20420088.1854   20420083.9264
       241.0004        201.0004
 -13078562.64349  -9741193.48049  22043355.5034   22043358.9174   22043355.5334
       233.0004        177.0004
  -2519087.27349  -1817639.44749  23985215.2494   23985220.0164   23985215.5224
       211.0004        151.0004
 -15114429.87549 -11510731.45949  21866129.2574   21866131.2504   21866128.7554
       238.0004        185.0004
 -10614861.18149  -8236949.00449  22668073.4774   22668076.5104   22668073.1774
       222.0004        170.0004
 -19197571.64349 -14459168.54649  20714013.4734   20714016.7164   20714013.3774
       241.0004        201.0004
 -20703769.52149 -16115321.75149  20103709.7134   20103712.9994   20103709.2954
       243.0004        200.0004
 -10484363.49349  -8157527.42849  22835067.1454   22835070.6424   22835066.0624
       225.0004        167.0004
 11 10  9 13 50 30.0000000  0  8G06G18G07G21G19G16G03G22
 -18692207.74049 -14544838.82649  20416989.4414   20416992.9284   20416989.3924
       242.0004        201.0004
 -13106637.43949  -9763069.89649  22038014.4284   22038017.0594   22038013.1034
       235.0004        177.0004
  -2543575.60849  -1836721.24349  23980554.4414   23980559.6024   23980554.5024
       215.0004        148.0004
 -15056181.62649 -11465343.21949  21877213.6254   21877215.6504   21877213.7144
       239.0004        185.0004
 -10699682.31349  -8303043.32449  22651932.8944   22651935.1184   22651932.3974
       223.0004        171.0004
 -19175798.08349 -14442202.13849  20718157.1284   20718160.3034   20718157.0254
       241.0004        201.0004
 -20748424.76549 -16150118.01849  20095212.0384   20095215.7874   20095211.4624
       243.0004        200.0004
 -10574300.07049  -8227607.78149  22817952.2394   22817955.7404   22817952.2604
       223.0004        166.0004
 11 10  9 13 51  0.0000000  0  8G06G18G07G21G19G16G03G22
 -18708100.02649 -14557222.41249  20413964.9574   20413968.3054   20413964.8134
       240.0004        201.0004
 -13134201.87949  -9784548.65049  22032768.1144   22032771.8274   22032767.9514
       234.0004        178.0004
  -2567476.69649  -1855345.43949  23976005.2074   23976011.1284   23976007.2404
       211.0004        148.0004
 -14997640.01349 -11419726.37049  21888354.0634   21888356.2064   21888353.9914
       238.0004        184.0004
 -10784317.77849  -8368992.98549  22635828.2904   22635830.1374   22635827.3814
       225.0004        172.0004
 -19153456.34949 -14424793.00949  20722409.0274   20722411.8744   20722409.0134
       242.0004        201.0004
 -20792652.33649 -16184581.04149  20086795.0104   20086799.4504   20086795.2524
       242.0004        200.0004
 -10663961.17549  -8297473.45649  22800891.5084   22800893.3964   22800889.8724
       224.0004        166.0004
 11 10  9 13 51 30.0000000  0  8G06G18G07G21G19G16G03G22
 -18723618.48849 -14569314.69449  20411010.6084   20411015.1304   20411011.1784
       240.0004        200.0004
 -13161256.02449  -9805629.76149  22027619.9474   22027622.9834   22027619.7854
       235.0004        177.0004
  -2590790.27649  -1873511.85249  23971570.9844   23971573.2884   23971571.6334
       215.0004        148.0004
 -14938807.81149 -11373883.09049  21899550.1324   21899552.1734   21899549.2764
       238.0004        184.0004
 -10868768.03249  -8434798.30849  22619756.6504   22619758.8934   22619756.9694
       224.0004        171.0004
 -19130547.47449 -14406941.93549  20726767.5434   20726771.1534   20726767.7354
       240.0004        201.0004
 -20836452.09949 -16218710.69449  20078461.1464   20078464.3564   20078460.7264
       243.0004        201.0004
 -10753345.02049  -8367123.11449  22783880.2734   22783883.5334   22783879.7004
       221.0004        167.0004
 11 10  9 13 52  0.0000000  0  8G06G18G07G21G19G16G03G22
 -18738761.12249 -14581114.12949  20408129.4764   20408134.1084   20408129.7704
       241.0004        201.0004
 -13187797.41149  -9826311.31649  22022569.1364   22022572.9604   22022568.8044
       235.0004        178.0004
  -2613514.38149  -1891218.89749  23967243.6584   23967250.6424   23967246.4224
       211.0004        147.0004
 -14879685.09249 -11327813.44549  21910799.3394   21910802.1784   21910799.4164
       237.0004        183.0004
 -10953029.72749  -8500456.69849  22603723.2494   22603724.4374   22603721.5584
       225.0004        170.0004
 -19107070.66049 -14388648.30749  20731235.1444   20731238.4414   20731234.9554
       241.0004        200.0004
 -20879821.19849 -16252504.77549  20070207.9134   20070211.7384   20070207.4424
       243.0004        201.0004
 -10842447.69749  -8436553.67149  22766923.8974   22766927.6094   22766924.5304
       223.0004        166.0004
 11 10  9 13 52 30.0000000  0  8G06G18G07G21G19G16G03G22
 -18753528.41749 -14592621.10649  20405320.7184   20405323.5934   20405320.6864
       242.0004        201.0004
 -13213826.14249  -9846593.39449  22017615.6134   22017619.1034   22017615.7164
       235.0004        177.0004
  -2635649.47649  -1908466.99549  23963033.5454   23963038.4614   23963033.2504
       213.0004        147.0004
 -14820274.04049 -11281519.12549  21922105.5494   21922108.3904   21922105.0954
       236.0004        184.0004
 -11037103.06749  -8565968.34649  22587724.8424   22587725.3194   22587723.2764
       226.0004        172.0004
 -19083027.08049 -14369913.05749  20735811.5294   20735814.3304   20735810.9134
       242.0004        201.0004
 -20922759.23649 -16285962.96249  20062037.1094   20062040.8214   20062036.7294
       243.0004        202.0004
 -10931267.73849  -8505763.96449  22750023.4054   22750026.0924   22750023.5014
       224.0004        168.0004
 11 10  9 13 53  0.0000000  0  8G06G18G07G21G19G16G03G22
 -18767919.72149 -14603835.09449  20402581.8754   20402585.1584   20402581.7314
       241.0004        201.0004
 -13239340.82549  -9866474.91149  22012760.6784   22012763.7004   22012760.2934
       233.0004        177.0004
  -2657194.57049  -1925255.34449  23958933.4724   23958938.6604   23958934.4184
       213.0004        147.0004
 -14760576.36649 -11235001.46949  21933465.2534   21933467.7914   21933464.8314
       236.0004        182.0004
 -11120986.84749  -8631332.26649  22571760.6624   22571763.4884   22571760.6374
       224.0004        171.0004
 -19058416.98349 -14350736.35349  20740493.6134   20740497.1834   20740493.6414
       240.0004        200.0004
 -20965265.21749 -16319084.48149  20053948.9604   20053951.9224   20053948.4044
       244.0004        202.0004
 -11019802.01249  -8574751.60649  22733175.0914   22733178.3054   22733175.0804
       224.0004        167.0004
 11 10  9 13 53 30.0000000  0  8G06G18G07G21G19G16G03G22
 -18781933.93649 -14614755.25049  20399914.2714   20399918.6084   20399914.2274
       241.0004        201.0004
 -13264340.40049  -9885955.05749  22008003.4724   22008006.2774   22008003.4574
       235.0004        176.0004
  -2678148.92549  -1941583.36849  23954947.2164   23954950.6754   23954946.6904
       213.0004        147.0004
 -14700592.91449 -11188261.12649  21944880.2904   21944882.7224   21944879.8214
       237.0004        183.0004
 -11204679.22249  -8696547.03049  22555834.3854   22555836.5684   22555834.7824
       225.0004        171.0004
 -19033240.18849 -14331118.07949  20745284.9174   20745287.8224   20745284.8104
       240.0004        200.0004
 -21007337.09949 -16351867.74949  20045942.2274   20045946.1604   20045942.4064
       244.0004        202.0004
 -11108047.56949  -8643514.26749  22716383.4084   22716386.5174   22716382.3164
       228.0004        169.0004
 11 10  9 13 54  0.0000000  0  8G06G18G07G21G19G16G03G22
 -18795570.64949 -14625381.24449  20397319.0034   20397323.5084   20397319.2484
       241.0004        201.0004
 -13288824.33649  -9905033.39349  22003343.7004   22003347.0694   22003343.6174
       234.0004        178.0004
  -2698512.15049  -1957450.78349  23951071.8514   23951075.3604   23951071.4034
       214.0004        148.0004
 -14640324.63449 -11141298.81449  21956348.4084   21956350.7864   21956348.2654
       237.0004        182.0004
 -11288179.48649  -8761612.13749  22539946.5044   22539946.5344   22539945.1744
       227.0004        171.0004
 -19007497.47249 -14311058.81449  20750184.0034   20750186.4524   20750183.7024
       242.0004        200.0004
 -21048974.10349 -16384312.13849  20038019.6444   20038023.0194   20038018.9244
       244.0004        202.0004
 -11196002.11649  -8712050.16249  22699646.7624   22699648.9874   22699645.3164
       227.0004        169.0004
 11 10  9 13 54 30.0000000  0  8G06G18G07G21G19G16G03G22
 -18808829.85149 -14635713.09249  20394796.4824   20394800.1614   20394796.7094
       241.0004        201.0004
 -13312791.98549  -9923709.44149  21998784.4924   21998787.2144   21998783.5734
       236.0004        179.0004
  -2718283.86249  -1972857.28249  23947307.7484   23947312.5354   23947308.4874
       214.0004        150.0004
 -14579774.00849 -11094116.52549  21967871.2174   21967873.9524   21967871.4714
       237.0004        183.0004
 -11371486.83249  -8826526.89949  22524091.8524   22524094.2384   22524091.0524
       223.0004        171.0004
 -18981189.76049 -14290559.30749  20755190.2514   20755193.2034   20755190.3434
       242.0004        200.0004
 -21090175.04649 -16416416.75249  20030178.3644   20030182.7674   20030178.7494
       243.0004        202.0004
 -11283663.29449  -8780357.45749  22682965.2244   22682967.2774   22682963.2204
       228.0004        171.0004
 11 10  9 13 55  0.0000000  0  8G06G18G07G21G19G16G03G22
 -18821710.70349 -14645750.11249  20392345.9824   20392349.1844   20392345.5184
       241.0004        201.0004
 -13336241.58249  -9941981.81049  21994321.0284   21994323.9994   21994320.9964
       235.0004        179.0004
  -2737463.31349  -1987802.28949  23943658.5444   23943663.9624   23943659.5744
       213.0004        154.0004
 -14518942.24049 -11046715.15649  21979447.2084   21979449.5184   21979446.4154
       237.0004        183.0004
 -11454600.02749  -8891290.36249  22508276.3874   22508278.4524   22508275.9134
       226.0004        173.0004
 -18954317.14949 -14269619.60549  20760303.8554   20760306.8534   20760303.2104
       241.0004        200.0004
 -21130938.75149 -16448180.65349  20022422.0744   20022425.5414   20022421.3484
       243.0004        202.0004
 -11371028.31849  -8848433.99049  22666339.9224   22666342.1244   22666338.2504
       227.0004        169.0004
 11 10  9 13 55 30.0000000  0  8G06G18G07G21G19G16G03G22
 -18834212.12549 -14655491.46849  20389965.0624   20389970.0044   20389965.5384
       239.0004        201.0004
 -13359172.62649  -9959850.11349  21989957.9924   21989961.1224   21989957.2284
       237.0004        180.0004
  -2756049.66449  -2002285.13449  23940123.2334   23940126.6904   23940123.8474
       219.0004        156.0004
 -14457830.25749 -10999095.44649  21991076.1904   21991079.1394   21991075.9134
       237.0004        184.0004
 -11537517.24349  -8955901.13249  22492497.3144   22492499.3794   22492496.4114
       224.0004        172.0004
 -18926879.60549 -14248239.70349  20765524.2314   20765527.8124   20765524.4044
       240.0004        199.0004
 -21171263.40049 -16479602.44149  20014747.6534   20014751.7924   20014747.8774
       243.0004        202.0004
 -11458094.02749  -8916277.29349  22649770.5644   22649774.0564   22649771.5264
       226.0004        170.0004
 11 10  9 13 56  0.0000000  0  8G06G18G07G21G19G16G03G22
 -18846334.25749 -14664937.27349  20387658.8514   20387663.3144   20387658.7914
       240.0004        201.0004
 -13381584.54449  -9977313.90049  21985692.4234   21985695.4144   21985692.3764
       236.0004        180.0004
  -2774043.18249  -2016306.01949  23936698.7294   23936702.8284   23936699.3124
       217.0004        157.0004
 -14396439.99749 -10951258.89849  22002758.4574   22002760.7124   22002758.3894
       237.0004        183.0004
 -11620238.42649  -9020359.13349  22476756.3184   22476757.6794   22476755.4174
       226.0004        172.0004
 -18898878.21249 -14226420.44249  20770853.1134   20770856.3524   20770853.3554
       241.0004        200.0004
 -21211148.07549 -16510681.38549  20007158.7974   20007162.1314   20007158.3044
       244.0004        202.0004
 -11544858.60149  -8983885.91749  22633259.9474   22633262.4544   22633259.6514
       226.0004        168.0004
 11 10  9 13 56 30.0000000  0  9G06G18G07G21G19G26G16G03G22
 -18858076.37349 -14674086.97049  20385426.0044   20385428.8694   20385425.6054
       243.0004        201.0004
 -13403476.51249  -9994372.53749  21981527.4914   21981530.1744   21981527.3954
       236.0004        180.0004
  -2791443.19849  -2029864.44949  23933386.8984   23933392.0524   23933385.6234
       217.0004        155.0004
 -14334773.09849 -10903206.79149  22014493.0074   22014496.1124   22014492.2894
       237.0004        183.0004
 -11702761.84949  -9084663.04049  22461052.8564   22461054.8734   22461051.5754
       227.0004        174.0004
     -8206.97349     -5278.24949  24731659.9474
       204.0004         85.0004
 -18870313.56249 -14204162.28149  20776288.7284   20776291.9914   20776288.7754
       240.0004        200.0004
 -21250591.82949 -16541416.75549  19999652.0804   19999656.1924   19999651.9244
       243.0004        202.0004
 -11631319.22349  -9051257.71449  22616807.0754   22616809.3954   22616806.0484
       227.0004        170.0004
 11 10  9 13 57  0.0000000  0  9G06G18G07G21G19G26G16G03G22
 -18869437.67749 -14682939.92349  20383263.3694   20383266.9174   20383263.1694
       242.0004        201.0004
 -13424847.24449 -10011025.00549  21977459.4634   21977463.2414   21977458.8524
       235.0004        180.0004
  -2808248.91249  -2042959.78249  23930189.8774   23930194.0964   23930189.6304
       218.0004        156.0004
 -14272830.27149 -10854939.67949  22026280.1344   22026283.3564   22026280.2274
       237.0004        184.0004
 -11785086.17149  -9148811.79549  22445388.0544   22445388.6514   22445386.2174
       228.0004        175.0004
    -15329.16849    -10968.24849  24730303.8724
       205.0004        111.0004
 -18841185.68949 -14181465.22849  20781831.1384   20781834.9294   20781831.1654
       240.0004        199.0004
 -21289592.80249 -16571807.09349  19992231.2334   19992234.2374   19992230.5294
       243.0004        202.0004
 -11717473.07149  -9118390.44849  22600412.5884   22600415.4564   22600411.6574
       227.0004        171.0004
 11 10  9 13 57 30.0000000  0  8G06G18G07G21G19G16G03G22
 -18880418.02049 -14691496.01649  20381172.9834   20381177.6254   20381173.1644
       241.0004        201.0004
 -13445696.61449 -10027271.22749  21973492.4964   21973494.9944   21973492.1154
       236.0004        179.0004
  -2824460.45149  -2055592.11449  23927106.3064   23927108.7124   23927105.6534
       217.0004        155.0004
 -14210613.39249 -10806459.03049  22038120.2154   22038122.1524   22038120.0154
       237.0004        182.0004
 -11867210.47549  -9212804.70949  22429759.7604   22429760.3534   22429758.4404
       228.0004        174.0004
 -18811495.64849 -14158330.14049  20787481.3284   20787484.3994   20787481.7114
       241.0004        200.0004
 -21328150.47149 -16601852.00649  19984893.0634   19984897.2954   19984893.0254
       243.0004        202.0004
 -11803318.11049  -9185282.57149  22584077.0954   22584079.8684   22584076.2054
       228.0004        172.0004
 11 10  9 13 58  0.0000000  0  8G06G18G07G21G19G16G03G22
 -18891016.71449 -14699754.72649  20379156.5704   20379160.4594   20379156.6564
       242.0004        201.0004
 -13466023.82549 -10043110.55949  21969623.8934   21969627.4294   21969623.9684
       235.0004        181.0004
  -2840076.96049  -2067760.79749  23924130.7264   23924137.4094   23924132.8694
       212.0004        154.0004
 -14148123.42049 -10757765.55649  22050011.3844   22050013.1824   22050011.4884
       237.0004        181.0004
 -11949133.86749  -9276641.05949  22414167.4894   22414171.8524   22414167.6014
       225.0004        173.0004
 -18781243.65449 -14134757.16949  20793239.5054   20793241.2114   20793239.1994
       242.0004        200.0004
 -21366263.06049 -16631550.10249  19977640.8004   19977644.6684   19977640.7114
       243.0004        202.0004
 -11888851.50449  -9251931.86649  22567800.5444   22567802.2604   22567800.5104
       230.0004        172.0004
 11 10  9 13 58 30.0000000  0  8G06G18G07G21G19G16G03G22
 -18901232.99749 -14707715.45149  20377213.0754   20377216.4334   20377212.9614
       242.0004        202.0004
 -13485827.69749 -10058542.09649  21965855.9994   21965859.1004   21965855.3494
       237.0004        181.0004
  -2855098.73849  -2079466.05349  23921273.3334   23921278.0364   23921274.3004
       213.0004        153.0004
 -14085362.41149 -10708860.88849  22061954.6634   22061956.3234   22061954.0284
       237.0004        182.0004
 -12030854.97449  -9340319.78949  22398617.6914   22398620.4044   22398617.0944
       226.0004        175.0004
 -18750430.71249 -14110747.08849  20799101.4364   20799104.7174   20799101.4784
       240.0004        199.0004
 -21403929.58149 -16660900.60949  19970472.3714   19970476.7194   19970472.5024
       243.0004        202.0004
 -11974070.34049  -9318336.03149  22551583.2354   22551585.8034   22551582.4844
       229.0004        172.0004
 11 10  9 13 59  0.0000000  0  8G06G18G07G21G19G16G03G22
 -18911067.00849 -14715378.30749  20375341.7724   20375345.0594   20375341.6494
       242.0004        201.0004
 -13505107.83149 -10073565.53249  21962186.6134   21962190.3414   21962186.9054
       236.0004        181.0004
  -2869525.32949  -2090707.50749  23918529.9724   23918532.8314   23918528.8074
       213.0004        152.0004
 -14022331.93949 -10659746.26549  22073948.7304   22073951.2264   22073948.6344
       236.0004        181.0004
 -12112372.78649  -9403840.12849  22383106.8934   22383108.2324   22383105.2054
       228.0004        176.0004
 -18719057.33849 -14086300.31749  20805071.9124   20805075.2534   20805072.0914
       241.0004        199.0004
 -21441148.83149 -16689902.61049  19963390.9324   19963394.2944   19963390.6504
       244.0004        203.0004
 -12058972.56249  -9384493.51049  22535428.3764   22535428.7064   22535427.1424
       230.0004        173.0004
 11 10  9 13 59 30.0000000  0  9G06G18G07G21G19G26G16G03G22
 -18920517.36349 -14722742.20749  20373542.1004   20373546.5604   20373542.5584
       240.0004        201.0004
 -13523863.09749 -10088179.99449  21958618.1804   21958620.9804   21958617.6344
       237.0004        180.0004
  -2883355.75249  -2101484.44349  23915895.3634   23915901.6464   23915897.4434
       210.0004        152.0004
 -13959032.63349 -10610422.16149  22085993.9224   22085996.9304   22085994.0714
       236.0004        181.0004
 -12193685.46449  -9467200.59249  22367631.9394   22367635.1774   22367632.1294
       228.0004        177.0004
    -12741.83849     -9189.15549  24725388.8294   24725395.8514
       204.0004        134.0004
 -18687123.71749 -14061416.98049  20811148.6784   20811152.1424   20811148.6004
       240.0004        199.0004
 -21477919.63349 -16718555.16049  19956393.1034   19956397.0384   19956392.8064
       243.0004        202.0004
 -12143555.10449  -9450401.84749  22519330.9884   22519334.2994   22519330.3394
       228.0004        171.0004
 11 10  9 14  0  0.0000000  0  9G06G18G07G21G19G26G16G03G22
 -18929583.96149 -14729807.07849  20371817.2994   20371821.1624   20371817.4074
       241.0004        201.0004
 -13542093.00449 -10102385.07449  21955148.4964   21955151.9924   21955148.6454
       236.0004        180.0004
  -2896590.18649  -2111796.93249  23913378.9774   23913382.5564   23913377.9654
       215.0004        150.0004
 -13895466.46949 -10560890.10849  22098090.4064   22098093.4954   22098090.3614
       236.0004        180.0004
 -12274792.37949  -9530400.76149  22352199.0804   22352199.8714   22352197.8324
       227.0004        176.0004
    -15948.43649    -11687.72549  24724777.9964   24724783.9884   24724776.8924
       196.0004        131.0004
 -18654631.20849 -14036098.16149  20817331.5944   20817335.3374   20817331.4474
       240.0004        199.0004
 -21514240.89849 -16746857.43349  19949481.3684   19949485.5314   19949481.3284
       244.0004        203.0004
 -12227816.02749  -9516059.61049  22503295.6784   22503299.8464   22503297.0714
       227.0004        172.0004
 11 10  9 14  0 30.0000000  0  9G06G18G07G21G19G26G16G03G22
 -18938266.55949 -14736572.72749  20370165.1374   20370168.7344   20370165.3334
       241.0004        200.0004
 -13559797.34649 -10116180.62349  21951779.5134   21951782.6724   21951779.0574
       236.0004        181.0004
  -2909228.92749  -2121645.30949  23910972.6524   23910976.7894   23910974.1914
       213.0004        150.0004
 -13831634.98349 -10511151.31549  22110237.2444   22110239.6174   22110237.0824
       236.0004        181.0004
 -12355692.68449  -9593439.90649  22336803.7514   22336806.1194   22336802.8314
       227.0004        177.0004
    -18500.87149    -13676.54249  24724290.0174   24724299.3014   24724290.6544
       196.0004        133.0004
 -18621580.27249 -14010344.18349  20823619.8444   20823624.3214   20823620.2464
       240.0004        198.0004
 -21550111.52449 -16774808.55649  19942655.7174   19942659.2234   19942655.5974
       244.0004        202.0004
 -12311752.83849  -9581464.81849  22487324.6514   22487326.7574   22487323.4374
       228.0004        172.0004
 11 10  9 14  1  0.0000000  0  9G06G18G07G21G19G26G16G03G22
 -18946563.75949 -14743038.07549  20368586.3674   20368590.2724   20368586.7254
       241.0004        201.0004
 -13576974.60149 -10129565.46449  21948510.8314   21948514.1304   21948509.9544
       236.0004        181.0004
  -2921270.55149  -2131028.35949  23908679.7184   23908685.5894   23908679.9254
       212.0004        151.0004
 -13767538.86749 -10461206.31449  22122434.7524   22122437.1734   22122433.8914
       237.0004        181.0004
 -12436384.23849  -9656316.39649  22321448.6654   22321450.6504   22321448.4494
       228.0004        177.0004
    -20398.62049    -15155.26749  24723930.6354   24723933.4144   24723933.2434
       198.0004        131.0004
 -18587970.87149 -13984155.05349  20830016.8994   20830020.1874   20830016.7674
       240.0004        199.0004
 -21585529.69049 -16802407.12149  19935915.2684   19935919.3134   19935915.5104
       243.0004        202.0004
 -12395361.97249  -9646614.69349  22471415.4304   22471416.1904   22471413.8284
       231.0004        173.0004
 11 10  9 14  1 30.0000000  0  9G06G18G07G21G19G26G16G03G22
 -18954476.21049 -14749203.60949  20367080.6054   20367084.5164   20367081.0434
       241.0004        201.0004
 -13593624.99149 -10142539.75249  21945342.5864   21945345.8524   21945342.0734
       237.0004        182.0004
  -2932715.94649  -2139946.81349  23906502.6804   23906507.8204   23906504.0594
       209.0004        151.0004
 -13703180.41149 -10411056.87949  22134682.0424   22134683.5364   22134681.1464
       237.0004        181.0004
 -12516866.74849  -9719029.99049  22306132.9994   22306134.9504   22306132.2034
       226.0004        176.0004
    -21641.87449    -16123.97149  24723693.7504   24723698.5874   24723693.6074
       201.0004        129.0004
 -18553804.92249 -13957532.24749  20836519.3474   20836521.5334   20836518.9814
       241.0004        199.0004
 -21620494.97649 -16829652.78749  19929262.0834   19929265.8844   19929262.0414
       243.0004        202.0004
 -12478642.20449  -9711508.26949  22455565.0394   22455569.8334   22455565.3864
       228.0004        173.0004
 11 10  9 14  2  0.0000000  0  9G06G18G07G21G19G26G16G03G22
 -18962002.83749 -14755068.50649  20365648.2774   20365652.1054   20365648.2984
       241.0004        201.0004
 -13609747.53249 -10155102.73449  21942273.5704   21942277.3084   21942274.0164
       236.0004        181.0004
  -2943564.38449  -2148400.10749  23904437.6984   23904443.2574   23904439.3384
       210.0004        150.0004
 -13638560.11349 -10360703.42349  22146978.3044   22146981.4064   22146977.9954
       235.0004        180.0004
 -12597138.78449  -9781579.60149  22290858.8814   22290859.5114   22290857.8374
       229.0004        177.0004
    -22230.01849    -16582.26149  24723581.2054   24723584.5284   24723581.9904
       195.0004        129.0004
 -18519082.20149 -13930475.58949  20843125.8474   20843129.0594   20843126.0564
       240.0004        199.0004
 -21655005.91649 -16856544.41549  19922694.5684   19922698.3474   19922694.3034
       244.0004        203.0004
 -12561590.16149  -9776142.92649  22439781.5964   22439783.9834   22439780.5614
       230.0004        172.0004
 11 10  9 14  2 30.0000000  0  9G06G18G07G21G19G26G16G03G22
 -18969143.28249 -14760632.48949  20364289.4144   20364293.7434   20364289.7864
       241.0004        201.0004
 -13625342.04949 -10167254.27249  21939307.7514   21939310.5274   21939306.9964
       236.0004        181.0004
  -2953816.12449  -2156388.45749  23902488.5074   23902492.1174   23902488.2344
       211.0004        148.0004
 -13573680.27949 -10310147.72749  22159324.5924   22159327.2514   22159324.0814
       235.0004        179.0004
 -12677199.34049  -9843964.40549  22275623.2374   22275624.7984   22275622.8614
       228.0004        177.0004
    -22163.05649    -16530.06749  24723594.3284   24723603.0544   24723597.6184
       195.0004        128.0004
 -18483804.14049 -13902986.20549  20849839.2264   20849842.2874   20849839.2644
       241.0004        199.0004
 -21689061.57749 -16883081.29349  19916214.4134   19916217.7674   19916214.0364
       244.0004        203.0004
 -12644204.01549  -9840517.25649  22424061.8614   22424063.8074   22424060.3644
       232.0004        174.0004
 11 10  9 14  3  0.0000000  0  9G06G18G07G21G19G26G16G03G22
 -18975897.44449 -14765895.46149  20363004.1314   20363008.0224   20363004.1124
       241.0004        201.0004
 -13640407.97149 -10178993.93249  21936439.1154   21936442.8504   21936440.0084
       236.0004        181.0004
  -2963470.95749  -2163911.65649  23900651.5434   23900654.1264   23900652.9934
       212.0004        149.0004
 -13508542.69549 -10259391.19449  22171720.2194   22171723.1114   22171718.8074
       234.0004        177.0004
 -12757047.33749  -9906183.57849  22260428.0764   22260429.5064   22260427.9134
       228.0004        177.0004
    -21441.03549    -15967.40449  24723732.0274   24723734.6914   24723732.0214
       196.0004        129.0004
 -18447971.54849 -13875064.71049  20856658.1874   20856660.9164   20856658.0294
       242.0004        199.0004
 -21722660.85149 -16909262.53449  19909820.5904   19909824.4614   19909820.3714
       245.0004        204.0004
 -12726480.87649  -9904628.99549  22408402.8914   22408406.3354   22408402.1594
       227.0004        174.0004
 11 10  9 14  3 30.0000000  0  9G06G18G07G21G19G26G16G03G22
 -18982263.40649 -14770855.94149  20361792.6144   20361796.6054   20361792.8334
       241.0004        200.0004
 -13654943.20549 -10190320.04249  21933674.6444   21933677.0104   21933673.2424
       237.0004        182.0004
  -2972528.01449  -2170969.09549  23898927.6624   23898931.8934   23898928.7624
       212.0004        149.0004
 -13443147.08349 -10208433.60049  22184163.6454   22184166.7204   22184163.9294
       234.0004        176.0004
 -12836680.75849  -9968235.55649  22245274.7264   22245276.6044   22245273.6924
       227.0004        177.0004
    -20062.40849    -14893.13749  24723992.7284   24724000.9214   24723991.8704
       197.0004        128.0004
 -18411583.88749 -13846710.70749  20863583.2744   20863585.3744   20863582.4374
       242.0004        199.0004
 -21755801.62349 -16935086.49949  19903513.9174   19903517.6624   19903514.0774
       245.0004        203.0004
 -12808417.53549  -9968475.64949  22392810.6904   22392814.4974   22392810.5784
       227.0004        172.0004
 11 10  9 14  4  0.0000000  0  9G06G18G07G21G19G26G16G03G22
 -18988242.55049 -14775515.00249  20360655.3254   20360659.0924   20360655.6234
       242.0004        201.0004
 -13668949.13849 -10201233.72749  21931007.7124   21931011.6594   21931008.3384
       236.0004        180.0004
  -2980988.34549  -2177561.54649  23897319.0584   23897322.2264   23897318.8744
       216.0004        151.0004
 -13377496.40849 -10157277.23749  22196657.4094   22196659.4774   22196656.9424
       235.0004        176.0004
 -12916099.41949 -10030120.17449  22230162.0544   22230164.1194   22230161.2754
       229.0004        180.0004
    -18028.66749    -13308.47549  24724381.5284   24724384.0894   24724381.1694
       200.0004        131.0004
 -18374643.87749 -13817926.28749  20870611.0314   20870614.9544   20870611.7194
       241.0004        198.0004
 -21788484.16249 -16960553.40449  19897295.0894   19897297.8414   19897295.2024
       245.0004        203.0004
 -12890012.84649 -10032056.31649  22377285.6334   22377286.9304   22377284.0904
       231.0004        174.0004
 11 10  9 14  4 30.0000000  0  9G06G18G07G21G19G26G16G03G22
 -18993833.21249 -14779871.35649  20359591.8464   20359595.2524   20359591.4984
       241.0004        201.0004
 -13682424.00449 -10211733.58149  21928444.7954   21928447.4444   21928443.9984
       236.0004        181.0004
  -2988851.42049  -2183688.58849  23895820.2594   23895826.1484   23895820.9244
       214.0004        151.0004
 -13311590.88549 -10105922.30549  22209198.8164   22209202.8964   22209198.1714
       235.0004        178.0004
 -12995301.49849 -10091836.03749  22215090.6184   22215091.8684   22215088.9164
       230.0004        178.0004
    -15338.59849    -11212.33749  24724893.1174   24724898.4104   24724892.8414
       196.0004        128.0004
 -18337151.11649 -13788711.15849  20877746.6584   20877749.5784   20877746.1514
       241.0004        199.0004
 -21820706.67449 -16985661.84049  19891163.8244   19891166.5894   19891163.3814
       246.0004        203.0004
 -12971263.43249 -10095368.36649  22361822.6594   22361825.5894   22361823.2374
       228.0004        174.0004
 11 10  9 14  5  0.0000000  0  9G06G18G07G21G19G26G16G03G22
 -18999035.25649 -14783924.88949  20358600.8664   20358604.6644   20358601.2454
       241.0004        200.0004
 -13695368.14149 -10221819.88249  21925980.8364   21925984.1994   21925981.1224
       236.0004        180.0004
  -2996116.98549  -2189350.04749  23894439.6704   23894443.2974   23894439.8584
       215.0004        151.0004
 -13245432.94549 -10054370.69449  22221787.8464   22221791.3334   22221787.4394
       233.0004        178.0004
 -13074285.78249 -10153382.19349  22200059.3294   22200061.2094   22200059.1344
       229.0004        179.0004
    -11992.30549     -8604.81649  24725530.1374   24725534.1064   24725527.8854
       200.0004        129.0004
 -18299106.74049 -13759066.21149  20884986.1244   20884989.2084   20884986.1794
       241.0004        199.0004
 -21852467.94149 -17010410.86649  19885119.2084   19885122.8744   19885118.7824
       245.0004        204.0004
 -13052167.05849 -10158410.07149  22346427.4814   22346429.9474   22346426.6564
       228.0004        174.0004
 11 10  9 14  5 30.0000000  0  9G06G18G07G21G19G26G16G03G22
 -19003847.81349 -14787674.91849  20357685.7964   20357689.2684   20357685.5984
       242.0004        201.0004
 -13707780.52049 -10231491.83449  21923618.8554   21923622.1014   21923618.2164
       236.0004        181.0004
  -3002785.17849  -2194546.00249  23893166.7824   23893174.5564   23893167.7954
       207.0004        148.0004
 -13179023.09449 -10002622.78349  22234425.5214   22234428.4104   22234425.5634
       234.0004        178.0004
 -13153050.99949 -10214757.63449  22185071.4914   22185073.4604   22185069.7744
       228.0004        179.0004
     -7989.80749     -5486.00249  24726292.5364   24726295.2014   24726290.7714
       202.0004        130.0004
 -18260511.29549 -13728991.85449  20892329.8834   20892333.7404   20892330.2484
       240.0004        199.0004
 -21883766.32449 -17034799.19849  19879162.9214   19879166.8924   19879162.5974
       245.0004        203.0004
 -13132721.03849 -10221179.32549  22331098.4734   22331101.0034   22331096.7334
       229.0004        175.0004
 11 10  9 14  6  0.0000000  0  9G06G18G07G21G19G26G16G03G22
 -19008271.30249 -14791121.78649  20356844.3884   20356847.5554   20356843.8454
       242.0004        201.0004
 -13719661.37949 -10240749.62549  21921358.4234   21921360.7384   21921357.6154
       236.0004        181.0004
  -3008856.79449  -2199277.10149  23892013.5044   23892019.8874   23892013.1854
       211.0004        150.0004
 -13112364.06149  -9950680.68549  22247110.5584   22247113.2004   22247110.1874
       235.0004        177.0004
 -13231596.71249 -10275962.04649  22170123.7794   22170126.4654   22170122.7644
       228.0004        180.0004
     -3331.48749     -1856.15849  24727176.8644   24727181.7024   24727178.3884
       200.0004        129.0004
 -18221366.75349 -13698489.63749  20899780.0434   20899782.8044   20899779.7374
       242.0004        199.0004
 -21914602.04149 -17058827.01149  19873295.7204   19873298.7364   19873295.0884
       245.0004        204.0004
 -13212923.60349 -10283674.78049  22315837.0874   22315838.7604   22315835.8934
       230.0004        174.0004
 11 10  9 14  6 30.0000000  0  9G06G18G07G21G19G26G16G03G22
 -19012304.38749 -14794264.44249  20356077.1044   20356079.7214   20356076.8984
       242.0004        200.0004
 -13731009.86249 -10249592.56449  21919198.8054   21919201.3844   21919198.2404
       236.0004        181.0004
  -3014330.93749  -2203542.66249  23890972.1864   23890978.1514   23890972.7324
       212.0004        150.0004
 -13045456.28249  -9898544.76149  22259842.4704   22259844.5544   22259841.9254
       235.0004        176.0004
 -13309920.88649 -10336993.83649  22155219.1564   22155221.7774   22155217.5694
       228.0004        178.0004
      1983.33549      2285.30149  24728189.8034   24728195.6964   24728189.5234
       202.0004        131.0004
 -18181673.08449 -13667559.51749  20907333.0634   20907336.3854   20907332.5494
       242.0004        199.0004
 -21944972.99149 -17082492.66949  19867516.2304   19867519.7364   19867515.7784
       245.0004        204.0004
 -13292771.71849 -10345894.01449  22300641.3514   22300643.9834   22300640.6414
       230.0004        174.0004
 11 10  9 14  7  0.0000000  0  9G06G18G07G21G19G26G16G03G22
 -19015947.63649 -14797103.33249  20355382.7054   20355386.6304   20355382.8964
       240.0004        200.0004
 -13741825.82149 -10258020.56149  21917140.2774   21917143.1674   21917140.6814
       237.0004        181.0004
  -3019208.65849  -2207343.47949  23890045.4524   23890049.2184   23890044.9444
       213.0004        150.0004
 -12978301.76049  -9846216.56549  22272621.8584   22272624.0884   22272621.5554
       235.0004        176.0004
 -13388023.17049 -10397852.71949  22140356.5684   22140359.0374   22140356.3834
       228.0004        178.0004
      7953.79349      6937.65049  24729325.7804   24729332.7134   24729323.6784
       201.0004        131.0004
 -18141432.06349 -13636202.90549  20914991.0654   20914994.1554   20914990.8884
       242.0004        199.0004
 -21974878.69949 -17105795.81149  19861824.8174   19861828.3074   19861825.0304
       245.0004        204.0004
 -13372263.51149 -10407835.60649  22285515.6354   22285518.1244   22285514.4504
       232.0004        177.0004
 11 10  9 14  7 30.0000000  0  9G06G18G07G21G19G26G16G03G22
 -19019200.07949 -14799637.68949  20354763.7414   20354767.6764   20354763.7784
       241.0004        200.0004
 -13752108.82849 -10266033.25349  21915183.7344   21915185.7344   21915182.8054
       236.0004        181.0004
  -3023489.68849  -2210679.32949  23889229.3604   23889233.7124   23889229.0944
       212.0004        152.0004
 -12910901.74249  -9793697.08949  22285447.1284   22285450.1834   22285447.3924
       234.0004        177.0004
 -13465902.06449 -10458537.54849  22125536.8554   22125539.1734   22125536.9664
       228.0004        180.0004
     14580.17649     12101.13049  24730585.6134   24730591.5344   24730585.9014
       196.0004        131.0004
 -18100644.25149 -13604420.20649  20922752.2774   20922755.4044   20922751.9994
       242.0004        199.0004
 -22004318.07349 -17128735.55949  19856222.9314   19856226.2874   19856222.7604
       246.0004        204.0004
 -13451396.23949 -10469497.41049  22270456.1214   22270457.9854   22270455.6964
       231.0004        176.0004
 11 10  9 14  8  0.0000000  0  9G06G18G07G21G19G26G16G03G22
 -19022061.09049 -14801867.04849  20354219.6654   20354223.3234   20354219.7784
       241.0004        200.0004
 -13761858.29649 -10273630.21949  21913327.8724   21913331.1574   21913327.4034
       237.0004        181.0004
  -3027173.72049  -2213549.98949  23888528.4194   23888533.6074   23888528.8514
       213.0004        151.0004
 -12843257.50049  -9740987.28349  22298319.7814   22298322.3104   22298319.5264
       234.0004        176.0004
 -13543556.09149 -10519047.14049  22110760.1804   22110761.6854   22110759.3374
       229.0004        180.0004
     21862.85049     17775.99049  24731973.0414   24731975.7674   24731973.2724
       201.0004        132.0004
 -18059310.36049 -13572212.00149  20930617.3354   20930621.1864   20930617.6374
       241.0004        199.0004
 -22033289.84649 -17151310.96049  19850709.9374   19850713.1734   19850709.6914
       246.0004        204.0004
 -13530167.34949 -10530877.44949  22255467.8144   22255468.3914   22255466.9774
       234.0004        177.0004
 11 10  9 14  8 30.0000000  0  9G06G18G07G21G19G26G16G03G22
 -19024530.22949 -14803791.04249  20353749.9254   20353753.6604   20353750.1854
       241.0004        201.0004
 -13771073.31849 -10280810.72549  21911574.6294   21911577.3084   21911574.1574
       236.0004        181.0004
  -3030260.99749  -2215955.64649  23887941.7504   23887946.1414   23887942.1144
       215.0004        151.0004
 -12775369.80249  -9688087.78049  22311238.6354   22311241.0854   22311237.5074
       235.0004        176.0004
 -13620983.72949 -10579380.32249  22096025.8154   22096027.3604   22096024.9364
       229.0004        180.0004
     29801.66849     23962.10249  24733482.4214   24733488.9144   24733482.5264
       199.0004        132.0004
 -18017431.57249 -13539579.18349  20938587.3524   20938590.5554   20938587.2704
       243.0004        199.0004
 -22061792.60649 -17173520.88249  19845286.1334   19845289.7454   19845285.8954
       246.0004        204.0004
 -13608574.20549 -10591973.63149  22240546.8444   22240548.6034   22240545.9184
       232.0004        176.0004
 11 10  9 14  9  0.0000000  0  9G06G18G07G21G19G26G16G03G22
 -19026607.32049 -14805409.54349  20353353.4264   20353358.1494   20353353.6804
       240.0004        200.0004
 -13779754.63149 -10287575.34949  21909922.8784   21909925.3314   21909922.9784
       237.0004        182.0004
  -3032752.11449  -2217896.75949  23887465.7994   23887471.1174   23887467.1264
       210.0004        150.0004
 -12707240.74549  -9635000.20149  22324202.5474   22324205.6084   22324202.4054
       234.0004        176.0004
 -13698184.21849 -10639536.51149  22081336.7864   22081337.5964   22081335.2724
       230.0004        181.0004
     38396.05649     30659.06649  24735118.6034   24735125.1014   24735116.9304
       197.0004        130.0004
 -17975008.54049 -13506522.29549  20946661.1834   20946663.3164   20946660.5504
       243.0004        199.0004
 -22089825.69349 -17195364.84149  19839951.4814   19839954.6064   19839951.4764
       245.0004        204.0004
 -13686614.76649 -10652784.40749  22225695.9204   22225698.1164   22225695.7424
       233.0004        178.0004
 11 10  9 14  9 30.0000000  0  9G06G18G07G21G19G26G16G03G22
 -19028292.34649 -14806722.54749  20353033.4574   20353037.2584   20353033.7024
       241.0004        200.0004
 -13787901.97949 -10293923.89749  21908372.5604   21908375.4134   21908371.4474
       237.0004        181.0004
  -3034647.46549  -2219373.66049  23887105.3874   23887111.0894   23887105.8614
       212.0004        149.0004
 -12638872.31449  -9581726.10449  22337213.4144   22337215.2994   22337213.2164
       234.0004        175.0004
 -13775157.11849 -10699515.36149  22066687.8624   22066690.0164   22066687.0924
       229.0004        180.0004
     47645.47849     37866.45749  24736879.3344   24736882.5204   24736880.0444
       200.0004        133.0004
 -17932043.47049 -13473043.03549  20954836.3104   20954838.6244   20954835.9144
       243.0004        199.0004
 -22117388.75749 -17216842.54549  19834706.1854   19834709.5864   19834706.2694
       246.0004        204.0004
 -13764287.16149 -10713308.29149  22210914.9734   22210917.5954   22210914.3214
       232.0004        178.0004
 11 10  9 14 10  0.0000000  0  9G06G18G07G21G19G26G16G03G22
 -19029584.23449 -14807729.21149  20352788.7554   20352791.8004   20352788.7684
       242.0004        201.0004
 -13795514.48149 -10299855.68149  21906924.0894   21906926.2464   21906923.5784
       237.0004        183.0004
  -3035946.84449  -2220386.15349  23886858.8714   23886863.9934   23886860.0234
       213.0004        151.0004
 -12570264.99549  -9528265.86849  22350269.0574   22350271.3324   22350269.1544
       234.0004        176.0004
 -13851899.96149 -10759314.93249  22052083.5914   22052086.5654   22052082.6904
       228.0004        181.0004
     57550.39149     45584.58449  24738763.3154   24738768.7034   24738764.3524
       199.0004        133.0004
 -17888535.99849 -13439141.11749  20963114.4744   20963118.3214   20963114.7524
       242.0004        199.0004
 -22144479.75749 -17237952.40349  19829551.8944   19829554.6234   19829550.9454
       246.0004        204.0004
 -13841588.17749 -10773542.78549  22196205.0064   22196207.4514   22196204.4074
       232.0004        179.0004
 11 10  9 14 10 30.0000000  0  9G06G18G07G21G19G26G16G03G22
 -19030482.57549 -14808429.21749  20352617.5804   20352620.6764   20352617.8264
       242.0004        201.0004
 -13802591.57049 -10305370.25249  21905576.9614   21905579.8324   21905577.0104
       237.0004        182.0004
  -3036650.41249  -2220934.39749  23886725.6814   23886730.4584   23886725.6974
       214.0004        152.0004
 -12501420.30749  -9474620.65149  22363368.8354   22363372.3424   22363369.1194
       233.0004        175.0004
 -13928411.77249 -10818934.48049  22037523.3684   22037526.8914   22037523.3644
       228.0004        183.0004
     68110.54649     53813.28149  24740773.7274   24740779.5914   24740772.7064
       200.0004        130.0004
 -17844487.98849 -13404818.00849  20971497.9234   20971500.1474   20971497.5824
       244.0004        199.0004
 -22171097.87949 -17258693.78449  19824485.5354   19824489.5034   19824485.2944
       245.0004        204.0004
 -13918515.52649 -10833486.11049  22181566.0634   22181568.5774   22181565.8824
       231.0004        179.0004
 11 10  9 14 11  0.0000000  0  9G06G18G07G21G19G26G16G03G22
 -19030987.03149 -14808822.28949  20352520.7634   20352524.9134   20352520.8694
       240.0004        200.0004
 -13809133.36049 -10310467.69349  21904332.3214   21904334.3344   21904331.7024
       237.0004        182.0004
  -3036758.51949  -2221018.62149  23886704.5314   23886708.9434   23886705.8934
       213.0004        151.0004
 -12432339.17149  -9420791.20949  22376514.3774   22376517.4304   22376514.0534
       232.0004        174.0004
 -14004691.42049 -10878373.10649  22023010.5014   22023010.6984   22023007.8414
       231.0004        184.0004
     79325.59049     62552.28149  24742907.5854   24742913.1144   24742907.5254
       203.0004        130.0004
 -17799900.15449 -13370074.25549  20979983.2434   20979985.6704   20979982.5424
       244.0004        199.0004
 -22197241.99949 -17279065.80949  19819510.4844   19819514.0494   19819510.2664
       245.0004        204.0004
 -13995066.67749 -10893136.30949  22166999.7784   22167002.4094   22166998.7894
       232.0004        179.0004
 11 10  9 14 11 30.0000000  0  9G06G18G07G21G19G26G16G03G22
 -19031097.92749 -14808908.69349  20352499.5384   20352503.3164   20352499.9904
       241.0004        201.0004
 -13815140.36649 -10315148.42549  21903189.0224   21903191.8864   21903188.4244
       237.0004        183.0004
  -3036272.44549  -2220639.86149  23886798.1984   23886800.9844   23886798.1394
       215.0004        151.0004
 -12363024.13549  -9366779.49349  22389705.0244   22389708.1554   22389704.9934
       233.0004        175.0004
 -14080738.10349 -10937630.22649  22008538.0764   22008539.4374   22008536.8714
       230.0004        183.0004
     91194.68649     71800.94349  24745166.7274   24745168.9824   24745164.9604
       204.0004        132.0004
 -17754774.37249 -13334911.33349  20988569.4834   20988572.5214   20988569.5834
       240.0004        199.0004
 -22222912.12849 -17299068.49849  19814625.9414   19814629.2224   19814625.9734
       245.0004        204.0004
 -14071240.23149 -10952492.25449  22152505.3804   22152506.6204   22152503.3914
       233.0004        180.0004
 11 10  9 14 12  0.0000000  0  9G06G18G07G21G19G26G16G03G22
 -19030813.86649 -14808687.33549  20352553.9764   20352557.7514   20352553.7554
       241.0004        201.0004
 -13820611.31949 -10319411.44849  21902147.9174   21902150.7954   21902147.6374
       237.0004        182.0004
  -3035191.49649  -2219797.52849  23887002.7154   23887007.3414   23887003.8854
       214.0004        151.0004
 -12293475.95049  -9312586.10649  22402940.2434   22402943.2634   22402939.4214
       233.0004        175.0004
 -14156549.89449 -10996704.29849  21994111.0884   21994113.1104   21994110.5114
       230.0004        184.0004
    103718.18349     81559.50149  24747548.8414   24747553.8314   24747547.4334
       200.0004        130.0004
 -17709111.02349 -13299329.51349  20997258.8064   20997262.0384   20997258.8284
       241.0004        199.0004
 -22248106.02749 -17318700.09349  19809831.4904   19809835.2144   19809831.4914
       245.0004        204.0004
 -14147032.93749 -11011551.43749  22138080.3674   22138082.8394   22138079.4404
       230.0004        179.0004
 11 10  9 14 12 30.0000000  0  9G06G18G07G21G19G26G16G03G22
 -19030135.00749 -14808158.34349  20352682.8344   20352686.6594   20352683.2684
       241.0004        200.0004
 -13825546.84649 -10323257.28049  21901208.4064   21901211.1334   21901208.1834
       237.0004        183.0004
  -3033516.39649  -2218492.24249  23887321.7484   23887326.0254   23887322.6864
       214.0004        150.0004
 -12223696.42149  -9258212.45949  22416217.5974   22416221.0894   22416218.0364
       232.0004        174.0004
 -14232126.11549 -11055594.80349  21979729.2834   21979731.4264   21979729.2004
       231.0004        184.0004
    116895.14849     91827.28749  24750054.9644   24750061.9824   24750054.7614
       203.0004        132.0004
 -17662911.80949 -13263330.13749  21006049.8354   21006053.1094   21006049.5864
       241.0004        198.0004
 -22272823.23649 -17337960.23749  19805127.8554   19805131.8244   19805127.8804
       245.0004        205.0004
 -14222443.02149 -11070312.48249  22123729.6504   22123732.3284   22123730.4174
       231.0004        179.0004
 11 10  9 14 13  0.0000000  0  9G06G18G07G21G19G26G16G03G22
 -19029060.70449 -14807321.21549  20352887.5324   20352891.1684   20352887.2964
       241.0004        200.0004
 -13829946.07749 -10326685.22049  21900371.5924   21900374.6764   21900371.1974
       237.0004        182.0004
  -3031247.12649  -2216723.94749  23887752.3444   23887757.9584   23887754.1094
       212.0004        149.0004
 -12153686.26149  -9203659.09349  22429540.9834   22429543.6324   22429539.6284
       232.0004        173.0004
 -14307465.19749 -11114300.54149  21965393.4294   21965394.4074   21965392.8494
       232.0004        184.0004
    130725.83249    102604.52349  24752688.7384   24752693.0784   24752686.0884
       205.0004        130.0004
 -17616176.99249 -13226913.42449  21014943.9364   21014946.5354   21014943.7574
       241.0004        198.0004
 -22297062.53849 -17356847.99649  19800515.9054   19800519.0584   19800515.5884
       245.0004        205.0004
 -14297467.60249 -11128773.12849  22109454.4124   22109455.6014   22109453.4454
       231.0004        179.0004
 11 10  9 14 13 30.0000000  0  9G06G18G07G21G19G26G16G03G22
 -19027591.01749 -14806175.98949  20353166.9684   20353171.3454   20353167.5654
       241.0004        201.0004
 -13833809.36749 -10329695.53049  21899635.0414   21899639.3594   21899635.4004
       235.0004        181.0004
  -3028384.66949  -2214493.43749  23888296.8404   23888302.3014   23888297.4474
       209.0004        149.0004
 -12083447.52849  -9148927.61649  22442906.4674   22442909.2994   22442906.1974
       232.0004        174.0004
 -14382566.31449 -11172820.85049  21951102.3804   21951103.0144   21951101.2414
       232.0004        183.0004
    145209.26049    113890.31849  24755442.2254   24755451.8144   24755442.9284
       200.0004        128.0004
 -17568908.70549 -13190080.99949  21023938.3764   21023941.2594   21023938.2994
       242.0004        198.0004
 -22320823.72049 -17375363.19249  19795993.8584   19795997.0644   19795993.4884
       244.0004        204.0004
 -14372104.81349 -11186931.91649  22095250.3264   22095253.5224   22095250.3424
       231.0004        180.0004
 11 10  9 14 14  0.0000000  0  9G06G18G07G21G19G26G16G03G22
 -19025725.60049 -14804722.40749  20353523.2094   20353525.9074   20353523.1284
       242.0004        201.0004
 -13837136.77649 -10332288.27349  21899003.5094   21899006.1154   21899002.8744
       237.0004        182.0004
  -3024929.75549  -2211801.28849  23888954.6034   23888959.3904   23888955.4614
       210.0004        150.0004
 -12012981.83049  -9094019.28649  22456315.3384   22456318.3054   22456315.2264
       232.0004        174.0004
 -14457428.34149 -11231154.85749  21936856.3254   21936857.3884   21936854.4774
       231.0004        183.0004
    160345.09549    125684.48249  24758324.8564   24758329.8114   24758325.0674
       201.0004        129.0004
 -17521108.23149 -13152833.89649  21033034.8064   21033037.6904   21033034.3714
       241.0004        198.0004
 -22344105.52649 -17393504.83549  19791563.0394   19791567.2664   19791563.0484
       244.0004        204.0004
 -14446352.74449 -11244787.37749  22081121.2274   22081123.8114   22081121.3464
       233.0004        180.0004
 11 10  9 14 14 30.0000000  0  9G06G18G07G21G19G26G16G03G22
 -19023463.81549 -14802959.97049  20353952.0244   20353956.3084   20353952.4734
       241.0004        200.0004
 -13839927.66249 -10334462.96649  21898471.4834   21898474.8684   21898471.7024
       236.0004        182.0004
  -3020882.43249  -2208647.50149  23889725.5144   23889729.7294   23889725.0774
       212.0004        150.0004
 -11942289.87449  -9038934.65249  22469767.9654   22469770.3534   22469767.8654
       231.0004        172.0004
 -14532049.73349 -11289301.36849  21922656.1014   21922657.9684   21922655.5004
       232.0004        184.0004
    176132.75449    137986.61749  24761328.6184   24761333.9824   24761327.2554
       199.0004        128.0004
 -17472776.42749 -13115172.76949  21042231.3434   21042234.8364   21042231.6734
       241.0004        197.0004
 -22366906.72549 -17411271.99549  19787224.2334   19787228.0594   19787224.1534
       244.0004        204.0004
 -14520208.52249 -11302337.27249  22067067.0694   22067069.4964   22067066.9414
       232.0004        179.0004
 11 10  9 14 15  0.0000000  0  9G06G18G07G21G19G26G16G03G22
 -19020804.76249 -14800887.97449  20354458.4624   20354462.4464   20354458.4434
       241.0004        201.0004
 -13842181.49349 -10336219.15049  21898043.6714   21898045.4674   21898042.6244
       237.0004        182.0004
  -3016242.75949  -2205032.19349  23890608.5404   23890613.0404   23890609.1824
       213.0004        150.0004
 -11871372.82049  -8983674.62749  22483261.9634   22483266.3584   22483261.6744
       229.0004        171.0004
 -14606428.72049 -11347258.98749  21908502.2814   21908504.2094   21908501.0974
       231.0004        184.0004
    192572.61949    150796.94749  24764457.5094   24764459.9744   24764455.8224
       200.0004        127.0004
 -17423913.96149 -13077098.13749  21051530.3974   21051533.0024   21051530.2104
       241.0004        197.0004
 -22389226.03149 -17428663.65149  19782976.9264   19782980.8684   19782976.9064
       245.0004        204.0004
 -14593669.23449 -11359579.30749  22053088.4684   22053090.5544   22053088.1684
       232.0004        179.0004
 11 10  9 14 15 30.0000000  0  9G06G18G07G21G19G26G16G03G22
 -19017748.51549 -14798506.47249  20355040.0244   20355043.8804   20355040.0594
       242.0004        201.0004
 -13843899.01449 -10337557.45849  21897715.8114   21897718.9924   21897715.6194
       236.0004        181.0004
  -3011011.48949  -2200955.84949  23891603.9804   23891607.5324   23891604.6464
       212.0004        150.0004
 -11800232.20849  -8928240.40749  22496800.9594   22496803.5824   22496800.6404
       230.0004        171.0004
 -14680564.49049 -11405027.08749  21894394.7054   21894396.0354   21894393.6694
       233.0004        184.0004
    209663.60049    164114.60849  24767710.4624   24767714.7504   24767710.7204
       204.0004        130.0004
 -17374522.55749 -13038611.34149  21060928.7824   21060932.3724   21060928.5274
       240.0004        197.0004
 -22411062.74649 -17445679.26249  19778821.8014   19778825.3554   19778821.5794
       245.0004        204.0004
 -14666733.05149 -11416512.07749  22039185.1554   22039186.6774   22039183.3554
       232.0004        179.0004
 11 10  9 14 16  0.0000000  0  9G06G18G07G21G19G26G16G03G22
 -19014295.47849 -14795815.79649  20355697.1634   20355700.7694   20355697.2834
       241.0004        201.0004
 -13845080.77349 -10338478.28449  21897491.4794   21897493.6334   21897490.4914
       237.0004        182.0004
  -3005189.85549  -2196419.47949  23892711.9544   23892716.3384   23892712.1974
       211.0004        150.0004
 -11728869.83949  -8872633.37249  22510380.1224   22510382.8164   22510379.7394
       230.0004        171.0004
 -14754456.38149 -11462605.15649  21880334.3624   21880334.8684   21880332.8474
       232.0004        184.0004
    227404.32549    177938.58249  24771085.9084   24771093.4774   24771082.7694
       198.0004        128.0004
 -17324604.06149 -12999713.83649  21070428.6764   21070431.1864   21070428.3214
       241.0004        197.0004
 -22432416.40549 -17462318.47749  19774758.8844   19774761.8654   19774758.5414
       245.0004        204.0004
 -14739398.60849 -11473134.51349  22025356.0354   22025359.3034   22025355.8054
       231.0004        179.0004
 11 10  9 14 16 30.0000000  0  9G06G18G07G21G19G26G16G03G22
 -19010444.47549 -14792815.00949  20356430.7124   20356433.7304   20356430.3844
       243.0004        201.0004
 -13845725.69949 -10338980.79849  21897368.0454   21897371.0424   21897368.3604
       237.0004        184.0004
  -2998777.83149  -2191423.10649  23893931.8664   23893936.6004   23893932.0384
       210.0004        149.0004
 -11657286.97449  -8816854.53649  22524002.0624   22524005.2904   22524000.9664
       229.0004        170.0004
 -14828102.31049 -11519991.56849  21866319.4114   21866320.1814   21866318.4214
       233.0004        185.0004
    245795.22049    192269.18049  24774583.7254   24774590.0414   24774585.4284
       195.0004        125.0004
 -17274159.08049 -12960406.06849  21080027.6954   21080030.4104   21080027.3244
       241.0004        196.0004
 -22453285.68649 -17478580.24149  19770787.4384   19770790.5464   19770786.5274
       245.0004        204.0004
 -14811662.69149 -11529444.11449  22011606.7254   22011606.8354   22011605.0734
       232.0004        179.0004
 11 10  9 14 17  0.0000000  0  9G06G18G07G21G19G26G16G03G22
 -19006195.12649 -14789503.83249  20357239.3684   20357242.4874   20357239.0524
       242.0004        201.0004
 -13845833.98949 -10339065.13649  21897348.2684   21897350.2904   21897347.4894
       238.0004        183.0004
  -2991776.13349  -2185967.22549  23895265.5784   23895268.7034   23895265.9284
       215.0004        151.0004
 -11585484.93549  -8760904.93149  22537666.0864   22537668.3354   22537664.8524
       230.0004        171.0004
 -14901501.25449 -11577185.51049  21852351.7024   21852353.5104   21852350.5344
       232.0004        185.0004
    264835.40549    207105.68749  24778208.5724   24778215.5004   24778209.5744
       197.0004        127.0004
 -17223189.05649 -12920689.18549  21089727.1374   21089729.8814   21089726.8924
       241.0004        196.0004
 -22473669.54049 -17494463.74549  19766907.6414   19766911.8384   19766907.7234
       245.0004        204.0004
 -14883523.10249 -11585439.17149  21997930.8724   21997932.4764   21997930.3084
       232.0004        180.0004
 11 10  9 14 17 30.0000000  0  9G06G18G07G21G19G26G16G03G22
 -19001547.54949 -14785882.33749  20358122.5444   20358126.8284   20358123.0354
       241.0004        201.0004
 -13845405.81949 -10338731.46849  21897430.0044   21897431.6724   21897429.1414
       237.0004        182.0004
  -2984185.57649  -2180052.48149  23896708.3454   23896713.1244   23896708.4194
       214.0004        152.0004
 -11513464.91449  -8704785.45049  22551371.7904   22551373.5354   22551370.9754
       232.0004        172.0004
 -14974652.12749 -11634186.15549  21838430.2874   21838433.4294   21838430.0384
       231.0004        184.0004
    284523.93349    222447.42449  24781954.6904   24781959.9064   24781955.4544
       195.0004        129.0004
 -17171695.65249 -12880564.47149  21099524.7304   21099529.1194   21099525.4784
       240.0004        196.0004
 -22493567.59649 -17509968.71949  19763121.6254   19763124.8954   19763121.8184
       244.0004        204.0004
 -14954977.95949 -11641118.22749  21984332.4954   21984335.6494   21984332.7264
       231.0004        181.0004
 11 10  9 14 18  0.0000000  0  9G06G18G07G21G19G26G16G03G22
 -18996501.41549 -14781950.28449  20359083.6444   20359087.0084   20359083.5484
       241.0004        201.0004
 -13844441.39649 -10337979.93149  21897612.1264   21897615.5524   21897612.5224
       236.0004        182.0004
  -2976006.57149  -2173679.23849  23898265.2454   23898269.4194   23898264.8714
       213.0004        152.0004
 -11441228.50149  -8648497.36649  22565117.7324   22565119.3254   22565116.6824
       230.0004        170.0004
 -15047553.59949 -11690992.47049  21824556.8194   21824559.7344   21824557.6504
       230.0004        184.0004
    304860.03149    238293.72049  24785824.4024   24785830.3574   24785821.7544
       195.0004        127.0004
 -17119680.06849 -12840032.86549  21109424.8004   21109426.8534   21109424.1504
       241.0004        195.0004
 -22512979.01249 -17525094.47949  19759427.1764   19759431.2844   19759427.2034
       244.0004        204.0004
 -15026025.22449 -11696479.65349  21970813.0924   21970815.6924   21970812.2214
       231.0004        181.0004
 11 10  9 14 18 30.0000000  0  9G06G18G07G21G19G26G16G03G22
 -18991056.31449 -14777707.34749  20360119.6504   20360123.4544   20360119.6764
       242.0004        201.0004
 -13842940.67149 -10336810.51949  21897897.9734   21897901.4864   21897897.6694
       237.0004        183.0004
  -2967240.16149  -2166848.26149  23899932.6014   23899937.2084   23899933.7304
       211.0004        151.0004
 -11368777.16049  -8592041.82549  22578904.0054   22578906.4854   22578904.2664
       228.0004        168.0004
 -15120204.54349 -11747603.56449  21810733.9144   21810734.3314   21810732.6024
       233.0004        184.0004
    325843.11249    254644.16549  24789817.7014   24789825.4094   24789820.2124
       198.0004        129.0004
 -17067143.61249 -12799095.38149  21119420.8044   21119424.1354   21119420.6964
       240.0004        195.0004
 -22531902.85949 -17539840.31849  19755827.0154   19755830.1614   19755826.5244
       245.0004        204.0004
 -15096662.74749 -11751521.81249  21957370.6304   21957373.7744   21957371.1344
       231.0004        182.0004
 11 10  9 14 19  0.0000000  0  9G06G18G07G21G19G26G16G03G22
 -18985211.55449 -14773152.98749  20361231.7874   20361235.6944   20361231.9024
       241.0004        201.0004
 -13840903.20349 -10335222.86349  21898286.1644   21898288.2604   21898285.1004
       237.0004        182.0004
  -2957886.41849  -2159559.62449  23901712.7414   23901716.8054   23901713.4564
       214.0004        151.0004
 -11296111.87449  -8535419.56449  22592731.8664   22592733.6534   22592732.3824
       230.0004        168.0004
 -15192603.27649 -11804018.13949  21796956.2224   21796958.1214   21796955.8674
       232.0004        186.0004
    347473.12549    271498.74449  24793934.2674   24793937.0874   24793934.3734
       201.0004        130.0004
 -17014087.39949 -12757752.90249  21129517.0484   21129520.4834   21129516.8324
       239.0004        195.0004
 -22550337.74149 -17554205.14849  19752318.7654   19752322.4134   19752318.3634
       244.0004        204.0004
 -15166887.74049 -11806242.51849  21944008.7924   21944009.8374   21944007.4324
       232.0004        181.0004
 11 10  9 14 19 30.0000000  0  9G06G18G07G21G19G26G16G03G22
 -18978967.19049 -14768287.24249  20362419.0664   20362423.5694   20362419.5134
       240.0004        200.0004
 -13838329.66249 -10333217.47349  21898775.6324   21898778.9834   21898775.6784
       238.0004        183.0004
  -2947946.61749  -2151814.34449  23903603.8234   23903608.5434   23903604.9804
       212.0004        150.0004
 -11223234.13649  -8478631.74749  22606600.9774   22606602.4264   22606600.1904
       230.0004        169.0004
 -15264749.09649 -11860235.63249  21783228.7324   21783229.7674   21783227.1194
       233.0004        187.0004
    369748.48349    288856.18249  24798171.7264   24798177.9244   24798172.5894
       203.0004        130.0004
 -16960513.33349 -12716006.89149  21139712.0364   21139715.7524   21139712.1954
       241.0004        195.0004
 -22568283.29849 -17568188.68249  19748902.9834   19748907.2654   19748903.1954
       243.0004        204.0004
 -15236698.13849 -11860640.16749  21930723.7434   21930725.5714   21930722.3154
       233.0004        181.0004
 11 10  9 14 20  0.0000000  0  9G06G18G07G21G19G26G16G03G22
 -18972322.97449 -14763109.92949  20363684.6844   20363687.9334   20363684.7744
       242.0004        201.0004
 -13835220.06149 -10330794.38549  21899367.3794   21899370.0474   21899367.1704
       237.0004        182.0004
  -2937421.59349  -2143613.01349  23905607.2504   23905612.0754   23905606.9144
       215.0004        150.0004
 -11150145.72649  -8421679.74649  22620508.1514   22620509.6744   22620508.6594
       231.0004        169.0004
 -15336640.34949 -11916254.75349  21769547.0214   21769548.8684   21769546.2874
       232.0004        186.0004
    392668.61049    306715.97249  24802532.5694   24802541.8484   24802533.8084
       194.0004        129.0004
 -16906422.86649 -12673858.49349  21150004.6294   21150008.6094   21150005.2984
       238.0004        195.0004
 -22585738.25249 -17581789.92949  19745581.5294   19745585.7044   19745581.6134
       243.0004        204.0004
 -15306091.80749 -11914713.10349  21917518.0594   21917520.0714   21917517.3774
       232.0004        181.0004
 11 10  9 14 20 30.0000000  0  9G06G18G07G21G19G26G16G03G22
 -18965278.63549 -14757620.83649  20365025.3734   20365028.7694   20365025.5114
       243.0004        201.0004
 -13831574.51449 -10327953.69849  21900061.1164   21900064.4764   21900061.2034
       238.0004        183.0004
  -2926311.91249  -2134956.10749  23907722.4824   23907726.0534   23907722.5354
       214.0004        151.0004
 -11076847.52749  -8364564.29949  22634457.1354   22634459.9104   22634457.1644
       231.0004        170.0004
 -15408275.89649 -11972074.64049  21755914.8564   21755916.8744   21755914.6274
       232.0004        186.0004
    416232.52149    325077.48849  24807018.5374   24807022.7854   24807016.3554
       196.0004        129.0004
 -16851817.26749 -12631308.69349  21160397.0374   21160399.7814   21160396.8784
       240.0004        195.0004
 -22602702.49049 -17595008.80749  19742353.8644   19742357.5314   19742353.6504
       244.0004        204.0004
 -15375066.99949 -11968459.93449  21904392.8784   21904394.4274   21904392.1064
       234.0004        181.0004
 11 10  9 14 21  0.0000000  0  9G06G18G07G21G19G26G16G03G22
 -18957833.59849 -14751819.50649  20366442.1494   20366445.2214   20366442.1204
       242.0004        200.0004
 -13827393.16449 -10324695.48649  21900857.7304   21900859.6974   21900856.6524
       237.0004        183.0004
  -2914618.31949  -2125844.21249  23909947.0804   23909951.0344   23909948.4434
       212.0004        150.0004
 -11003340.65249  -8307286.23549  22648444.2154   22648447.0594   22648443.0904
       230.0004        168.0004
 -15479654.29749 -12027694.14149  21742332.7994   21742333.9374   21742331.4084
       233.0004        187.0004
    440439.66749    343940.22449  24811625.4754   24811630.3634   24811625.1584
       200.0004        131.0004
 -16796697.67249 -12588358.37149  21170885.6504   21170888.4534   21170885.4524
       239.0004        194.0004
 -22619174.70949 -17607844.28449  19739219.4474   19739222.5554   19739219.1664
       244.0004        204.0004
 -15443621.02349 -12021878.59049  21891347.1374   21891349.7484   21891346.1044
       233.0004        184.0004
 11 10  9 14 21 30.0000000  0  9G06G18G07G21G19G26G16G03G22
 -18949987.48549 -14745705.64449  20367934.5704   20367938.5704   20367934.8104
       241.0004        200.0004
 -13822675.87949 -10321019.68249  21901754.0794   21901756.5654   21901755.0544
       236.0004        182.0004
  -2902341.36549  -2116277.76849  23912283.6464   23912288.9054   23912284.0894
       214.0004        150.0004
 -10929626.62749  -8249846.77049  22662471.2994   22662474.7974   22662471.6924
       229.0004        168.0004
 -15550774.07849 -12083112.13149  21728798.9724   21728800.0054   21728797.9044
       233.0004        187.0004
    465289.54549    363303.81349  24816354.5024   24816357.9034   24816353.0384
       202.0004        129.0004
 -16741065.57749 -12545008.71349  21181471.6194   21181475.4494   21181471.6844
       240.0004        193.0004
 -22635153.58849 -17620295.35349  19736178.5584   19736182.2264   19736178.3864
       244.0004        204.0004
 -15511751.75149 -12074967.41349  21878382.6154   21878384.1484   21878381.4864
       234.0004        182.0004
