     2.11           OBSERVATION DATA    G (GPS)             RINEX VERSION / TYPE
teqc  2013Mar15     gpsops              20150519 14:49:11UTCPGM / RUN BY / DATE
    30.0000                                                 INTERVAL
     1     1                                                WAVELENGTH FACT L1/2
     7    L1    L2    P1    P2    C1    S1    S2            # / TYPES OF OBSERV
Linux 2.4.21-27.ELsmp|Opteron|gcc -static|Linux x86_64|=+   COMMENT
     2.10           OBSERVATION DATA    GPS                 COMMENT
soc2rnx ver 1.20    gpsops              19-May-2015 14:49:10COMMENT
S1, if present, is the SNR for the C/A data stream on L1.   COMMENT
 SNR is mapped to RINEX snr flag value [1,4-9]              COMMENT
    SNR:   >316  >100  >31.6  >10  >3.2    >0 bad=0         COMMENT
L1 & L2:      9     8     7     6     5     4     1         COMMENT
GGN                 Changchun Observatory,NAOC,CAS          OBSERVER / AGENCY
CR6200503027        ASH701945E_M    NONE                    ANT # / TYPE
 -2674431.9143  3757145.2969  4391528.8732                  APPROX POSITION XYZ
        0.2500        0.0000        0.0000                  ANTENNA: DELTA H/E/N
UC2200511014        ASHTECH UZ-12       CQ00                REC # / TYPE / VERS
CHAN                                                        MARKER NAME
21611M002                                                   MARKER NUMBER
                                                            COMMENT
Forced Modulo Decimation to 30 seconds                      COMMENT
  2015     5     1     0     0    0.0000000     GPS         TIME OF FIRST OBS
                                                            END OF HEADER
 15  5  1  0  0  0.0000000  0  7G12G22G24G14G15G21G18
 120520129.22247  93911752.19547  22934246.5044   22934253.2644   22934246.4534
        49.000          43.000
 114805988.26247  89459197.06547  21846864.1214   21846867.5134   21846864.8634
        53.000          48.000
 106667924.32947  83117840.90047  20298247.6284   20298254.5864   20298246.9084
        56.000          52.000
 123805046.05547  96471439.86147  23559336.2974   23559342.5654   23559336.6374
        45.000          40.000
 117444803.57047  91515414.93547  22349015.2344   22349020.3324   22349014.8784
        52.000          46.000
 123711793.89547  96398777.03147  23541590.3174   23541594.4004   23541591.2144
        44.000          38.000
 107578640.29447  83827490.92947  20471552.1204   20471555.9894   20471552.1094
        55.000          50.000
 15  5  1  0  0 30.0000000  0  7G12G22G24G14G15G21G18
 120423033.80047  93836093.50847  22915770.1274   22915776.2714   22915769.5074
        48.000          43.000
 114734450.34247  89403453.26647  21833250.6014   21833253.9924   21833251.2504
        53.000          47.000
 106691124.05147  83135918.61147  20302662.4324   20302669.4014   20302661.7894
        56.000          52.000
 123727466.34547  96410988.18147  23544573.5924   23544580.6544   23544573.8064
        46.000          41.000
 117518892.80047  91573146.76447  22363113.3354   22363119.2734   22363112.5864
        51.000          46.000
 123796781.16647  96465000.82747  23557762.8184   23557767.6954   23557762.6044
        43.000          37.000
 107561331.43747  83814003.50347  20468258.2314   20468262.3414   20468258.6614
        55.000          50.000
 15  5  1  0  1  0.0000000  0  7G12G22G24G14G15G21G18
 120326214.30947  93760649.83947  22897345.7364   22897352.0634   22897345.0844
        48.000          43.000
 114663250.49847  89347972.89447  21819701.5634   21819704.7914   21819701.9454
        53.000          47.000
 106714835.39747  83154394.98447  20307174.6424   20307181.4514   20307174.0634
        56.000          52.000
 123649989.35147  96350616.54647  23529830.7394   23529837.3494   23529830.5194
        46.000          41.000
 117593160.78147  91631017.87247  22377246.2734   22377251.9954   22377245.7954
        52.000          46.000
 123881961.20847  96531374.85047  23573972.0704   23573976.8764   23573971.7734
        43.000          37.000
 107544511.76847  83800897.26047  20465057.4084   20465061.5924   20465057.7154
        54.000          50.000
 15  5  1  0  1 30.0000000  0  7G12G22G24G14G15G21G18
 120229652.23247  93685406.74147  22878970.8564   22878977.3134   22878970.5114
        50.000          43.000
 114592368.66847  89292740.33247  21806213.2754   21806216.9314   21806213.9134
        53.000          48.000
 106739034.24647  83173251.22247  20311779.6854   20311786.2044   20311779.1814
        56.000          52.000
 123572593.00547  96290307.73547  23515101.9334   23515108.6584   23515102.0784
        45.000          40.000
 117667584.61747  91689010.42847  22391408.7614   22391414.7744   22391408.2624
        51.000          46.000
 123967308.95747  96597879.51847  23590213.1154   23590218.3214   23590214.2524
        42.000          37.000
 107528160.19447  83788155.76247  20461945.7184   20461949.9914   20461946.0014
        55.000          50.000
 15  5  1  0  2  0.0000000  0  7G12G22G24G14G15G21G18
 120133353.63147  93610368.94047  22860645.8044   22860652.4864   22860645.7764
        48.000          43.000
 114521809.91047  89237759.51447  21792786.1764   21792789.9404   21792786.8864
        53.000          47.000
 106763722.09947  83192488.50147  20316477.6514   20316483.9614   20316477.1094
        56.000          52.000
 123495280.24347  96230064.05047  23500389.2884   23500396.1794   23500389.4214
        45.000          40.000
 117742166.72847  91747126.29947  22405601.2114   22405607.3774   22405600.7204
        51.000          46.000
 124052824.34147  96664514.84947  23606485.8184   23606491.1274   23606485.2164
        43.000          37.000
 107512281.10947  83775782.44247  20458924.0864   20458928.4844   20458924.3554
        54.000          50.000
 15  5  1  0  2 30.0000000  0  7G12G22G24G14G15G21G18
 120037340.91947  93535553.89047  22842374.8444   22842381.4594   22842374.3324
        48.000          43.000
 114451595.22847  89183046.80947  21779424.7034   21779428.4994   21779425.4914
        53.000          47.000
 106788916.50647  83212120.49447  20321271.9444   20321278.3954   20321271.2624
        56.000          52.000
 123418071.01647  96169901.05347  23485697.2894   23485703.7884   23485697.0354
        46.000          40.000
 117816925.29347  91805379.67747  22419827.5174   22419833.1884   22419826.8574
        51.000          46.000
 124138523.65647  96731293.47747  23622793.6934   23622799.6264   23622793.8864
        45.000          37.000
 107496894.26847  83763792.68747  20455996.0524   20456000.5254   20455996.3294
        54.000          50.000
 15  5  1  0  3  0.0000000  0  7G12G22G24G14G15G21G18
 119941597.08947  93460948.35947  22824155.4674   22824162.0834   22824155.3104
        49.000          43.000
 114381706.34547  89128587.95947  21766125.4104   21766128.7384   21766126.4674
        54.000          48.000
 106814595.16747  83232129.82647  20326158.3204   20326165.0724   20326157.7144
        56.000          52.000
 123340944.96647  96109802.88447  23471020.5444   23471027.8844   23471020.4454
        46.000          41.000
 117891839.21847  91863754.11347  22434083.0254   22434088.9544   22434082.3194
        52.000          46.000
 124224382.92547  96798196.73447  23639132.2044   23639138.7444   23639133.9144
        44.000          38.000
 107481980.47147  83752171.53147  20453158.1034   20453162.5044   20453158.5114
        55.000          50.000
 15  5  1  0  3 30.0000000  0  7G12G22G24G14G15G21G18
 119846132.73147  93386560.62147  22805989.1804   22805995.9104   22805988.6944
        48.000          43.000
 114312153.03347  89074390.59047  21752889.7924   21752893.1544   21752890.7254
        53.000          47.000
 106840764.01947  83252521.12547  20331138.1414   20331144.8554   20331137.5394
        56.000          52.000
 123263909.65247  96049775.41247  23456361.6244   23456367.9704   23456361.8834
        46.000          41.000
 117966914.98947  91922254.64947  22448369.7374   22448375.7194   22448369.5384
        52.000          46.000
 124310406.87747  96865228.30747  23655502.4274   23655508.8114   23655502.9164
        44.000          38.000
 107467548.52347  83740925.85047  20450411.7164   20450416.1624   20450412.2584
        55.000          50.000
 15  5  1  0  4  0.0000000  0  7G12G22G24G14G15G21G18
 119750943.75247  93312387.45647  22787875.3114   22787881.9714   22787874.3794
        48.000          44.000
 114242930.08847  89020450.65447  21739716.8444   21739720.3414   21739717.6104
        53.000          47.000
 106867414.73747  83273287.91347  20336209.5134   20336216.4654   20336208.9094
        56.000          52.000
 123186958.15147  95989813.20447  23441718.6144   23441723.9514   23441718.6134
        47.000          41.000
 118042145.03047  91980875.40747  22462685.8414   22462691.3784   22462685.3244
        52.000          46.000
 124396585.27947  96932380.24047  23671901.8104   23671907.6404   23671902.3424
        44.000          38.000
 107453591.98647  83730050.61347  20447755.8284   20447760.2304   20447756.3754
        54.000          50.000
 15  5  1  0  4 30.0000000  0  7G12G22G24G14G15G21G18
 119656051.59347  93238445.59347  22769817.5304   22769824.7804   22769816.8804
        49.000          44.000
 114174057.48647  88966783.71547  21726610.8454   21726614.7644   21726611.5644
        53.000          48.000
 106894563.08847  83294442.46947  20341375.5024   20341382.6594   20341374.6844
        56.000          52.000
 123110108.44747  95929930.34847  23427094.1734   23427099.8374   23427093.9554
        45.000          41.000
 118117546.54147  92039629.77447  22477033.8894   22477039.5934   22477033.6084
        51.000          46.000
 124482933.49147  96999664.49047  23688333.5884   23688339.3864   23688334.9074
        44.000          39.000
 107440129.81347  83719560.59747  20445194.1294   20445198.4084   20445194.4644
        54.000          50.000
 15  5  1  0  5  0.0000000  0  7G12G22G24G14G15G21G18
 119561444.64647  93164725.97547  22751814.8874   22751821.3274   22751814.8554
        49.000          44.000
 114105522.21747  88913379.62647  21713569.1224   21713573.0804   21713569.7584
        53.000          48.000
 106922192.78547  83315972.08847  20346633.6094   20346640.3274   20346633.0224
        56.000          52.000
 123033345.93147  95870115.45147  23412486.9074   23412492.7394   23412486.8094
        46.000          41.000
 118193103.74747  92098505.45147  22491411.9084   22491418.0654   22491411.0814
        51.000          46.000
 124569433.19747  97067066.79747  23704793.9674   23704799.9354   23704794.0694
        45.000          39.000
 107427148.31747  83709445.14047  20442723.9034   20442728.0584   20442724.3304
        55.000          50.000
 15  5  1  0  5 30.0000000  0  7G12G22G24G14G15G21G18
 119467121.34747  93091227.37947  22733865.6074   22733871.9614   22733865.7004
        49.000          44.000
 114037322.14047  88860236.72847  21700591.1524   21700595.0084   21700591.7264
        53.000          48.000
 106950297.33847  83337871.73147  20351981.8164   20351988.2044   20351981.2954
        56.000          52.000
 122956666.23447  95810365.05447  23397895.3714   23397900.8974   23397895.6784
        47.000          41.000
 118268811.70347  92157498.60547  22505818.7154   22505824.9284   22505818.1974
        51.000          46.000
 124656076.95647  97134581.34147  23721281.2834   23721288.0484   23721282.4904
        44.000          39.000
 107414643.84047  83699701.38547  20440344.4684   20440348.6134   20440344.7704
        55.000          50.000
 15  5  1  0  6  0.0000000  0  7G12G22G24G14G15G21G18
 119373109.94747  93017971.82647  22715975.5594   22715981.8844   22715975.1814
        49.000          43.000
 113969483.79947  88807375.70547  21687681.7214   21687685.6964   21687682.3514
        53.000          48.000
 106978899.73447  83360159.30247  20357424.5504   20357431.0194   20357423.9024
        56.000          52.000
 122880094.51347  95750698.82647  23383324.1464   23383329.9204   23383324.2764
        46.000          41.000
 118344694.17547  92216627.73747  22520258.6134   22520264.6974   22520258.0294
        51.000          46.000
 124742886.18147  97202224.84147  23737800.6774   23737807.2304   23737801.7204
        44.000          39.000
 107402641.92847  83690349.24247  20438060.6464   20438064.7024   20438061.2624
        55.000          50.000
 15  5  1  0  6 30.0000000  0  7G12G22G24G14G15G21G18
 119279380.97247  92944936.33747  22698139.6944   22698145.6384   22698139.3464
        49.000          44.000
 113901976.85247  88754772.91247  21674835.6144   21674839.2104   21674836.3444
        53.000          48.000
 107007966.12347  83382808.42347  20362955.7154   20362962.3064   20362955.1264
        56.000          52.000
 122803598.17747  95691091.31247  23368766.9214   23368773.4594   23368767.1554
        46.000          41.000
 118420717.99247  92275867.01147  22534726.0024   22534731.7494   22534725.7534
        51.000          46.000
 124829825.54847  97269969.74047  23754345.1504   23754351.1104   23754346.2944
        44.000          39.000
 107391111.47947  83681364.47047  20435866.2734   20435870.6294   20435866.8414
        54.000          50.000
 15  5  1  0  7  0.0000000  0  7G12G22G24G14G15G21G18
 119185966.78447  92872146.15447  22680363.5334   22680369.5524   22680363.3474
        49.000          44.000
 113834832.90447  88702452.97547  21662058.5184   21662062.1544   21662059.1994
        54.000          48.000
 107037523.48347  83405840.12247  20368580.3134   20368586.8894   20368579.8084
        56.000          52.000
 122727206.98147  95631565.75547  23354229.4954   23354236.7194   23354230.0114
        45.000          41.000
 118496912.03047  92335238.91747  22549225.3294   22549231.1634   22549225.2204
        51.000          46.000
 124916921.64547  97337836.75947  23770918.9364   23770924.7884   23770919.9204
        43.000          38.000
 107380082.60847  83672770.53247  20433767.5954   20433771.9744   20433768.0354
        54.000          50.000
 15  5  1  0  7 30.0000000  0  7G12G22G24G14G15G21G18
 119092850.02547  92799587.73047  22662644.0104   22662650.4374   22662643.4234
        50.000          44.000
 113768032.87247  88650401.02847  21649347.1674   21649350.5594   21649347.9514
        54.000          48.000
 107067549.94747  83429237.36347  20374293.9984   20374300.8064   20374293.4844
        56.000          52.000
 122650900.32947  95572106.05447  23339709.3244   23339715.7474   23339709.2864
        47.000          41.000
 118573254.54347  92394726.52447  22563752.5934   22563758.7864   22563752.1614
        51.000          46.000
 125004150.55647  97405807.27847  23787518.2114   23787523.8884   23787518.2514
        43.000          38.000
 107369535.56547  83664552.05347  20431760.6084   20431765.0124   20431761.0454
        54.000          50.000
 15  5  1  0  8  0.0000000  0  7G12G22G24G14G15G21G18
 119000046.88047  92727273.69347  22644983.7504   22644990.4404   22644983.0894
        49.000          44.000
 113701592.29447  88598629.17547  21636703.9464   21636707.3594   21636704.5544
        54.000          48.000
 107098056.60847  83453008.77947  20380099.3244   20380106.1154   20380098.6174
        56.000          52.000
 122574691.50447  95512722.57347  23325207.5934   23325213.5374   23325208.1624
        47.000          41.000
 118649758.03747  92454339.58747  22578310.8864   22578316.5974   22578310.1444
        50.000          46.000
 125091522.23647  97473889.03947  23804144.3144   23804150.0374   23804145.1264
        42.000          37.000
 107359484.30247  83656719.89747  20429847.8474   20429852.3044   20429848.3024
        54.000          50.000
 15  5  1  0  8 30.0000000  0  7G12G22G24G14G15G21G18
 118907558.78147  92655205.13647  22627383.4254   22627390.1124   22627382.9104
        49.000          44.000
 113635511.07747  88547137.34647  21624128.8894   21624132.4974   21624129.4134
        53.000          48.000
 107129039.62547  83477151.38147  20385995.2544   20386002.1474   20385994.6204
        56.000          52.000
 122498578.90747  95453414.11047  23310723.3954   23310730.0874   23310723.5734
        47.000          41.000
 118726419.69347  92514075.88047  22592898.9694   22592905.1254   22592898.3494
        50.000          45.000
 125179031.65247  97542078.12947  23820796.2994   23820802.9494   23820797.0284
        43.000          37.000
 107349927.61247  83649273.11847  20428029.3044   20428033.7254   20428029.7904
        54.000          50.000
 15  5  1  0  9  0.0000000  0  8G12G25G22G24G14G15G21G18
 118815380.93847  92583378.33647  22609843.2134   22609848.8264   22609842.4134
        49.000          44.000
 139805898.56557  91147401.50057  24701280.8365   24701293.6485   24701282.4965
        41.000          36.000
 113569783.18947  88495920.84547  21611621.1324   21611624.8044   21611621.6964
        53.000          48.000
 107160489.80447  83501658.00847  20391980.2194   20391986.8454   20391979.6524
        56.000          52.000
 122422554.56547  95394174.39547  23296256.6924   23296262.9034   23296256.8234
        46.000          41.000
 118803230.85447  92573928.66547  22607515.7714   22607521.9494   22607515.3284
        51.000          46.000
 125266668.00347  97610366.14947  23837473.4644   23837479.4614   23837473.5624
        40.000          36.000
 107340858.38347  83642206.17847  20426303.5444   20426307.9504   20426304.1604
        54.000          50.000
 15  5  1  0  9 30.0000000  0  8G12G25G22G24G14G15G21G18
 118723527.70047  92511804.48147  22592364.1304   22592369.9904   22592364.0684
        49.000          44.000
 119691464.55557 111058236.19657  24679502.1045   24679514.0205   24679502.7495
        41.000          36.000
 113504422.10347  88444990.15847  21599183.0834   21599186.9294   21599183.6264
        53.000          48.000
 107192415.91947  83526535.48447  20398055.6724   20398061.9564   20398055.0364
        56.000          52.000
 122346629.91647  95335012.36747  23281808.8004   23281815.0104   23281808.8104
        46.000          41.000
 118880201.95847  92633906.08247  22622162.9304   22622168.9224   22622162.6114
        50.000          45.000
 125354439.35147  97678759.31047  23854175.3654   23854181.9284   23854174.7894
        41.000          35.000
 107332288.52147  83635528.35047  20424672.7044   20424677.1844   20424673.0544
        54.000          50.000
 15  5  1  0 10  0.0000000  0  8G12G25G22G24G14G15G21G18
 118631988.14347  92440475.04047  22574944.3284   22574950.8754   22574943.9384
        50.000          44.000
 139577004.34957  90969049.69457  24657717.5855   24657728.4125   24657715.7295
        42.000          36.000
 113439415.71147  88394335.85747  21586813.0134   21586816.6154   21586813.5144
        53.000          48.000
 107224802.68547  83551771.90947  20404218.2944   20404225.1214   20404217.5834
        56.000          52.000
 122270791.47047  95275917.51647  23267376.7384   23267383.1304   23267376.8674
        47.000          41.000
 118957318.48247  92693996.81447  22636837.5344   22636843.8034   22636837.1654
        51.000          45.000
 125442328.58947  97747244.34747  23870900.4464   23870906.4254   23870900.3074
        40.000          35.000
 107324205.24647  83629229.68647  20423134.3604   20423138.9244   20423134.7104
        54.000          50.000
 15  5  1  0 10 30.0000000  0  8G12G25G22G24G14G15G21G18
 118540781.56547  92369405.05847  22557588.2014   22557594.7744   22557588.3054
        50.000          44.000
 119462481.74857 110879808.62157  24635926.3815   24635939.1875   24635925.8725
        41.000          37.000
 113374781.96847  88343971.91547  21574513.7254   21574517.2834   21574514.5024
        54.000          48.000
 107257663.72147  83577377.89147  20410471.4824   20410478.3924   20410470.9284
        56.000          52.000
 122195055.51147  95216902.52247  23252964.8644   23252970.7044   23252965.0034
        47.000          41.000
 119034595.84047  92754212.86747  22651543.4184   22651549.2654   22651542.9834
        50.000          45.000
 125530349.14947  97815831.71547  23887649.5114   23887655.5914   23887650.7594
        39.000          35.000
 107316625.55147  83623323.42047  20421692.0084   20421696.4954   20421692.3364
        54.000          50.000
 15  5  1  0 11  0.0000000  0  8G12G25G22G24G14G15G21G18
 118449899.11347  92298587.65147  22540294.0524   22540300.1334   22540293.8094
        50.000          44.000
 119347950.07747 110790563.43147  24614131.5434   24614143.6624   24614131.2884
        42.000          36.000
 113310510.86547  88293890.56847  21562283.1774   21562287.0224   21562283.8444
        53.000          48.000
 107290985.78847  83603343.12147  20416812.4954   20416819.3654   20416811.7014
        56.000          52.000
 122119410.05147  95157958.03247  23238570.2924   23238576.2464   23238570.5694
        48.000          42.000
 119112020.86147  92814543.98947  22666276.9174   22666282.7694   22666276.3664
        51.000          45.000
 125618485.57047  97884509.35747  23904422.7594   23904426.9154   23904422.3774
        41.000          35.000
 107309537.96347  83617800.60747  20420343.4504   20420347.8564   20420343.8464
        54.000          50.000
 15  5  1  0 11 30.0000000  0  8G12G25G22G24G14G15G21G18
 118359350.04247  92228030.03447  22523062.9714   22523068.8854   22523062.8854
        50.000          44.000
 119233400.29047 110701304.08347  24592333.1264   24592345.2024   24592333.7054
        42.000          37.000
 113246610.78047  88244098.32647  21550123.3704   21550127.1784   21550124.1374
        54.000          48.000
 107324772.62647  83629670.50147  20423241.9274   20423248.7454   20423241.3274
        56.000          52.000
 122043861.20347  95099088.83847  23224193.6974   23224200.2264   23224193.7374
        47.000          42.000
 119189599.24847  92874994.61147  22681039.7224   22681045.2064   22681039.6284
        51.000          45.000
 125706741.17447  97953279.88747  23921217.1794   23921222.0244   23921217.3924
        42.000          35.000
 107302949.48047  83612666.71247  20419089.7444   20419094.2004   20419090.2804
        55.000          50.000
 15  5  1  0 12  0.0000000  0  8G12G25G22G24G14G15G21G18
 118269140.04047  92157736.61347  22505896.0674   22505902.4034   22505895.0844
        49.000          44.000
 119118837.80247 110612034.86147  24570531.9904   24570544.4214   24570532.7154
        42.000          37.000
 113183086.22747  88194598.69547  21538035.1964   21538038.7104   21538035.9184
        54.000          48.000
 107359025.12747  83656360.72747  20429760.0554   20429766.9594   20429759.3834
        56.000          52.000
 121968412.18047  95040297.42247  23209835.6274   23209842.7094   23209835.9484
        47.000          42.000
 119267332.89447  92935566.18647  22695831.6434   22695837.5284   22695831.3744
        51.000          45.000
 125795115.30447  98022142.77047  23938034.4554   23938040.1294   23938034.7164
        42.000          36.000
 107296863.22347  83607924.15747  20417931.5504   20417935.9734   20417932.0694
        54.000          50.000
 15  5  1  0 12 30.0000000  0  8G12G25G22G24G14G15G21G18
 118179267.80547  92087706.38647  22488793.8614   22488800.3344   22488793.2264
        49.000          44.000
 119004260.60147 110522754.14147  24548728.5914   24548741.3244   24548728.4604
        42.000          37.000
 113119934.54947  88145389.62147  21526017.8264   21526021.2784   21526018.6094
        54.000          48.000
 107393737.12547  83683409.01047  20436365.7524   20436372.5414   20436365.1594
        56.000          52.000
 121893058.20047  94981580.08447  23195496.2704   23195503.1844   23195496.2714
        47.000          42.000
 119345216.24647  92996254.43347  22710652.6334   22710658.5794   22710652.4154
        51.000          45.000
 125883600.39447  98091092.13947  23954872.1664   23954877.9984   23954872.3494
        43.000          36.000
 107291275.95847  83603570.43047  20416868.4184   20416872.7914   20416868.6904
        55.000          50.000
 15  5  1  0 13  0.0000000  0  8G12G25G22G24G14G15G21G18
 118089740.25347  92017944.74747  22471757.5354   22471763.7054   22471756.9874
        49.000          44.000
 118889675.37747 110433467.13047  24526924.3304   24526936.3224   24526926.0914
        42.000          37.000
 113057161.69047  88096475.72747  21514072.5924   21514075.8324   21514073.2924
        54.000          48.000
 107428910.52147  83710816.81947  20443058.9694   20443065.8174   20443058.3604
        56.000          52.000
 121817803.57347  94922940.16347  23181176.1334   23181182.5534   23181176.2384
        47.000          42.000
 119423252.86747  93057062.10947  22725502.3894   22725508.5774   22725502.1314
        50.000          45.000
 125972197.06147  98160128.42047  23971731.8184   23971737.8474   23971732.1624
        42.000          36.000
 107286191.59647  83599608.58047  20415900.9774   20415905.2814   20415901.3114
        54.000          50.000
 15  5  1  0 13 30.0000000  0  8G12G25G22G24G14G15G21G18
 118000549.16447  91948445.28147  22454785.3674   22454791.2104   22454785.2264
        50.000          45.000
 118775073.67047 110344167.26047  24505116.3574   24505127.1284   24505117.6054
        42.000          37.000
 112994758.34647  88047849.77347  21502197.5974   21502200.8504   21502198.3414
        54.000          48.000
 107464532.48747  83738574.16847  20449837.7224   20449844.3714   20449837.1414
        56.000          52.000
 121742637.55247  94864369.26947  23166872.4544   23166878.5244   23166872.5314
        47.000          42.000
 119501430.64747  93117979.77547  22740379.2514   22740385.2404   22740378.8634
        51.000          45.000
 126060891.49147  98229240.88347  23988609.8744   23988615.3474   23988609.7814
        43.000          37.000
 107281599.96247  83596030.67247  20415027.1274   20415031.4504   20415027.5384
        55.000          50.000
 15  5  1  0 14  0.0000000  0  8G12G25G22G24G14G15G21G18
 117911716.53747  91879225.15147  22437880.9004   22437887.0084   22437880.9094
        49.000          45.000
 118660476.90647 110254871.24547  24483309.5694   24483319.9274   24483309.4414
        42.000          38.000
 112932745.22947  87999527.88847  21490396.5904   21490400.1254   21490397.1804
        54.000          48.000
 107500619.44047  83766693.85147  20456704.8974   20456711.4804   20456704.2144
        56.000          52.000
 121667578.71947  94805881.92147  23152589.0564   23152595.3164   23152589.0824
        48.000          42.000
 119579767.48547  93179021.39447  22755286.0914   22755292.3644   22755285.6814
        50.000          45.000
 126149699.17147  98298441.57747  24005509.7904   24005515.6344   24005509.7644
        43.000          37.000
 107277520.50947  83592851.86147  20414250.8834   20414255.1904   20414251.1264
        55.000          50.000
 15  5  1  0 14 30.0000000  0  8G12G25G22G24G14G15G21G18
 117823228.16447  91810273.26547  22421041.6304   22421047.7864   22421041.3084
        49.000          45.000
 118545870.38847 110165567.64947  24461500.0534   24461510.6974   24461500.2254
        41.000          38.000
 112871106.90747  87951498.05647  21478667.0974   21478670.9974   21478667.6814
        53.000          48.000
 107537151.92747  83795160.70447  20463656.6604   20463663.5304   20463656.0774
        56.000          52.000
 121592610.37647  94747465.07047  23138323.2294   23138329.6424   23138323.4454
        48.000          42.000
 119658245.54447  93240173.03647  22770220.3464   22770226.5614   22770219.1684
        50.000          45.000
 126238599.80147  98367714.71347  24022426.4714   24022432.4614   24022426.7654
        43.000          37.000
 107273937.00947  83590059.50347  20413568.9984   20413573.2954   20413569.3694
        54.000          50.000
 15  5  1  0 15  0.0000000  0  8G12G25G22G24G14G15G21G18
 117735102.29247  91741603.83447  22404271.9394   22404278.0354   22404271.9584
        50.000          45.000
 118431272.01647 110076270.38347  24439692.6834   24439702.7874   24439693.0814
        42.000          38.000
 112809860.53347  87903773.62847  21467012.4704   21467016.2774   21467013.1044
        54.000          48.000
 107574143.50247  83823985.29147  20470695.8564   20470702.8304   20470695.2604
        56.000          52.000
 121517747.50047  94689130.40747  23124077.5294   23124083.6164   23124077.5214
        48.000          42.000
 119736878.96947  93301445.75347  22785183.6034   22785189.9084   22785182.6964
        50.000          45.000
 126327605.37247  98437069.59747  24039363.5614   24039370.0944   24039364.6574
        43.000          37.000
 107270864.81547  83587665.57147  20412984.3144   20412988.6544   20412984.6814
        54.000          50.000
 15  5  1  0 15 30.0000000  0  8G12G25G22G24G14G15G21G18
 117647336.30047  91673214.84247  22387570.7964   22387576.5864   22387570.9624
        51.000          45.000
 118316679.16847 109986977.45247  24417886.1884   24417896.6194   24417886.8474
        43.000          38.000
 112749002.66147  87856351.93547  21455431.4654   21455435.3924   21455432.0394
        54.000          48.000
 107611586.60247  83853161.71447  20477820.8714   20477827.9284   20477820.2584
        56.000          52.000
 121442984.94647  94630873.90047  23109850.5124   23109856.2844   23109850.8544
        47.000          41.000
 119815661.79647  93362834.89847  22800175.6444   22800181.8014   22800174.5414
        51.000          45.000
 126416707.36947  98506499.63447  24056319.6824   24056325.8004   24056319.6634
        44.000          37.000
 107268299.11447  83585666.29847  20412496.0214   20412500.4364   20412496.2564
        55.000          50.000
 15  5  1  0 16  0.0000000  0  8G12G25G22G24G14G15G21G18
 117559924.91747  91605102.16247  22370937.0954   22370942.5304   22370937.4554
        50.000          45.000
 118202085.91447 109897684.17547  24396079.2014   24396089.9844   24396079.6434
        43.000          38.000
 112688526.67247  87809227.80647  21443923.4114   21443927.0924   21443924.0524
        54.000          49.000
 107649471.31247  83882682.25147  20485030.2814   20485037.1314   20485029.6494
        56.000          52.000
 121368314.37147  94572689.07347  23095640.5584   23095646.6704   23095640.7324
        47.000          42.000
 119894584.73947  93424333.24247  22815194.3084   22815200.2814   22815193.6294
        50.000          45.000
 126505894.28547  98575995.82347  24073291.6314   24073297.6274   24073292.9904
        43.000          37.000
 107266231.61047  83584055.23547  20412102.5574   20412107.0064   20412103.0534
        55.000          50.000
 15  5  1  0 16 30.0000000  0  8G12G25G22G24G14G15G21G18
 117472884.63547  91537278.66047  22354373.4034   22354379.4784   22354373.4724
        50.000          45.000
 118087508.36647 109808403.16447  24374275.7424   24374286.9214   24374275.9544
        42.000          38.000
 112628447.88947  87762413.19547  21432490.8514   21432494.2514   21432491.6674
        54.000          49.000
 107687808.09647  83912555.04847  20492325.7964   20492332.3794   20492325.2304
        56.000          52.000
 121293749.52947  94514586.62847  23081451.7334   23081457.5824   23081451.8804
        47.000          42.000
 119973660.24947  93485950.45747  22830241.6374   22830248.0844   22830241.2594
        50.000          45.000
 126595176.35347  98645566.15747  24090281.3724   24090287.7944   24090281.7664
        42.000          37.000
 107264676.58747  83582843.50847  20411806.8014   20411811.0764   20411807.2924
        54.000          50.000
 15  5  1  0 17  0.0000000  0  8G12G25G22G24G14G15G21G18
 117386207.24847  91469737.92047  22337878.8764   22337885.3724   22337878.2544
        49.000          45.000
 117972938.23347 109719127.93347  24352473.8224   24352485.1634   24352473.7454
        42.000          38.000
 112568756.96747  87715900.80447  21421132.2004   21421135.4894   21421132.8194
        54.000          49.000
 107726584.82747  83942770.66047  20499704.8694   20499711.3684   20499704.2254
        56.000          52.000
 121219279.43047  94456558.01747  23067280.4874   23067286.4884   23067280.7674
        48.000          42.000
 120052876.37147  93547677.22347  22845315.9934   22845322.6084   22845315.6354
        50.000          45.000
 126684539.50647  98715199.67047  24107286.9794   24107293.6594   24107286.6814
        42.000          37.000
 107263623.55147  83582022.94247  20411606.3284   20411610.7134   20411606.6014
        54.000          50.000
 15  5  1  0 17 30.0000000  0  8G12G25G22G24G14G15G21G18
 117299901.10247  91402486.47947  22321455.2944   22321461.8194   22321454.7074
        50.000          45.000
 117858383.34947 109629864.57247  24330674.6364   24330685.4274   24330674.7464
        42.000          38.000
 112509461.13047  87669696.27947  21409848.5624   21409851.9244   21409849.3374
        54.000          49.000
 107765804.32847  83973331.28747  20507167.9384   20507174.6954   20507167.3374
        56.000          51.000
 121144909.42947  94398607.40847  23053128.5984   23053134.6714   23053128.6454
        48.000          42.000
 120132237.88547  93609517.29247  22860418.3774   22860424.4664   22860417.8464
        50.000          45.000
 126773985.80047  98784897.96047  24124308.9194   24124314.3184   24124308.9334
        41.000          37.000
 107263078.48147  83581598.19747  20411502.4984   20411507.0044   20411502.9334
        54.000          50.000
 15  5  1  0 18  0.0000000  0  8G12G25G22G24G14G15G21G18
 117213972.00647  91335528.83647  22305103.8354   22305110.0094   22305103.8944
        50.000          45.000
 117743849.62847 109540617.75547  24308879.2314   24308890.8354   24308880.0154
        42.000          38.000
 112450565.63747  87623803.70347  21398640.9734   21398644.5044   21398641.4564
        54.000          49.000
 107805467.48147  84004237.61347  20514715.4394   20514722.2274   20514714.8134
        56.000          51.000
 121070643.05147  94340737.55347  23038996.0364   23039002.3784   23038996.2184
        47.000          42.000
 120211747.12947  93671472.47547  22875548.4914   22875554.8504   22875548.6804
        50.000          45.000
 126863515.29247  98854661.09147  24141345.5274   24141351.3654   24141345.2044
        42.000          37.000
 107263044.62747  83581571.80647  20411496.2254   20411500.5424   20411496.6674
        54.000          50.000
 15  5  1  0 18 30.0000000  0  8G12G25G22G24G14G15G21G18
 117128420.61647  91268865.50747  22288823.8554   22288829.5594   22288823.8434
        50.000          45.000
 117629336.89847 109451387.25447  24287088.4574   24287099.2944   24287088.6084
        42.000          38.000
 112392069.26647  87578222.13447  21387509.4124   21387512.9544   21387510.2724
        54.000          49.000
 107845569.31947  84035485.77847  20522346.4504   20522353.4454   20522345.7054
        56.000          51.000
 120996477.42847  94282946.20247  23024882.6734   23024888.9014   23024882.7094
        48.000          42.000
 120291400.21147  93733539.73247  22890706.0134   22890712.1324   22890705.8994
        50.000          44.000
 126953122.04847  98924484.44547  24158396.0194   24158403.0594   24158396.6684
        41.000          37.000
 107263519.97647  83581942.19247  20411586.6174   20411590.9684   20411587.1524
        54.000          50.000
 15  5  1  0 19  0.0000000  0  8G12G25G22G24G14G15G21G18
 117043250.20247  91202499.05647  22272616.3534   22272621.8564   22272616.0474
        50.000          45.000
 117514848.30747 109362175.58447  24265301.9654   24265312.5444   24265301.7564
        42.000          38.000
 112333974.15747  87532953.23047  21376454.3354   21376457.7884   21376454.9974
        54.000          49.000
 107886108.51847  84067074.74147  20530060.9684   20530068.0424   20530060.3494
        55.000          52.000
 120922413.12747  94225233.79747  23010789.0704   23010794.6464   23010789.4284
        48.000          43.000
 120371197.09947  93795719.05047  22905891.1014   22905897.0274   22905890.7624
        50.000          44.000
 127042803.46847  98994365.96347  24175462.5604   24175469.1884   24175463.3394
        41.000          37.000
 107264505.15147  83582709.84247  20411774.1034   20411778.4884   20411774.5094
        55.000          50.000
 15  5  1  0 19 30.0000000  0  8G12G25G22G24G14G15G21G18
 116958464.49547  91136432.37047  22256481.9974   22256487.6284   22256481.3464
        50.000          45.000
 117400387.39347 109272985.48547  24243519.6854   24243530.9014   24243519.7974
        42.000          38.000
 112276283.21547  87487999.26947  21365475.9374   21365479.3644   21365476.4754
        54.000          49.000
 107927083.69447  84099003.43047  20537858.4074   20537865.5444   20537857.8194
        56.000          51.000
 120848451.37647  94167601.29647  22996714.7924   22996720.3034   22996714.7564
        48.000          42.000
 120451137.69647  93858010.35147  22921103.3464   22921109.3704   22921103.0914
        50.000          44.000
 127132557.45847  99064303.97547  24192540.9884   24192548.4844   24192541.6204
        40.000          36.000
 107266001.67947  83583875.94947  20412058.9994   20412063.2004   20412059.4454
        54.000          50.000
 15  5  1  0 20  0.0000000  0  8G12G25G22G24G14G15G21G18
 116874067.56847  91070668.61747  22240421.6904   22240427.5194   22240421.0914
        51.000          45.000
 117285958.18147 109183820.07947  24221745.6134   24221755.1494   24221744.7134
        42.000          38.000
 112218999.55847  87443362.67247  21354575.3144   21354578.7684   21354575.8534
        54.000          49.000
 107968494.44347  84131271.52047  20545738.5834   20545745.6134   20545738.0664
        55.000          51.000
 120774593.75547  94110049.93947  22982659.7904   22982665.7604   22982659.9504
        48.000          42.000
 120531222.66647  93920414.14747  22936342.8274   22936348.7894   22936342.6254
        49.000          44.000
 127222381.85147  99134296.92447  24209634.8514   24209640.3944   24209635.5384
        40.000          36.000
 107268011.00347  83585441.64247  20412441.3294   20412445.5974   20412441.6504
        54.000          50.000
 15  5  1  0 20 30.0000000  0  8G12G25G22G24G14G15G21G18
 116790059.39747  91005207.80747  22224435.6334   22224441.4984   22224435.6034
        51.000          45.000
 117171560.24347 109094679.01147  24199975.7184   24199985.4084   24199975.8994
        43.000          38.000
 112162122.03747  87399042.54847  21343751.9014   21343755.2844   21343752.5024
        54.000          49.000
 108010335.24747  84163874.71947  20553700.6244   20553707.3274   20553699.9424
        55.000          51.000
 120700837.24547  94052577.37047  22968624.2054   22968630.1134   22968624.3314
        48.000          42.000
 120611447.82247  93982927.19547  22951609.2664   22951614.9114   22951608.9674
        50.000          44.000
 127312270.75447  99204340.10447  24226740.5994   24226746.7484   24226740.4114
        42.000          36.000
 107270530.71847  83587405.03747  20412920.7594   20412925.0784   20412921.1424
        54.000          50.000
 15  5  1  0 21  0.0000000  0  8G12G25G22G24G14G15G21G18
 116706440.62247  90940050.41547  22208523.6294   22208529.0154   22208523.2044
        51.000          46.000
 117057194.24747 109005562.80747  24178211.7684   24178222.0314   24178211.9474
        44.000          38.000
 112105650.30647  87355038.61547  21333005.8704   21333008.9414   21333006.6174
        54.000          49.000
 108052601.76347  84196809.64647  20561743.9064   20561750.3974   20561743.4084
        56.000          51.000
 120627179.88847  93995182.05647  22954607.1964   22954613.4594   22954607.6884
        49.000          42.000
 120691810.35947  94045547.30047  22966901.9294   22966907.6054   22966901.5344
        50.000          44.000
 127402218.66447  99274429.27647  24243857.0054   24243863.4484   24243857.4544
        41.000          37.000
 107273558.88147  83589764.62547  20413497.0854   20413501.4714   20413497.3624
        55.000          50.000
 15  5  1  0 21 30.0000000  0  8G12G25G22G24G14G15G21G18
 116623227.40747  90875209.04647  22192688.4904   22192694.3094   22192688.3264
        51.000          46.000
 116942875.67747 108916483.56047  24156458.4024   24156468.4054   24156458.5634
        44.000          38.000
 112049598.76547  87311362.10147  21322339.5024   21322342.6504   21322340.2114
        55.000          49.000
 108095305.04047  84230084.90947  20569869.9984   20569876.6024   20569869.5164
        56.000          51.000
 120553634.72947  93937874.16947  22940612.5044   22940618.2424   22940612.8854
        48.000          42.000
 120772322.42047  94108283.91247  22982222.9984   22982228.6914   22982222.6554
        50.000          44.000
 127492235.55447  99344572.17447  24260986.9024   24260993.1574   24260987.8184
        42.000          37.000
 107277109.16147  83592531.05747  20414172.7244   20414177.1154   20414173.1844
        54.000          50.000
 15  5  1  0 22  0.0000000  0  8G12G25G22G24G14G15G21G18
 116540404.41847  90810671.74847  22176927.4644   22176933.5884   22176926.6564
        51.000          46.000
 116828589.22947 108827429.33447  24134709.4304   24134720.0464   24134709.3944
        43.000          38.000
 111993951.23347  87268000.40447  21311749.9414   21311753.4084   21311750.5634
        54.000          49.000
 108138424.49647  84263684.47147  20578075.4004   20578082.0414   20578074.8254
        56.000          51.000
 120480183.92947  93880639.80747  22926635.2344   22926640.9404   22926635.2564
        48.000          42.000
 120852965.22447  94171122.41747  22997569.0984   22997574.8614   22997568.6934
        50.000          44.000
 127582300.29547  99414752.36747  24278126.2104   24278132.0554   24278127.2054
        43.000          37.000
 107281163.16447  83595690.00047  20414944.1334   20414948.6384   20414944.4884
        54.000          50.000
 15  5  1  0 22 30.0000000  0  8G12G25G22G24G14G15G21G18
 116457998.78847  90746459.65247  22161246.2964   22161251.7754   22161246.0264
        51.000          46.000
 116714362.30347 108738421.47947  24112972.5994   24112983.1734   24112973.3804
        44.000          38.000
 111938734.30147  87224974.23347  21301242.3364   21301245.8944   21301243.0814
        54.000          49.000
 108181983.03047  84297626.16447  20586364.1324   20586370.8864   20586363.6164
        55.000          51.000
 120406852.28947  93823498.30047  22912680.3634   22912686.0764   22912680.4764
        48.000          42.000
 120933762.86447  94234081.55147  23012944.1844   23012950.3834   23012943.4684
        50.000          44.000
 127672434.45747  99484986.66247  24295278.5044   24295284.6014   24295279.4024
        43.000          37.000
 107285746.02747  83599261.04047  20415816.2414   20415820.7424   20415816.4914
        54.000          50.000
 15  5  1  0 23  0.0000000  0  8G12G25G22G24G14G15G21G18
 116375984.93847  90682552.84547  22145639.2424   22145644.7904   22145638.9824
        51.000          46.000
 116600168.38247 108649439.32547  24091242.4324   24091253.2654   24091243.1104
        42.000          38.000
 111883920.56547  87182262.24147  21290811.5994   21290815.1794   21290812.2844
        54.000          49.000
 108225949.17447  84331885.47947  20594730.3604   20594737.3204   20594729.7294
        55.000          51.000
 120333610.78847  93766427.03247  22898742.9544   22898748.4024   22898742.9804
        49.000          42.000
 121014684.94447  94297137.66147  23028343.0554   23028349.2464   23028342.3174
        49.000          44.000
 127762605.57747  99555249.75147  24312437.1324   24312443.3864   24312438.4344
        43.000          37.000
 107290828.47347  83603221.37147  20416783.3784   20416787.9184   20416783.6894
        54.000          50.000
 15  5  1  0 23 30.0000000  0  8G12G25G22G24G14G15G21G18
 116294394.28347  90618975.77447  22130113.2044   22130118.5314   22130112.5884
        51.000          46.000
 116486038.85547 108560507.35547  24069524.7484   24069535.1644   24069524.9454
        42.000          38.000
 111829540.34447  87139888.05847  21280463.5354   21280466.8654   21280464.2614
        54.000          49.000
 108270349.30647  84366482.96747  20603179.6034   20603186.6284   20603179.1024
        55.000          51.000
 120260488.39047  93709448.57647  22884828.8434   22884834.0964   22884829.3774
        49.000          43.000
 121095759.28947  94360312.41747  23043770.5774   23043777.3084   23043769.4514
        49.000          44.000
 127852839.21847  99625561.55147  24329607.2484   24329614.4784   24329608.2114
        40.000          36.000
 107296440.23747  83607594.15547  20417851.2094   20417855.8814   20417851.4284
        54.000          50.000
 15  5  1  0 24  0.0000000  0  8G12G25G22G24G14G15G21G18
 116213206.35547  90555712.51847  22114663.7634   22114669.2824   22114663.3054
        52.000          46.000
 116371954.06347 108471610.23347  24047815.2224   24047825.6254   24047815.9314
        42.000          37.000
 111775573.10147  87097835.67247  21270194.1604   21270197.3634   21270194.6984
        55.000          49.000
 108315159.49447  84401399.97347  20611706.8934   20611714.0604   20611706.3454
        56.000          51.000
 120187462.53247  93652545.35147  22870932.1134   22870937.7414   22870932.3944
        48.000          43.000
 121176962.90747  94423587.91247  23059223.0334   23059229.7394   23059221.8184
        48.000          44.000
 127943109.99147  99695902.26947  24346785.4244   24346792.9474   24346784.7024
        40.000          36.000
 107302559.05747  83612362.03947  20419015.6344   20419020.1944   20419016.0354
        54.000          50.000
 15  5  1  0 24 30.0000000  0  8G12G25G22G24G14G15G21G18
 116132439.06147  90492777.02247  22099294.1164   22099299.7664   22099293.8494
        51.000          46.000
 116257930.86747 108382761.08247  24026117.4254   24026127.4334   24026117.1324
        42.000          37.000
 111722034.49647  87056117.29047  21260006.2694   21260009.2674   21260006.8814
        55.000          49.000
 108360391.01347  84436645.29247  20620314.4784   20620321.2754   20620313.8644
        56.000          51.000
 120114547.94347  93595728.82947  22857057.1474   22857062.5124   22857057.5874
        49.000          43.000
 121258309.05047  94486974.44447  23074702.8434   23074709.1854   23074701.5384
        48.000          44.000
 128033429.36647  99766280.85347  24363972.1644   24363980.0914   24363972.8294
        40.000          36.000
 107309199.00747  83617536.00647  20420279.3394   20420283.7164   20420279.7444
        54.000          50.000
 15  5  1  0 25  0.0000000  0  8G12G25G22G24G14G15G21G18
 116052085.10947  90430163.60147  22084002.8824   22084008.7554   22084002.2024
        51.000          46.000
 116143962.19547 108293954.37247  24004429.2674   24004439.4904   24004430.0284
        41.000          37.000
 111668916.57347  87014726.72147  21249898.1184   21249901.2054   21249898.8894
        55.000          49.000
 108406032.19147  84472209.82847  20628999.6894   20629006.2894   20628999.2244
        55.000          51.000
 120041735.12147  93538991.60847  22843201.3164   22843206.7574   22843201.7294
        48.000          43.000
 121339786.96947  94550463.67447  23090207.7234   23090214.1734   23090206.0034
        48.000          44.000
 128123783.63047  99836686.65847  24381167.0524   24381174.4034   24381166.4304
        42.000          36.000
 107316350.41947  83623108.51647  20421640.2724   20421644.7204   20421640.7214
        54.000          50.000
 15  5  1  0 25 30.0000000  0  9G12G25G22G24G14G15G04G21G18
 115972159.80447  90367884.20047  22068794.1314   22068799.2584   22068794.0814
        51.000          46.000
 116030063.57947 108205202.28847  23982754.3074   23982765.1944   23982754.1774
        41.000          38.000
 111616233.87947  86973675.28547  21239872.8114   21239875.9394   21239873.3624
        54.000          49.000
 108452093.54747  84508101.77647  20637764.6504   20637771.2884   20637764.2684
        55.000          51.000
 119969036.76647  93482343.58047  22829367.1774   22829372.8534   22829367.0824
        49.000          43.000
 121421408.90247  94614065.10947  23105739.9474   23105746.3054   23105738.9924
        49.000          44.000
 141785939.97657  92690295.89557  25078066.3115   25078077.8885   25078066.4465
        42.000          34.000
 128214182.96547  99907127.55747  24398369.5714   24398376.0964   24398370.1554
        42.000          36.000
 107324026.39947  83629089.77947  20423100.8904   20423105.4254   20423101.3914
        54.000          50.000
 15  5  1  0 26  0.0000000  0  9G12G25G22G24G14G15G04G21G18
 115892656.87647  90305933.90147  22053664.8184   22053670.2374   22053664.2964
        51.000          46.000
 115916228.23047 108116499.45047  23961092.6334   23961102.7784   23961093.0054
        42.000          39.000
 111563978.59447  86932956.89547  21229928.7864   21229932.2994   21229929.3274
        54.000          49.000
 108498563.43547  84544312.05947  20646607.3544   20646614.2194   20646606.8104
        55.000          51.000
 119896443.48447  93425777.43047  22815552.9234   22815559.0674   22815552.8914
        49.000          43.000
 121503164.39147  94677770.62147  23121298.0344   23121303.9294   23121297.3834
        49.000          44.000
 121731908.82757 112648201.24457  25067777.9605   25067788.8865   25067777.5475
        38.000          34.000
 128304614.60647  99977593.64147  24415578.7424   24415584.8514   24415578.5464
        42.000          37.000
 107332217.56047  83635472.48047  20424659.6524   20424664.1664   20424660.0824
        55.000          50.000
 15  5  1  0 26 30.0000000  0  9G12G25G22G24G14G15G04G21G18
 115813585.34347  90244319.75647  22038618.1284   22038623.7694   22038617.6894
        52.000          46.000
 115802465.28447 108027853.04847  23939444.0944   23939454.5404   23939444.7064
        43.000          39.000
 111512158.73047  86892577.80247  21220067.6094   21220071.4244   21220068.1674
        54.000          49.000
 108545446.42747  84580844.24547  20655529.0584   20655535.9544   20655528.4964
        55.000          51.000
 119823962.01447  93369298.41447  22801759.6724   22801766.2014   22801759.6854
        48.000          43.000
 121585059.13347  94741584.64847  23136882.2134   23136888.3714   23136881.5864
        49.000          44.000
 141678247.60457  92606368.16257  25057581.4775   25057595.7675   25057582.2125
        37.000          34.000
 128395081.98647 100048087.58547  24432794.0794   24432800.6264   24432792.9304
        43.000          37.000
 107340930.62447  83642261.85947  20426317.6664   20426322.1954   20426318.2044
        54.000          50.000
 15  5  1  0 27  0.0000000  0  9G12G25G22G24G14G15G04G21G18
 115734936.37647  90183034.87547  22023651.4984   22023657.4084   22023651.1794
        51.000          46.000
 115688766.12147 107939256.30247  23917807.9594   23917818.4334   23917808.1464
        44.000          40.000
 111460764.59647  86852530.44047  21210287.6934   21210291.3704   21210288.2194
        54.000          49.000
 108592728.11947  84617687.10347  20664526.3084   20664533.3514   20664525.4004
        55.000          51.000
 119751581.17747  93312897.81147  22787985.7644   22787992.3084   22787985.6704
        48.000          43.000
 121667080.60047  94805497.42947  23152490.1524   23152496.3384   23152489.3514
        49.000          44.000
 121625272.97457 112565111.56457  25047484.2505   25047493.1765   25047483.5965
        41.000          35.000
 128485570.44147 100118597.95147  24450012.7684   24450020.0614   24450013.6174
        43.000          37.000
 107350154.27347  83649449.09247  20428072.8244   20428077.4194   20428073.1384
        54.000          50.000
 15  5  1  0 27 30.0000000  0  9G12G25G22G24G14G15G04G21G18
 115656725.00647  90122090.97447  22008768.2304   22008774.1284   22008767.8094
        51.000          46.000
 115575145.47247 107850720.73347  23896187.0894   23896197.2544   23896186.9174
        44.000          40.000
 111409810.16847  86812825.71547  21200591.3304   21200595.0294   21200591.9114
        54.000          49.000
 108640418.66347  84654848.55647  20673601.6054   20673608.2754   20673601.0374
        55.000          51.000
 119679313.18247  93256585.12947  22774234.2114   22774239.9204   22774234.5884
        49.000          43.000
 121749240.49047  94869518.07247  23168124.5264   23168130.7594   23168123.8284
        49.000          44.000
 141572708.89557  92524160.35457  25037475.6715   25037482.6765   25037475.7875
        40.000          35.000
 128576089.06647 100189131.82347  24467238.6864   24467245.2274   24467238.1754
        42.000          37.000
 107359900.56147  83657043.58247  20429927.5914   20429932.0904   20429927.8914
        54.000          50.000
 15  5  1  0 28  0.0000000  0  9G12G25G22G24G14G15G04G21G18
 115578954.97647  90061490.98147  21993969.1804   21993974.9354   21993968.5734
        52.000          47.000
 115461607.07847 107762249.27247  23874581.7284   23874591.6364   23874581.7104
        44.000          40.000
 111359297.84047  86773465.48247  21190979.0924   21190982.7784   21190979.6354
        54.000          49.000
 108688516.90747  84692327.68747  20682754.5024   20682761.0574   20682753.9604
        55.000          51.000
 119607159.06547  93200361.18847  22760503.8104   22760509.3674   22760504.1104
        49.000          43.000
 121831538.78247  94933646.55547  23183785.3614   23183792.0674   23183784.1674
        48.000          43.000
 121520618.78857 112483570.32357  25027562.8305   25027569.7325   25027563.0075
        41.000          35.000
 128666635.69547 100259687.49147  24484468.7254   24484475.6304   24484469.1274
        42.000          37.000
 107370170.23347  83665045.90547  20431881.8634   20431886.3194   20431882.2534
        55.000          50.000
 15  5  1  0 28 30.0000000  0  9G12G25G22G24G14G15G04G21G18
 115501619.80047  90001229.82647  21979252.9664   21979258.4444   21979252.5794
        52.000          47.000
 115348144.65647 107673837.01247  23852990.4104   23853000.3704   23852990.7404
        45.000          40.000
 111309220.29447  86734444.04147  21181449.6224   21181453.1144   21181450.0074
        54.000          49.000
 108737011.33947  84730115.54847  20691982.6214   20691989.4084   20691982.0494
        55.000          51.000
 119535110.21847  93144219.26747  22746793.1294   22746798.6894   22746793.5394
        49.000          43.000
 121913965.52247  94997875.13247  23199470.8084   23199477.3764   23199469.7434
        48.000          43.000
 121469009.66047 112443355.37147  25017742.0974   25017748.4434   25017741.9704
        41.000          35.000
 128757198.22347 100330255.55347  24501702.8374   24501710.0604   24501703.6494
        43.000          37.000
 107380954.84047  83673449.47547  20433934.0354   20433938.6224   20433934.4804
        54.000          50.000
 15  5  1  0 29  0.0000000  0  9G12G25G22G24G14G15G04G21G18
 115424722.28147  89941309.70747  21964619.8634   21964625.6954   21964619.8944
        52.000          47.000
 115234760.85447 107585485.99347  23831414.3684   23831424.3954   23831414.5884
        45.000          40.000
 111259579.01147  86695762.54147  21172003.3094   21172006.5884   21172003.7244
        54.000          49.000
 108785900.32547  84768210.85747  20701285.9974   20701292.9614   20701285.4364
        55.000          51.000
 119463166.61547  93088159.35147  22733102.5164   22733108.0694   22733102.5724
        49.000          43.000
 121996519.73747  95062203.02447  23215180.4544   23215187.1004   23215179.5054
        48.000          43.000
 121417890.61847 112403522.36547  25008013.8804   25008020.7414   25008013.5504
        38.000          34.000
 128847773.46947 100400833.51947  24518938.7484   24518946.3184   24518938.6934
        41.000          37.000
 107392254.01947  83682254.01447  20436084.3304   20436088.8004   20436084.7374
        55.000          50.000
 15  5  1  0 29 30.0000000  0  9G12G25G22G24G14G15G04G21G18
 115348285.36147  89881748.48747  21950074.1664   21950079.9854   21950073.8644
        51.000          47.000
 115121478.82547 107497214.31047  23809857.7294   23809867.5204   23809857.7554
        44.000          40.000
 111210396.12947  86657438.23547  21162644.1194   21162647.3994   21162644.4834
        55.000          49.000
 108835201.45147  84806627.30547  20710667.6944   20710674.8324   20710667.1024
        55.000          51.000
 119391348.96347  93032197.56947  22719435.9554   22719441.8104   22719436.2894
        49.000          43.000
 122079220.82047  95126645.37847  23230917.7534   23230924.5964   23230916.8794
        48.000          43.000
 121367283.58047 112364088.29547  24998381.1484   24998389.7044   24998380.4934
        38.000          34.000
 128938378.83047 100471434.97047  24536180.1984   24536187.7214   24536181.6654
        41.000          36.000
 107404088.51047  83691475.67347  20438336.4594   20438340.9134   20438336.7754
        55.000          50.000
 15  5  1  0 30  0.0000000  0  9G12G25G22G24G14G15G04G21G18
 115272289.01847  89822530.57847  21935612.6344   21935618.6004   21935611.9734
        52.000          47.000
 115008278.58347 107409006.32547  23788315.8504   23788326.0904   23788315.7024
        44.000          40.000
 111161650.36747  86619454.53847  21153368.3524   21153371.5144   21153369.0214
        55.000          49.000
 108884889.76747  84845345.46647  20720122.9444   20720129.9574   20720122.3654
        55.000          51.000
 119319634.53447  92976316.23547  22705789.1364   22705795.2244   22705789.6074
        48.000          43.000
 122162045.59347  95191184.09747  23246679.0704   23246685.6774   23246678.4644
        48.000          43.000
 121317167.35247 112325036.63547  24988843.7924   24988853.3584   24988843.9634
        38.000          35.000
 129028988.49047 100542039.75147  24553422.6854   24553430.0484   24553423.7764
        42.000          37.000
 107416435.34347  83701096.56747  20440685.8874   20440690.3954   20440686.1854
        55.000          50.000
 15  5  1  0 30 30.0000000  0  9G12G25G22G24G14G15G04G21G18
 115196741.94447  89763662.74147  21921236.6244   21921242.1704   21921236.5484
        52.000          47.000
 114895168.75847 107320868.83447  23766791.3704   23766801.8764   23766791.1274
        43.000          40.000
 111113349.26347  86581817.32847  21144177.1234   21144180.2824   21144177.6684
        55.000          49.000
 108934968.96247  84884368.21247  20729652.8324   20729659.6024   20729652.2194
        55.000          51.000
 119248029.84947  92920520.41447  22692163.2314   22692169.0944   22692163.4184
        49.000          43.000
 122244999.16247  95255823.17147  23262464.6534   23262471.1364   23262464.2984
        48.000          43.000
 121267548.81447 112286372.80247  24979402.0504   24979412.0394   24979401.8734
        40.000          35.000
 129119605.13947 100612649.97647  24570666.9064   24570674.4434   24570668.1394
        41.000          36.000
 107429300.23847  83711121.14647  20443133.9714   20443138.4944   20443134.1324
        54.000          50.000
 15  5  1  0 31  0.0000000  0  9G12G25G22G24G14G15G04G21G18
 115121659.25747  89705156.76847  21906948.8374   21906954.2704   21906948.7734
        53.000          47.000
 114782164.57647 107232813.65947  23745286.8404   23745298.0394   23745286.8484
        43.000          39.000
 111065507.17247  86544537.78747  21135072.8884   21135076.2494   21135073.7094
        55.000          49.000
 108985449.17847  84923703.43547  20739258.9054   20739265.6554   20739258.3564
        55.000          51.000
 119176547.37147  92864819.82247  22678560.9514   22678566.3994   22678561.2674
        50.000          43.000
 122328093.01747  95320571.54747  23278276.8394   23278283.4594   23278276.0504
        48.000          43.000
 121218441.90547 112248107.58747  24970056.3434   24970066.8394   24970055.7974
        40.000          35.000
 129210238.17947 100683272.97647  24587913.9384   24587921.1784   24587914.6084
        41.000          37.000
 107442695.67547  83721559.12647  20445683.0184   20445687.4624   20445683.2844
        54.000          50.000
 15  5  1  0 31 30.0000000  0  9G12G25G22G24G14G15G04G21G18
 115047030.19747  89647004.25147  21892747.3994   21892752.6924   21892747.2694
        52.000          47.000
 114669255.63547 107144832.68147  23723800.9374   23723812.0224   23723800.7414
        42.000          39.000
 111018112.11047  86507606.58347  21126053.6474   21126057.3004   21126054.2234
        54.000          49.000
 109036315.09147  84963339.20647  20748938.3564   20748945.1784   20748937.8624
        55.000          51.000
 119105173.78747  92809204.06547  22664978.8954   22664984.4954   22664978.9904
        49.000          43.000
 122411312.98647  95385418.19747  23294112.9714   23294119.6544   23294112.3594
        48.000          43.000
 121169834.31347 112210231.46347  24960808.5934   24960818.9034   24960808.2954
        41.000          35.000
 129300871.19647 100753895.94147  24605160.6784   24605167.9674   24605160.8884
        40.000          36.000
 107456608.42247  83732400.20147  20448330.3814   20448335.0074   20448330.8964
        54.000          50.000
 15  5  1  0 32  0.0000000  0  9G12G25G22G24G14G15G04G21G18
 114972861.12847  89589210.18047  21878633.8114   21878638.8934   21878633.3274
        52.000          47.000
 114556448.52147 107056931.07547  23702334.6044   23702345.4994   23702333.6884
        43.000          38.000
 110971169.74847  86471028.12847  21117120.6364   21117124.3574   21117121.3464
        54.000          49.000
 109087568.48047  85003276.91047  20758691.6894   20758698.5264   20758691.1484
        55.000          51.000
 119033913.60147  92753676.68947  22651418.0424   22651424.0984   22651418.3244
        49.000          43.000
 122494662.24947  95450365.59647  23309973.9594   23309980.8404   23309973.6214
        48.000          43.000
 121121731.48847 112172748.70147  24951655.1924   24951665.2924   24951655.5144
        40.000          35.000
 129391505.29047 100824519.76247  24622407.5674   24622414.6124   24622408.0604
        39.000          36.000
 107471042.20347  83743647.28147  20451077.0794   20451081.7154   20451077.3454
        54.000          50.000
 15  5  1  0 32 30.0000000  0  9G12G25G22G24G14G15G04G21G18
 114899149.76847  89531772.78347  21864606.7104   21864612.2364   21864606.5214
        52.000          47.000
 114443740.91247 106969106.99547  23680887.2094   23680897.9394   23680886.7544
        44.000          38.000
 110924676.44247  86434799.58647  21108273.2954   21108276.9554   21108273.9334
        55.000          49.000
 109139201.35647  85043510.33047  20768516.9854   20768523.8574   20768516.5154
        55.000          51.000
 118962761.70047  92698233.69447  22637877.9934   22637884.4934   22637878.1514
        49.000          43.000
 122578134.97647  95515409.20447  23325858.5204   23325865.5824   23325857.7674
        48.000          43.000
 121074129.29747 112135656.07247  24942597.4874   24942606.5324   24942597.3504
        40.000          35.000
 129482132.28947 100895138.04247  24639653.7784   24639661.5094   24639652.5824
        40.000          36.000
 107485991.96747  83755296.42947  20453921.9724   20453926.6834   20453922.3364
        55.000          50.000
 15  5  1  0 33  0.0000000  0  9G12G25G22G24G14G15G04G21G18
 114825920.48947  89474711.01847  21850671.1554   21850677.0144   21850669.9304
        51.000          47.000
 114331156.51647 106881378.93847  23659463.3964   23659473.2894   23659463.5794
        44.000          38.000
 110878654.78147  86398938.56047  21099515.8524   21099519.2914   21099516.4554
        55.000          49.000
 109191233.02047  85084054.48047  20778417.8964   20778425.1624   20778417.4884
        54.000          50.000
 118891739.46047  92642891.71447  22624363.4604   22624369.3714   22624363.6334
        49.000          44.000
 122661751.11847  95580564.55447  23341770.4124   23341777.2964   23341769.9074
        49.000          43.000
 121027050.12147 112098970.98847  24933639.5214   24933646.6134   24933639.2904
        42.000          36.000
 129572769.96347 100965764.63947  24656900.9394   24656909.1674   24656901.2454
        41.000          36.000
 107501478.58047  83767363.90347  20456869.0374   20456873.6894   20456869.4584
        54.000          50.000
 15  5  1  0 33 30.0000000  0  8G12G25G22G24G14G15G04G21
 114753143.63347  89418001.80147  21836822.1804   21836828.1984   21836821.4384
        52.000          47.000
 114218667.50147 106793725.22347  23638057.6264   23638067.5974   23638057.4044
        44.000          38.000
 110833075.46947  86363422.22647  21090842.4284   21090845.7544   21090843.1384
        55.000          49.000
 109243630.24847  85124883.47947  20788388.8564   20788395.8954   20788388.4554
        55.000          50.000
 118820816.36147  92587626.99747  22610867.3574   22610873.4364   22610867.7404
        49.000          44.000
 122745479.21947  95645807.15147  23357703.3004   23357710.4124   23357702.3554
        48.000          43.000
 120980464.39047 112062670.39347  24924774.3294   24924781.1374   24924773.7114
        41.000          35.000
 129663384.28247 101036373.07647  24674145.4544   24674153.1474   24674144.8434
        41.000          36.000
 15  5  1  0 34  0.0000000  0  8G12G25G22G24G14G15G04G21
 114680848.98047  89361668.32247  21823065.4944   21823070.7914   21823065.7054
        53.000          47.000
 114106302.64647 106706168.24647  23616675.2864   23616685.0394   23616676.1954
        44.000          39.000
 110787966.36447  86328272.28747  21082258.3894   21082261.6464   21082259.0624
        55.000          49.000
 109296416.73947  85166015.80447  20798433.9894   20798440.8344   20798433.6334
        55.000          51.000
 118750018.74947  92532460.06747  22597394.5404   22597400.8644   22597394.5024
        49.000          43.000
 122829344.57247  95711156.70347  23373662.1544   23373669.1554   23373661.3704
        48.000          43.000
 120934399.45847 112026775.53947  24916007.7514   24916015.3714   24916007.1894
        42.000          35.000
 129753998.79547 101106981.61747  24691389.3174   24691396.2484   24691389.2084
        40.000          36.000
 15  5  1  0 34 30.0000000  0  8G12G25G22G24G14G15G04G21
 114609026.60347  89305702.85447  21809398.0584   21809403.6724   21809397.8084
        53.000          47.000
 113994052.80147 106618700.87847  23595314.9114   23595324.4804   23595314.3364
        46.000          39.000
 110743317.01247  86293480.59947  21073761.8144   21073765.1014   21073762.5874
        55.000          49.000
 109349578.42347  85207440.49047  20808550.5834   20808557.2304   20808550.0364
        55.000          51.000
 118679334.82847  92477381.72547  22583943.9984   22583949.9414   22583944.2044
        50.000          44.000
 122913334.48847  95776603.30447  23389644.8474   23389651.9624   23389643.8844
        47.000          43.000
 120888844.06647 111991277.81847  24907337.5644   24907347.0834   24907337.2384
        39.000          35.000
 129844598.44347 101177578.57747  24708629.7484   24708637.6514   24708629.9984
        42.000          36.000
 15  5  1  0 35  0.0000000  0  8G12G25G22G24G14G15G04G21
 114537677.78247  89250106.37947  21795820.9864   21795826.3254   21795820.6484
        53.000          47.000
 113881919.50047 106531324.36047  23573976.7294   23573986.4324   23573977.0874
        45.000          40.000
 110699127.62247  86259047.32547  21065353.0194   21065356.1804   21065353.6054
        55.000          49.000
 109403111.85247  85249154.85547  20818737.9764   20818744.3874   20818737.7464
        55.000          51.000
 118608763.57247  92422391.17547  22570514.9724   22570520.7924   22570515.3844
        50.000          44.000
 122997446.79847  95842145.28547  23405650.5784   23405658.2634   23405649.6414
        47.000          43.000
 120843798.52447 111956177.40247  24898764.6044   24898775.3514   24898764.3574
        38.000          34.000
 129935178.68247 101248160.43947  24725866.0834   24725874.4454   24725866.0304
        41.000          35.000
 15  5  1  0 35 30.0000000  0  8G12G25G22G24G14G15G04G21
 114466812.18647  89194886.45847  21782335.5954   21782340.9814   21782335.6924
        53.000          47.000
 113769912.59147 106444046.33647  23552662.2104   23552671.8214   23552661.9404
        45.000          40.000
 110655406.60547  86224979.00847  21057033.3754   21057036.5034   21057034.0474
        55.000          50.000
 109457021.75047  85291162.55647  20828996.4814   20829003.1864   20828996.0384
        55.000          51.000
 118538312.28647  92367494.09847  22557108.6314   22557114.0644   22557108.6924
        50.000          44.000
 123081687.72747  95907787.48147  23421681.5594   23421688.7964   23421680.1954
        47.000          43.000
 120799270.76447 111921480.42947  24890292.7164   24890301.5184   24890291.4584
        41.000          35.000
 130025743.50547 101318730.29147  24743100.5674   24743107.2794   24743100.1854
        40.000          34.000
 15  5  1  0 36  0.0000000  0  8G12G25G22G24G14G15G04G21
 114396441.94547  89140052.52147  21768944.4444   21768949.7384   21768944.0154
        52.000          47.000
 113658043.81747 106356875.96247  23531373.9814   23531384.3794   23531373.9224
        46.000          40.000
 110612164.64647  86191283.98347  21048804.5464   21048808.0304   21048805.0664
        55.000          50.000
 109511314.67647  85333468.71947  20839327.7454   20839334.7334   20839327.3434
        55.000          50.000
 118467990.70847  92312698.09447  22543726.8044   22543732.1824   22543726.7814
        50.000          44.000
 123166065.51747  95973536.32047  23437738.2604   23437745.4184   23437737.5674
        47.000          43.000
 120755270.86447 111887194.77847  24881921.7934   24881928.6384   24881921.2964
        43.000          35.000
 130116299.18147 101389293.01447  24760333.3704   24760339.4574   24760332.5244
        42.000          34.000
 15  5  1  0 36 30.0000000  0  8G12G25G22G24G14G15G04G21
 114326550.64047  89085591.79447  21755644.5444   21755649.9294   21755644.1274
        52.000          47.000
 113546298.02647 106269801.43947  23510109.2564   23510119.5194   23510109.8844
        45.000          40.000
 110569385.16847  86157949.34147  21040663.6684   21040667.4634   21040664.2354
        55.000          50.000
 109565970.27347  85376057.48147  20849728.3694   20849735.3214   20849727.7074
        55.000          50.000
 118397780.67647  92257989.01747  22530366.2444   22530371.7344   22530366.4004
        50.000          44.000
 123250561.17047  96039376.99347  23453817.4304   23453824.0464   23453816.5134
        46.000          43.000
 120711782.09647 111853307.49547  24873645.3414   24873652.9624   24873645.5324
        42.000          36.000
 130206824.60947 101459832.15147  24777558.9274   24777566.9564   24777559.5404
        40.000          34.000
 15  5  1  0 37  0.0000000  0  8G12G25G22G24G14G15G04G21
 114257152.22747  89031515.12447  21742438.4134   21742444.1994   21742437.7794
        53.000          47.000
 113434689.37847 106182833.76947  23488870.9584   23488880.8994   23488871.2624
        45.000          41.000
 110527080.95547  86124985.03047  21032613.5384   21032617.0894   21032614.3184
        55.000          50.000
 109620997.69047  85418935.97147  20860199.7744   20860206.6564   20860199.3244
        54.000          50.000
 118327693.79947  92203375.90047  22517028.7644   22517034.5414   22517029.1464
        50.000          44.000
 123335185.48347  96105317.91447  23469920.9164   23469927.9514   23469920.4624
        46.000          43.000
 120668816.38947 111819827.75347  24865469.4604   24865477.8684   24865469.6934
        42.000          35.000
 130297328.12247 101530354.22447  24794781.5664   24794788.9924   24794782.7194
        39.000          34.000
 15  5  1  0 37 30.0000000  0  8G12G25G22G24G14G15G04G21
 114188238.52847  88977816.15247  21729324.7074   21729330.2794   21729324.2334
        53.000          47.000
 113323209.51647 106095966.49047  23467656.6504   23467667.2354   23467656.7584
        45.000          41.000
 110485242.26947  86092383.46847  21024652.0304   21024655.2764   21024652.9824
        55.000          50.000
 109676383.34947  85462093.61547  20870739.3554   20870746.2254   20870738.6874
        55.000          50.000
 118257719.52647  92148850.54247  22503713.0304   22503718.6404   22503713.2364
        50.000          44.000
 123419926.55247  96171349.82147  23486046.8354   23486053.7564   23486045.6854
        47.000          42.000
 120626364.11347 111786748.03747  24857390.6784   24857399.3394   24857390.3304
        41.000          35.000
 130387795.83347 101600848.37447  24811996.9974   24812004.4584   24811996.9264
        39.000          34.000
 15  5  1  0 38  0.0000000  0  8G12G25G22G24G14G15G04G21
 114119825.52547  88924507.34147  21716305.9644   21716311.7054   21716305.6934
        53.000          47.000
 113211874.89047 106009212.38247  23446470.5364   23446480.7514   23446470.5734
        44.000          41.000
 110443884.44647  86060156.60547  21016781.9234   21016785.1274   21016782.5844
        55.000          50.000
 109732139.18047  85505539.70047  20881349.4814   20881356.4064   20881348.8504
        55.000          50.000
 118187871.57747  92094423.59147  22490421.8724   22490427.1304   22490422.0564
        50.000          44.000
 123504797.05147  96237482.59747  23502196.7224   23502204.4264   23502196.2464
        47.000          42.000
 120584439.72447 111754079.73447  24849412.8314   24849422.0474   24849411.3904
        41.000          35.000
 140478136.09857  91671220.68857  24829204.2155   24829217.3435   24829207.5215
        39.000          34.000
 15  5  1  0 38 30.0000000  0  8G12G25G22G24G14G15G04G21
 114051903.96847  88871581.47247  21703380.9904   21703386.2744   21703380.8604
        53.000          47.000
 113100676.58147 105922564.49647  23425309.8864   23425320.4114   23425309.3694
        45.000          41.000
 110402997.17747  86028296.41047  21009001.1194   21009004.3834   21009001.7934
        55.000          50.000
 109788250.64047  85549262.89447  20892027.1254   20892034.0234   20892026.6744
        55.000          50.000
 118118138.39947  92040086.09447  22477151.8264   22477157.5454   22477152.4754
        50.000          44.000
 123589784.24347  96303706.30947  23518369.5744   23518377.0494   23518369.3634
        46.000          42.000
 120543032.23647 111721814.18047  24841532.2744   24841541.4974   24841530.6784
        39.000          35.000
 120568737.14157 111741858.64757  24846415.7625   24846419.3795   24846410.3865
        39.000          34.000
 15  5  1  0 39  0.0000000  0  8G12G25G22G24G14G15G04G21
 113984485.21147  88819047.39947  21690551.7064   21690556.9024   21690551.4084
        53.000          47.000
 112989626.38947 105836032.00847  23404178.1044   23404188.0184   23404178.1824
        45.000          41.000
 110362590.92847  85996811.03347  21001312.1164   21001315.3724   21001312.8174
        55.000          50.000
 109844724.62447  85593268.56747  20902773.8164   20902780.6454   20902773.1484
        55.000          50.000
 118048529.46647  91985845.40747  22463905.4404   22463911.4434   22463905.4124
        50.000          44.000
 123674896.46347  96370027.43047  23534565.7574   23534573.5584   23534565.5054
        47.000          43.000
 120502152.17647 111689959.50547  24833751.4734   24833763.4904   24833750.5284
        39.000          35.000
 140659000.11457  91812173.06357  24863607.9085   24863616.6045   24863608.3145
        39.000          34.000
 15  5  1  0 39 30.0000000  0  8G12G25G22G24G14G15G04G21
 113917573.51647  88766908.43747  21677818.8754   21677824.0364   21677818.6504
        53.000          47.000
 112878729.16447 105749618.73047  23383074.9744   23383084.8544   23383074.7514
        45.000          41.000
 110322668.79147  85965702.88347  20993715.1354   20993718.5514   20993715.7954
        55.000          50.000
 109901560.75347  85637556.43947  20913589.3724   20913596.0134   20913588.8924
        55.000          50.000
 117979047.11847  91931703.36647  22450683.4304   22450689.4114   22450683.5784
        50.000          44.000
 123760134.88547  96436446.92047  23550786.4634   23550793.6784   23550785.9954
        47.000          43.000
 120461801.89547 111658517.71847  24826075.1444   24826083.9544   24826074.1984
        39.000          35.000
 120749422.23657 111882648.30857  24880802.0495   24880806.6735   24880797.1895
        37.000          34.000
 15  5  1  0 40  0.0000000  0  8G12G25G22G24G14G15G04G21
 113851163.79347  88715160.62447  21665181.4734   21665186.6794   21665181.2364
        53.000          47.000
 112767980.08547 105663320.86847  23362000.0314   23362009.8704   23361999.3154
        46.000          41.000
 110283224.80647  85934967.32347  20986209.2214   20986212.5414   20986209.9284
        55.000          50.000
 109958749.01147  85682118.69847  20924471.8814   20924478.5064   20924471.3574
        54.000          50.000
 117909683.95247  91877654.18647  22437484.3514   22437490.1164   22437484.2964
        50.000          44.000
 123845491.38447  96502958.41247  23567029.2634   23567036.3394   23567028.4824
        47.000          42.000
 120421974.98847 111627483.77647  24818495.8904   24818504.9344   24818495.6684
        42.000          35.000
 140839686.68157  91952981.95057  24897980.1905   24897985.2285   24897979.6445
        38.000          33.000
 15  5  1  0 40 30.0000000  0  8G12G25G22G24G14G15G04G21
 113785262.13047  88663808.71347  21652640.4554   21652646.0634   21652640.1664
        52.000          47.000
 112657385.87447 105577143.68147  23340954.6504   23340964.0644   23340954.5024
        45.000          41.000
 110244264.00947  85904608.26647  20978795.3464   20978798.5254   20978796.0204
        55.000          50.000
 110016291.06247  85726956.63647  20935421.6944   20935428.5234   20935421.0334
        54.000          50.000
 117840444.23447  91823701.20147  22424308.2194   22424313.7774   22424308.4374
        50.000          44.000
 123930968.76447  96569564.08947  23583295.1804   23583302.1734   23583294.0184
        47.000          42.000
 120382676.18147 111596861.31047  24811019.3774   24811026.0534   24811018.4784
        41.000          36.000
 120929880.43357 112023252.77257  24915151.1315   24915158.6385   24915151.2115
        37.000          33.000
 15  5  1  0 41  0.0000000  0  7G12G25G22G24G14G15G04
 113719873.83947  88612856.81947  21640197.5574   21640203.1464   21640196.9874
        53.000          47.000
 112546951.96147 105491091.40447  23319939.5054   23319949.2944   23319939.6004
        45.000          41.000
 110205790.70847  85874629.08347  20971474.1904   20971477.4344   20971474.9034
        55.000          50.000
 110074187.31547  85772070.58047  20946438.9484   20946445.9814   20946438.2634
        55.000          50.000
 117771330.80947  91769846.62847  22411156.4844   22411161.9994   22411156.5874
        50.000          44.000
 124016568.90447  96636265.42347  23599584.7404   23599591.4444   23599583.9294
        48.000          42.000
 120343909.04047 111566653.11347  24803642.3934   24803649.2694   24803641.7244
        43.000          36.000
 15  5  1  0 41 30.0000000  0  7G12G25G22G24G14G15G04
 113655002.17447  88562307.50647  21627853.0374   21627858.4124   21627852.9754
        53.000          48.000
 112436682.20547 105405167.02147  23298955.4494   23298965.2544   23298954.9874
        45.000          41.000
 110167807.26047  85845031.60147  20964245.8674   20964249.4294   20964246.5454
        55.000          50.000
 110132436.76647  85817459.74447  20957523.6944   20957530.7024   20957523.2964
        55.000          50.000
 117702345.09047  91716091.56547  22398028.7034   22398034.5264   22398029.1314
        50.000          45.000
 124102292.08547  96703062.64147  23615897.2794   23615903.7714   23615896.6144
        48.000          42.000
 120305675.37547 111536860.65047  24796366.1734   24796373.9474   24796365.7144
        41.000          36.000
 15  5  1  0 42  0.0000000  0  7G12G25G22G24G14G15G04
 113590639.26047  88512154.62447  21615605.1234   21615610.4094   21615604.7024
        53.000          47.000
 112326569.39047 105319364.93047  23278001.3864   23278011.4014   23278001.6024
        44.000          41.000
 110130305.00947  85815809.07847  20957109.4664   20957112.8544   20957110.2104
        55.000          50.000
 110191026.59147  85863114.13547  20968672.9264   20968679.9954   20968672.3434
        55.000          50.000
 117633477.41447  91662428.47947  22384923.8464   22384929.4304   22384923.8164
        51.000          45.000
 124188127.40747  96769947.23147  23632231.3334   23632237.8164   23632231.0344
        48.000          42.000
 120267966.04947 111507476.73847  24789188.4824   24789197.4854   24789188.0024
        41.000          35.000
 15  5  1  0 42 30.0000000  0  7G12G25G22G24G14G15G04
 113526801.13147  88462410.67547  21603456.9524   21603462.3444   21603456.6684
        53.000          48.000
 112216629.68647 105233697.74247  23257080.4804   23257090.4814   23257080.4724
        46.000          41.000
 110093298.53947  85786972.87447  20950067.4454   20950070.7014   20950068.2264
        55.000          50.000
 110249968.18147  85909042.62847  20979889.1134   20979896.2714   20979888.3714
        54.000          50.000
 117564741.33047  91608867.92247  22371843.8964   22371849.0284   22371843.7144
        51.000          45.000
 124274087.33847  96836928.91247  23648588.9954   23648595.4014   23648588.2924
        48.000          42.000
 120230795.31547 111478512.52247  24782114.7084   24782124.3564   24782114.2324
        41.000          35.000
 15  5  1  0 43  0.0000000  0  7G12G25G22G24G14G15G04
 113463476.24847  88413066.65747  21591406.6684   21591412.2394   21591406.1234
        53.000          48.000
 112106852.42747 105148157.10147  23236190.9384   23236200.2584   23236191.1984
        46.000          41.000
 110056775.87647  85758513.66547  20943117.4954   20943120.6874   20943118.3414
        55.000          50.000
 110309245.87647  85955233.01947  20991169.5334   20991176.4664   20991168.9604
        54.000          50.000
 117496123.91647  91555399.85747  22358786.1724   22358791.3714   22358786.4934
        50.000          45.000
 124360157.57747  96903996.55347  23664967.7644   23664974.1884   23664967.3804
        47.000          42.000
 120194150.19447 111449957.84747  24775141.6274   24775151.1504   24775140.3404
        41.000          36.000
 15  5  1  0 43 30.0000000  0  7G12G25G22G24G14G15G04
 113400684.07447  88364137.73547  21579457.4594   21579462.8024   21579457.0024
        53.000          47.000
 111997257.72847 105062758.71947  23215335.6534   23215345.1454   23215335.5164
        45.000          41.000
 110020755.30347  85730445.69047  20936263.0744   20936266.2564   20936263.7674
        55.000          50.000
 110368873.80947  86001696.31847  21002516.2704   21002523.2194   21002515.6394
        54.000          50.000
 117427642.65747  91502037.87147  22345754.3954   22345759.9764   22345754.3054
        51.000          44.000
 124446354.63347  96971162.99147  23681370.6334   23681376.8724   23681370.4774
        47.000          42.000
 120158049.04247 111421827.06847  24768272.8314   24768281.8344   24768271.9574
        42.000          36.000
 15  5  1  0 44  0.0000000  0  7G12G25G22G24G14G15G04
 113338411.16547  88315613.44347  21567607.5484   21567612.4824   21567607.3004
        53.000          48.000
 111887832.58247 104977492.45847  23194512.7864   23194522.3384   23194513.1024
        46.000          41.000
 109985222.55347  85702757.84047  20929501.2944   20929504.6434   20929502.1034
        55.000          50.000
 110428834.68647  86048419.05047  21013926.2184   21013933.2484   21013925.4914
        55.000          50.000
 117359281.88947  91448769.76647  22332745.9614   22332751.0944   22332746.0884
        50.000          45.000
 124532661.72947  97038415.18347  23697794.1994   23697800.8724   23697793.9444
        47.000          41.000
 120122476.74147 111394108.40247  24761504.6034   24761512.9354   24761504.3314
        43.000          37.000
 15  5  1  0 44 30.0000000  0  7G12G25G22G24G14G15G04
 113276670.34047  88267503.76547  21555858.7364   21555863.4314   21555858.6794
        53.000          48.000
 111778590.41447 104892368.74847  23173725.0624   23173733.9134   23173725.0344
        47.000          41.000
 109950189.40347  85675459.28947  20922834.4924   20922838.1094   20922835.1634
        55.000          50.000
 110489136.46847  86095407.42247  21025401.4724   21025408.3524   21025400.9584
        54.000          50.000
 117291052.84447  91395604.30847  22319762.4604   22319767.4824   22319762.6114
        51.000          45.000
 124619088.89747  97105760.93447  23714240.4284   23714247.4204   23714240.3594
        47.000          42.000
 140087423.45057  91366790.49957  24754838.1565   24754846.1085   24754836.2985
        43.000          37.000
 15  5  1  0 45  0.0000000  0  7G12G25G22G24G14G15G04
 113215464.00447  88219810.57447  21544211.4274   21544216.8534   21544211.0264
        53.000          48.000
 111669534.15247 104807389.90547  23152972.2564   23152981.6634   23152972.6214
        47.000          41.000
 109915656.92947  85648550.88147  20916263.1284   20916266.7564   20916263.7344
        55.000          50.000
 110549776.76347  86142659.57947  21036940.8474   21036947.7344   21036940.2244
        54.000          50.000
 117222956.01547  91342541.87847  22306804.0374   22306809.2514   22306804.2594
        51.000          45.000
 124705635.37647  97173199.65547  23730709.9144   23730716.9694   23730709.2074
        46.000          41.000
 120052967.03257 111339951.13057  24748274.2565   24748280.8225   24748273.4245
        41.000          37.000
 15  5  1  0 45 30.0000000  0  7G12G25G22G24G14G15G04
 113154787.86447  88172530.51747  21532665.2324   21532670.5084   21532665.0664
        53.000          48.000
 111560660.17847 104722553.11247  23132253.9394   23132263.4624   23132254.4784
        46.000          41.000
 109881620.17347  85622028.73947  20909786.2524   20909789.7264   20909786.8764
        55.000          50.000
 110610747.73647  86190169.41147  21048543.1344   21048550.2394   21048542.6614
        54.000          50.000
 117154985.00947  91289577.49347  22293869.2284   22293874.9454   22293869.5054
        50.000          45.000
 124792293.91947  97240725.71147  23747200.4914   23747207.9034   23747199.8664
        46.000          42.000
 140018967.72257  91313446.69157  24741813.3275   24741821.6285   24741813.3435
        42.000          37.000
 15  5  1  0 46  0.0000000  0  7G12G25G22G24G14G15G04
 113094642.82447  88125664.31447  21521219.9934   21521225.1944   21521219.6964
        53.000          48.000
 111451970.21547 104637859.67847  23111570.4674   23111580.3174   23111570.0634
        46.000          42.000
 109848079.35447  85595893.05147  20903403.5454   20903407.1094   20903404.2824
        55.000          50.000
 110672044.90647  86237933.42647  21060207.6944   21060214.3944   21060207.1074
        54.000          50.000
 117087139.28847  91236710.73547  22280958.5994   22280964.4874   22280958.5824
        51.000          45.000
 124879062.26447  97308337.30147  23763712.0194   23763719.4484   23763711.9064
        46.000          42.000
 139985545.87647  91287403.66247  24735451.2294   24735461.4724   24735450.8944
        42.000          36.000
 15  5  1  0 46 30.0000000  0  7G12G25G22G24G14G15G04
 113035046.03347  88079225.31347  21509878.8694   21509883.8224   21509878.5834
        53.000          48.000
 111343481.79247 104553323.27547  23090925.9024   23090935.8904   23090925.5934
        46.000          42.000
 109815050.30947  85570156.14147  20897118.4344   20897121.9064   20897119.0844
        55.000          50.000
 110733680.87247  86285961.43247  21071936.6584   21071943.5274   21071935.8974
        54.000          50.000
 117019433.89047  91183953.31347  22268074.9854   22268080.6414   22268075.3884
        51.000          45.000
 124965954.60047  97376045.53047  23780247.3854   23780254.5824   23780246.8154
        46.000          42.000
 139952674.10147  91261789.27147  24729196.7164   24729204.8414   24729196.4284
        42.000          36.000
 15  5  1  0 47  0.0000000  0  7G12G25G22G24G14G15G04
 112975992.04247  88033209.26647  21498640.8924   21498646.4134   21498639.8974
        53.000          48.000
 111235190.40747 104468940.40647  23070318.9114   23070328.1354   23070318.3414
        47.000          42.000
 109782527.01147  85544813.31847  20890929.5644   20890932.8894   20890930.1904
        55.000          50.000
 110795646.41947  86334246.25547  21083728.4834   21083735.3234   21083727.9824
        54.000          50.000
 116951861.76847  91131299.74147  22255216.3354   22255221.7334   22255216.6574
        51.000          45.000
 125052962.84647  97443844.06547  23796804.4364   23796811.9404   23796804.3324
        47.000          42.000
 139920345.50147  91236598.16447  24723043.0164   24723051.3944   24723043.5724
        42.000          35.000
 15  5  1  0 47 30.0000000  0  7G12G25G22G24G14G15G04
 112917475.38847  87987611.92847  21487505.7264   21487511.0834   21487505.4134
        53.000          48.000
 111127091.22947 104384707.31447  23049748.4664   23049757.4214   23049748.7004
        47.000          42.000
 109750502.95947  85519859.51947  20884835.5834   20884838.9654   20884836.3834
        55.000          50.000
 110857931.25147  86382779.86647  21095580.8314   21095587.7554   21095580.2074
        54.000          50.000
 116884415.72547  91078744.41847  22242381.4574   22242387.0514   22242381.7204
        51.000          45.000
 125140078.26047  97511726.10147  23813382.2964   23813389.3824   23813382.0694
        47.000          42.000
 139888553.30547  91211824.99647  24716995.0944   24717003.1104   24716994.5654
        42.000          36.000
 15  5  1  0 48  0.0000000  0  7G12G25G22G24G14G15G04
 112859507.40547  87942442.12747  21476474.8084   21476480.2174   21476474.5934
        54.000          48.000
 111019196.24847 104300633.34147  23029216.5614   23029225.8084   23029216.9134
        47.000          42.000
 109718988.43747  85495302.75847  20878838.4114   20878842.0524   20878839.0704
        55.000          50.000
 110920542.37047  86431567.73947  21107495.3374   21107502.2814   21107494.8274
        54.000          50.000
 116817105.13347  91026294.65347  22229572.5754   22229578.3174   22229572.7914
        51.000          45.000
 125227309.43647  97579698.34147  23829981.9724   23829989.3194   23829981.2754
        47.000          42.000
 139857306.82847  91187477.07647  24711049.4124   24711057.6584   24711049.6974
        43.000          36.000
 15  5  1  0 48 30.0000000  0  7G12G25G22G24G14G15G04
 112802086.61047  87897698.69647  21465547.8194   21465553.2464   21465547.6954
        53.000          48.000
 110911504.84647 104216717.98047  23008723.7494   23008732.5844   23008724.3074
        47.000          42.000
 109687981.09747  85471141.19147  20872937.8934   20872941.5054   20872938.6304
        55.000          50.000
 110983473.83147  86480605.21747  21119470.5034   21119477.7814   21119470.1094
        54.000          49.000
 116749927.30047  90973948.32247  22216789.3934   22216794.7054   22216789.5454
        51.000          45.000
 125314651.71747  97647757.16947  23846602.5494   23846609.6734   23846601.6944
        46.000          42.000
 139826603.48447  91163552.40947  24705207.0494   24705215.0534   24705207.1244
        43.000          37.000
 15  5  1  0 49  0.0000000  0  7G12G25G22G24G14G15G04
 112745214.99347  87853383.19947  21454725.5494   21454731.0264   21454725.0364
        53.000          48.000
 110804019.67847 104132963.32147  22988269.6914   22988279.3684   22988269.7314
        46.000          42.000
 109657482.02347  85447375.68647  20867134.0584   20867137.6304   20867134.7704
        55.000          50.000
 111046723.04547  86529890.30647  21131506.4424   21131513.4734   21131505.7114
        53.000          49.000
 116682882.24347  90921705.45947  22204031.2204   22204036.5494   22204031.5524
        51.000          45.000
 125402104.29947  97715901.93247  23863244.0694   23863251.2794   23863243.6604
        46.000          42.000
 139796443.43847  91140051.10247  24699468.0384   24699475.8704   24699467.5204
        43.000          36.000
 15  5  1  0 49 30.0000000  0  7G12G25G22G24G14G15G04
 112688904.90147  87809505.25147  21444010.0464   21444015.4314   21444009.7054
        53.000          48.000
 110696753.81847 104049379.54847  22967857.3894   22967867.0004   22967857.0984
        46.000          42.000
 109627502.79347  85424015.24947  20861429.3164   20861432.6814   20861430.0844
        55.000          50.000
 111110298.25447  86579429.41547  21143604.5274   21143611.4244   21143604.1214
        54.000          49.000
 116615980.39047  90869574.18347  22191300.2224   22191305.3674   22191300.4504
        51.000          45.000
 125489676.89647  97784140.20447  23879908.4094   23879915.8974   23879907.0844
        45.000          42.000
 139766837.35247  91116981.46747  24693833.3574   24693841.9514   24693833.3414
        42.000          36.000
 15  5  1  0 50  0.0000000  0  7G12G25G22G24G14G15G04
 112633143.33347  87766054.71647  21433399.0904   21433404.1894   21433398.5764
        53.000          48.000
 110589695.53947 103965957.53547  22947485.0174   22947494.8824   22947484.9564
        46.000          42.000
 109598029.48747  85401049.03947  20855820.8064   20855824.0044   20855821.3134
        55.000          50.000
 111174182.08847  86629209.01547  21155761.3214   21155768.4154   21155760.8964
        54.000          49.000
 116549207.89747  90817543.70747  22178593.7344   22178599.2114   22178593.9214
        51.000          45.000
 125577353.83747  97852459.79447  23896592.7334   23896600.3254   23896591.4074
        46.000          42.000
 139737771.24047  91094332.54347  24688301.9914   24688311.1884   24688301.5294
        40.000          36.000
 15  5  1  0 50 30.0000000  0  7G12G25G22G24G14G15G04
 112577940.98247  87723039.93747  21422894.5784   21422899.6474   21422894.4634
        54.000          48.000
 110482855.87847 103882705.85047  22927154.4204   22927163.7964   22927154.0724
        47.000          42.000
 109569071.77247  85378484.59447  20850310.4654   20850313.5514   20850311.1434
        55.000          50.000
 111238381.32947  86679234.39147  21167977.9974   21167985.4334   21167977.4724
        54.000          49.000
 116482573.46447  90765620.80247  22165913.6964   22165918.9874   22165913.7814
        51.000          45.000
 125665142.53547  97920866.46247  23913298.5834   23913305.8544   23913297.8694
        46.000          42.000
 139709254.05547  91072111.42547  24682875.1944   24682884.1614   24682874.7154
        40.000          36.000
 15  5  1  0 51  0.0000000  0  7G12G25G22G24G14G15G04
 112523297.41647  87680460.56747  21412496.1384   21412501.3584   21412496.1224
        54.000          48.000
 110376235.47047 103799625.04347  22906865.0454   22906874.8284   22906865.3164
        47.000          43.000
 109540628.23847  85356320.80247  20844897.7654   20844900.8094   20844898.4684
        55.000          50.000
 111302890.75447  86729501.46447  21180253.7714   21180261.1404   21180253.4504
        54.000          49.000
 116416074.87547  90713803.75747  22153259.4434   22153264.6474   22153259.7294
        51.000          45.000
 125753039.98047  97989357.86747  23930025.5394   23930032.4554   23930024.0494
        46.000          42.000
 139681283.73547  91050316.39947  24677551.3694   24677561.4204   24677551.6984
        41.000          35.000
 15  5  1  0 51 30.0000000  0  7G12G25G22G24G14G15G04
 112469215.01747  87638318.48447  21402204.5934   21402209.6724   21402204.5614
        54.000          48.000
 110269837.35147 103716717.43047  22886618.2174   22886627.6724   22886618.4194
        47.000          43.000
 109512700.33947  85334558.80447  20839583.0464   20839586.4674   20839583.4804
        55.000          50.000
 111367708.46547  86780008.74947  21192588.0884   21192595.5524   21192587.4524
        54.000          49.000
 116349713.08047  90662093.30947  22140630.8684   22140636.5014   22140631.0154
        51.000          45.000
 125841045.85147  98057933.75447  23946772.6114   23946779.3824   23946772.2884
        46.000          41.000
 139653860.88147  91028947.91147  24672333.9934   24672343.0164   24672333.7434
        42.000          36.000
 15  5  1  0 52  0.0000000  0  7G12G25G22G24G14G15G04
 112415705.19547  87596622.54647  21392022.0214   21392026.9334   21392021.8494
        54.000          48.000
 110163674.23847 103633992.92447  22866415.9704   22866425.4804   22866415.7904
        47.000          43.000
 109485299.10547  85313207.19247  20834368.7194   20834372.2474   20834369.2354
        55.000          50.000
 111432842.25047  86830762.34447  21204982.7014   21204989.7074   21204982.0054
        54.000          49.000
 116283497.95847  90610497.14947  22128030.5404   22128036.0524   22128030.7914
        51.000          45.000
 125929168.55947  98126600.66547  23963542.0924   23963548.7714   23963541.2124
        45.000          41.000
 139626995.77847  91008014.11547  24667224.0254   24667229.9694   24667223.4124
        42.000          36.000
 15  5  1  0 52 30.0000000  0  7G12G25G22G24G14G15G04
 112362745.24247  87555355.09147  21381943.8424   21381948.8644   21381943.3764
        53.000          48.000
 110057724.41047 103551434.62047  22846254.5304   22846263.8934   22846254.6424
        47.000          43.000
 109458400.89047  85292247.54447  20829250.2394   20829253.6504   20829250.8884
        55.000          50.000
 111498265.09647  86881741.17147  21217432.3374   21217439.3564   21217431.4814
        54.000          49.000
 116217405.80147  90558996.81347  22115453.5544   22115459.1074   22115453.8314
        51.000          45.000
 126017383.14647  98195339.19247  23980328.3474   23980335.9794   23980328.4744
        46.000          41.000
 139600664.15647  90987495.97947  24662212.1864   24662219.7784   24662211.8624
        43.000          36.000
 15  5  1  0 53  0.0000000  0  7G12G25G22G24G14G15G04
 112310366.90247  87514540.83047  21371976.4894   21371981.7824   21371976.1584
        53.000          48.000
 109952020.35947 103469067.82847  22826139.7234   22826149.1504   22826139.3404
        47.000          43.000
 109432036.37647  85271703.76547  20824233.2414   20824236.6514   20824233.8854
        55.000          50.000
 111564004.41947  86932966.60447  21229942.1234   21229949.1434   21229941.6244
        54.000          49.000
 116151466.82447  90507615.83247  22102905.9194   22102911.1724   22102906.1304
        51.000          45.000
 126105718.39547  98264171.75047  23997138.1824   23997145.8184   23997137.9844
        46.000          41.000
 139574896.19447  90967417.05747  24657308.3244   24657316.6234   24657308.0484
        44.000          36.000
 15  5  1  0 53 30.0000000  0  7G12G25G22G24G14G15G04
 112258558.67147  87474170.81647  21362117.7164   21362122.8964   21362117.1724
        53.000          48.000
 109846551.36247 103386884.19447  22806069.5144   22806079.0774   22806069.4854
        47.000          43.000
 109406193.13247  85251566.17347  20819315.4064   20819318.8034   20819316.0314
        55.000          50.000
 111630044.11047  86984426.08747  21242508.9764   21242516.1264   21242508.0284
        54.000          49.000
 116085667.79847  90456343.89047  22090384.7574   22090389.5164   22090384.7864
        51.000          45.000
 126194159.88547  98333087.09547  24013968.2324   24013975.4634   24013967.7894
        45.000          41.000
 139549678.56447  90947767.00647  24652509.3984   24652517.6574   24652509.2624
        43.000          36.000
 15  5  1  0 54  0.0000000  0  7G12G25G22G24G14G15G04
 112207319.99847  87434244.60647  21352367.3834   21352372.3434   21352366.9614
        54.000          48.000
 109741317.99647 103304884.16747  22786044.3874   22786054.0374   22786044.5974
        48.000          43.000
 109380869.82047  85231833.72547  20814496.5694   20814499.8664   20814497.2784
        55.000          50.000
 111696379.44247  87036115.93047  21255132.2794   21255139.4134   21255131.7214
        54.000          49.000
 116020006.77747  90405179.49747  22077889.9694   22077894.7374   22077890.2234
        51.000          45.000
 126282704.55147  98402082.82247  24030817.5794   24030824.9224   24030817.5064
        46.000          41.000
 139525009.33147  90928544.24847  24647814.6154   24647822.3854   24647814.0194
        41.000          36.000
 15  5  1  0 54 30.0000000  0  7G12G25G22G24G14G15G04
 112156662.04447  87394770.90847  21342727.6404   21342732.3954   21342727.4614
        54.000          48.000
 109636332.22147 103223077.08147  22766066.1194   22766075.6504   22766066.5044
        47.000          43.000
 109356076.56547  85212514.30147  20809778.5024   20809781.8624   20809779.1834
        55.000          50.000
 111763018.03447  87088042.09147  21267813.4204   21267820.1054   21267812.6104
        54.000          49.000
 115954493.16447  90354129.96747  22065422.7884   22065428.1364   22065423.2194
        51.000          45.000
 126371360.96047  98471165.62147  24047688.5554   24047696.2894   24047687.5524
        45.000          41.000
 139500897.81647  90909756.07647  24643225.9634   24643236.0374   24643224.2734
        42.000          36.000
 15  5  1  0 55  0.0000000  0  7G12G25G22G24G14G15G04
 112106575.35147  87355742.34547  21333196.3284   21333201.0444   21333196.2244
        54.000          48.000
 109531585.83647 103141456.53247  22746133.5254   22746142.6314   22746133.3464
        47.000          43.000
 109331803.09947  85193599.90947  20805159.3904   20805162.7854   20805159.9684
        55.000          50.000
 111829946.16147  87140193.86747  21280549.5494   21280556.2094   21280548.9614
        54.000          49.000
 115889116.87947  90303187.45047  22052981.7964   22052987.3424   22052981.9594
        51.000          45.000
 126460117.10547  98540326.12447  24064578.3074   24064585.5884   24064578.2384
        45.000          40.000
 139477333.41147  90891394.23347  24638741.9834   24638750.4524   24638741.7664
        39.000          36.000
 15  5  1  0 55 30.0000000  0  7G12G25G22G24G14G15G04
 112057072.91447  87317169.04547  21323776.2054   21323781.2494   21323775.9044
        54.000          48.000
 109427092.87047 103060033.46247  22726249.1314   22726258.5304   22726249.3504
        48.000          43.000
 109308061.82547  85175100.20947  20800641.6134   20800645.0644   20800642.3484
        55.000          50.000
 111897172.48247  87192577.98547  21293342.0974   21293348.9304   21293341.6534
        54.000          49.000
 115823889.46147  90252360.92147  22040569.8404   22040574.9854   22040569.7694
        51.000          46.000
 126548983.17047  98609572.30047  24081489.4914   24081496.2004   24081490.0634
        45.000          41.000
 139454327.43147  90873467.55247  24634364.7384   24634372.7484   24634362.5714
        41.000          36.000
 15  5  1  0 56  0.0000000  0  7G12G25G22G24G14G15G04
 112008146.01847  87279044.21347  21314465.7544   21314470.8644   21314465.2994
        54.000          48.000
 109322845.66547 102978801.89847  22706411.4864   22706420.7904   22706411.7104
        47.000          43.000
 109284843.26547  85157007.82747  20796223.3804   20796226.6864   20796224.0964
        55.000          50.000
 111964684.66047  87245184.85547  21306189.2844   21306196.1984   21306188.8694
        53.000          49.000
 115758800.88247  90201642.58047  22028183.8924   22028189.1064   22028184.1424
        51.000          46.000
 126637947.90647  98678895.36547  24098418.4644   24098426.3854   24098418.4644
        46.000          41.000
 139431869.50347  90855967.88647  24630090.7874   24630098.7474   24630090.5024
        41.000          35.000
 15  5  1  0 56 30.0000000  0  7G12G25G22G24G14G15G04
 111959808.10047  87241378.33047  21305267.3144   21305272.3934   21305267.1404
        54.000          49.000
 109218858.57147 102897773.01747  22686623.3184   22686632.6674   22686623.1634
        48.000          43.000
 109262159.73847  85139332.35247  20791906.7814   20791910.1144   20791907.4454
        55.000          50.000
 112032491.87147  87298021.61747  21319092.3284   21319099.4084   21319091.5614
        53.000          49.000
 115693862.80847  90151041.51447  22015826.3554   22015831.9474   22015826.4274
        51.000          46.000
 126727022.08347  98748303.69547  24115369.1624   24115376.3914   24115369.0394
        46.000          41.000
 139409971.45747  90838904.50547  24625924.6514   24625931.2274   24625924.6864
        44.000          36.000
 15  5  1  0 57  0.0000000  0  7G12G25G22G24G14G15G04
 111912050.02547  87204164.27747  21296179.1964   21296184.1534   21296178.8474
        54.000          48.000
 109115123.87347 102816940.82047  22666883.4344   22666892.5964   22666883.8074
        49.000          43.000
 109240001.35847  85122066.08947  20787690.2104   20787693.4304   20787690.8114
        55.000          50.000
 112100580.76547  87351077.87247  21332049.2364   21332056.4934   21332048.5994
        54.000          49.000
 115629065.43647  90100550.09047  22003495.8434   22003501.5564   22003496.0524
        51.000          46.000
 126816194.60547  98817788.66447  24132338.3514   24132345.4944   24132337.5354
        46.000          41.000
 139388622.76647  90822269.18247  24621863.0144   24621869.1474   24621862.8954
        42.000          36.000
 15  5  1  0 57 30.0000000  0  7G12G25G22G24G14G15G04
 111864880.21747  87167408.59747  21287203.0634   21287207.9934   21287202.6514
        54.000          48.000
 109011651.15747 102736312.76747  22647193.1194   22647202.4184   22647193.1144
        48.000          43.000
 109218375.91547  85105215.10147  20783575.0624   20783578.2444   20783575.8914
        55.000          50.000
 112168956.59147  87404357.70347  21345060.6924   21345067.9944   21345060.1784
        53.000          49.000
 115564415.91247  90050173.87347  21991193.5994   21991199.1774   21991193.7914
        51.000          46.000
 126905471.02947  98887354.58547  24149327.1644   24149335.0244   24149326.5474
        45.000          41.000
 139367830.42547  90806067.39247  24617904.7704   24617913.2374   24617904.7054
        42.000          36.000
 15  5  1  0 58  0.0000000  0  7G12G25G22G24G14G15G04
 111818304.99147  87131116.24847  21278340.1594   21278344.9794   21278340.1744
        54.000          48.000
 108908447.78347 102655894.60547  22627553.9614   22627563.2704   22627554.0204
        48.000          43.000
 109197288.66247  85088783.48247  20779562.3214   20779565.3644   20779562.9334
        55.000          50.000
 112237620.98347  87457862.40647  21358127.0594   21358134.3764   21358126.5434
        53.000          49.000
 115499919.48747  89999916.94947  21978920.2224   21978925.4524   21978920.5864
        51.000          46.000
 126994855.04947  98957004.35147  24166335.7974   24166343.9594   24166335.6454
        45.000          41.000
 139347599.08547  90790302.72347  24614054.4464   24614063.1104   24614054.3514
        43.000          36.000
 15  5  1  0 58 30.0000000  0  7G12G25G22G24G14G15G04
 111772318.22547  87095282.44147  21269589.0934   21269594.0004   21269588.6964
        54.000          49.000
 108805508.59147 102575682.30547  22607965.2054   22607974.7244   22607965.2134
        48.000          43.000
 109176732.62947  85072765.79147  20775650.5604   20775653.8304   20775651.4254
        55.000          50.000
 112306564.18347  87511584.34747  21371246.3734   21371254.0164   21371245.8474
        53.000          49.000
 115435568.59647  89949773.43647  21966674.4694   21966679.8624   21966674.6104
        51.000          46.000
 127084337.92447  99026731.14947  24183364.1704   24183371.8564   24183363.5814
        46.000          40.000
 139327920.92347  90774969.11247  24610309.4834   24610319.3934   24610308.6594
        41.000          36.000
 15  5  1  0 59  0.0000000  0  7G12G25G22G24G14G15G04
 111726925.61647  87059911.60447  21260950.9694   21260956.0954   21260950.5514
        54.000          49.000
 108702840.68947 102495681.39647  22588428.1384   22588437.6754   22588427.7824
        48.000          43.000
 109156712.84147  85057165.96347  20771840.9824   20771844.2104   20771841.8264
        55.000          50.000
 112375788.09647  87565525.03347  21384419.6814   21384426.8224   21384419.2224
        53.000          49.000
 115371367.98747  89899747.02747  21954457.5614   21954462.9184   21954458.0144
        52.000          46.000
 127173923.01347  99096537.56147  24200411.8724   24200419.4814   24200411.5694
        45.000          41.000
 139308800.24147  90760069.88347  24606670.0464   24606680.2974   24606669.4914
        42.000          35.000
 15  5  1  0 59 30.0000000  0  7G12G25G22G24G14G15G04
 111682126.03947  87025002.86747  21252425.8774   21252431.0824   21252425.3194
        54.000          49.000
 108600444.24547 102415892.02547  22568942.6844   22568952.3084   22568942.7984
        49.000          44.000
 109137227.77147  85041982.79147  20768132.9804   20768136.4014   20768133.5574
        55.000          50.000
 112445287.51647  87619680.38547  21397644.9684   21397652.1184   21397644.5394
        53.000          49.000
 115307315.70047  89849836.18547  21942268.9334   21942274.2904   21942269.1364
        51.000          46.000
 127263607.12047  99166421.13947  24217478.5384   24217486.3704   24217478.0634
        45.000          41.000
 139290234.56347  90745603.19847  24603137.2514   24603146.0454   24603137.2864
        42.000          35.000
 15  5  1  1  0  0.0000000  0  8G12G25G22G31G24G14G15G04
 111637925.07147  86990560.58347  21244014.7974   21244019.8464   21244014.3934
        54.000          49.000
 108498325.40447 102336318.96447  22549510.3864   22549519.5564   22549510.2054
        49.000          44.000
 109118281.51947  85027219.48447  20764527.7214   20764530.8504   20764528.5394
        55.000          50.000
 141111630.88257  92164886.84557  24949728.7065   24949733.5345   24949728.0145
        43.000          36.000
 112515063.89547  87674051.55847  21410922.9344   21410929.9584   21410922.2504
        53.000          49.000
 115243415.47047  89800043.84047  21930108.9164   21930114.2784   21930109.1474
        51.000          46.000
 127353392.74747  99236383.83247  24234564.3984   24234572.0714   24234563.4314
        46.000          41.000
 139272227.06547  90731571.45547  24599711.9164   24599719.5904   24599711.8624
        44.000          36.000
 15  5  1  1  0 30.0000000  0  8G12G25G22G31G24G14G15G04
 111594318.60547  86956581.54847  21235716.6404   21235721.8874   21235716.4644
        54.000          49.000
 108396482.14147 102256960.64247  22530130.2724   22530139.5664   22530130.4064
        48.000          44.000
 109099869.67247  85012872.59447  20761024.0954   20761027.2954   20761024.7684
        55.000          50.000
 121008632.78557 112084622.81057  24930133.4715   24930138.9955   24930133.4605
        44.000          36.000
 112585109.97147  87728632.87547  21424252.0754   21424259.3694   21424251.4244
        53.000          49.000
 115179662.75247  89750366.43147  21917977.1994   21917982.5324   21917977.3954
        52.000          46.000
 127443274.15347  99306421.14047  24251667.9624   24251676.0764   24251667.6474
        45.000          41.000
 139254772.83047  90717970.78847  24596390.9814   24596398.5994   24596391.2554
        44.000          36.000
 15  5  1  1  1  0.0000000  0  8G12G25G22G31G24G14G15G04
 111551316.46647  86923073.42147  21227533.7864   21227538.7624   21227533.7764
        54.000          49.000
 108294925.37347 102177825.57047  22510804.6334   22510813.9274   22510804.7674
        49.000          44.000
 109082001.15347  84998949.08047  20757623.8774   20757626.8794   20757624.6044
        55.000          50.000
 140905778.05357  92004474.69257  24910561.8565   24910568.5165   24910562.7635
        44.000          37.000
 112655431.80847  87783429.07547  21437634.2534   21437641.3114   21437633.6114
        53.000          49.000
 115116066.55747  89700810.99547  21905875.2024   21905880.5434   21905875.3544
        51.000          46.000
 127533258.76347  99376538.88747  24268791.1714   24268799.6604   24268790.8814
        44.000          41.000
 139237880.09647  90704807.64547  24593176.4864   24593184.4974   24593176.3064
        44.000          36.000
 15  5  1  1  1 30.0000000  0  8G12G25G22G31G24G14G15G04
 111508909.98547  86890029.44747  21219464.0644   21219469.0494   21219463.7884
        54.000          49.000
 108193647.60847 102098907.90147  22491532.1214   22491541.3284   22491532.2774
        49.000          44.000
 109064666.39547  84985441.48247  20754325.1134   20754328.1374   20754325.6764
        55.000          50.000
 140803045.51647  91924423.33647  24891012.8274   24891019.4544   24891013.8404
        44.000          37.000
 112726016.68847  87838430.24247  21451066.3444   21451073.2934   21451065.9824
        53.000          49.000
 115052617.18547  89651369.96747  21893800.9294   21893806.4894   21893800.9824
        52.000          46.000
 127623335.24247  99446728.21447  24285932.0994   24285940.9814   24285932.1904
        45.000          41.000
 139221538.39447  90692073.87447  24590065.2334   24590073.9834   24590065.5014
        43.000          36.000
 15  5  1  1  2  0.0000000  0  8G12G25G22G31G24G14G15G04
 111467122.52747  86857467.82647  21211511.9334   21211517.0174   21211511.6994
        54.000          49.000
 108092673.53547 102020226.86747  22472316.9984   22472326.4424   22472316.9744
        49.000          44.000
 109047888.03547  84972367.43747  20751132.3234   20751135.3334   20751133.0944
        55.000          50.000
 140700450.79747  91844479.39647  24871488.4604   24871495.3734   24871488.4934
        45.000          38.000
 112796884.47447  87893651.85447  21464552.0224   21464558.9254   21464551.5704
        53.000          49.000
 114989336.93147  89602060.71247  21881759.3094   21881764.5384   21881759.5004
        52.000          46.000
 127713524.66447  99517005.53647  24303095.2714   24303103.2454   24303094.4304
        45.000          41.000
 139205769.70047  90679786.56547  24587065.3934   24587072.9344   24587064.6314
        43.000          36.000
 15  5  1  1  2 30.0000000  0  8G12G25G22G31G24G14G15G04
 111425929.52947  86825369.43347  21203673.2664   21203678.3024   21203673.1344
        54.000          49.000
 107991979.89347 101941764.34147  22453155.7484   22453164.9254   22453155.8074
        49.000          44.000
 109031640.86047  84959707.30547  20748040.6824   20748043.6964   20748041.3924
        55.000          50.000
 140597969.04547  91764623.47847  24851986.8214   24851994.9844   24851987.6964
        44.000          38.000
 112868006.52647  87949071.58847  21478085.8154   21478092.9594   21478085.1944
        52.000          48.000
 114926200.06147  89552863.19547  21869744.7954   21869749.9134   21869744.9254
        52.000          46.000
 127803800.25847  99587349.98647  24320274.8194   24320282.0874   24320274.0744
        45.000          41.000
 139190547.59747  90667925.17247  24584168.0424   24584177.1194   24584167.4634
        43.000          37.000
 15  5  1  1  3  0.0000000  0  8G12G25G22G31G24G14G15G04
 111385345.78847  86793745.77247  21195950.4784   21195955.6094   21195950.0694
        54.000          49.000
 107891582.94547 101863533.00747  22434050.6084   22434060.0044   22434050.4414
        49.000          44.000
 109015938.99747  84947472.09147  20745052.5094   20745055.8974   20745053.0284
        55.000          50.000
 140495614.50847  91684866.65547  24832509.4314   24832517.8244   24832508.7254
        43.000          38.000
 112939394.61647  88004698.61847  21491670.6854   21491677.7544   21491670.4504
        53.000          48.000
 114863220.78147  89503788.47347  21857760.1964   21857765.3674   21857760.4104
        52.000          46.000
 127894174.50547  99657771.32747  24337471.9524   24337480.5344   24337471.1484
        44.000          41.000
 139175885.60747  90656500.18147  24581377.9604   24581386.6434   24581377.7224
        43.000          37.000
 15  5  1  1  3 30.0000000  0  8G12G25G22G31G24G14G15G04
 111345372.91847  86762598.11547  21188343.7784   21188348.8484   21188343.6334
        54.000          49.000
 107791485.68147 101785535.18647  22415003.0134   22415012.1384   22415002.9724
        49.000          44.000
 109000783.09747  84935662.29847  20742168.4884   20742171.8024   20742169.2274
        56.000          50.000
 140393388.44147  91605209.99047  24813056.0324   24813064.0474   24813056.6194
        45.000          39.000
 113011046.09147  88060530.89847  21505305.5634   21505312.3814   21505304.8344
        53.000          48.000
 114800399.85047  89454837.13747  21845805.8974   21845811.2754   21845806.1844
        52.000          47.000
 127984646.78547  99728269.07147  24354688.1994   24354696.7574   24354687.4464
        44.000          41.000
 139161783.85047  90645511.78747  24578695.2544   24578702.7714   24578694.6214
        44.000          37.000
 15  5  1  1  4  0.0000000  0  8G12G25G22G31G24G14G15G04
 111306009.08047  86731925.02947  21180853.2254   21180857.9294   21180852.7624
        54.000          49.000
 107691687.59747 101707770.48947  22396011.8014   22396021.1664   22396011.5864
        49.000          44.000
 108986170.61647  84924275.95347  20739387.9904   20739391.0684   20739388.6144
        55.000          50.000
 140291288.29747  91525651.43847  24793627.4254   24793634.5954   24793626.5994
        44.000          39.000
 113082955.60647  88116564.24647  21518989.5914   21518996.5594   21518988.8864
        53.000          48.000
 114737734.60947  89406007.12447  21833880.9824   21833886.4414   21833881.1064
        52.000          46.000
 128075213.27147  99798840.19947  24371922.1434   24371931.1914   24371921.7914
        45.000          41.000
 139148238.91147  90634957.31347  24576118.3304   24576125.7954   24576118.3624
        44.000          37.000
 15  5  1  1  4 30.0000000  0  8G12G25G22G31G24G14G15G04
 111267259.52647  86701730.61347  21173479.3474   21173484.0354   21173479.2114
        54.000          49.000
 107592195.36947 101630244.11847  22377078.9764   22377088.3634   22377078.8064
        49.000          44.000
 108972105.99847  84913316.50847  20736711.5794   20736714.5784   20736712.2414
        55.000          50.000
 140189318.90747  91446194.78647  24774225.1364   24774231.5454   24774225.6374
        46.000          40.000
 113155125.02347  88172800.12347  21532722.7994   21532729.9014   21532722.2864
        52.000          48.000
 114675229.44847  89357301.84347  21821986.7714   21821991.7244   21821986.8934
        52.000          46.000
 128165876.65547  99869486.83547  24389175.4834   24389184.2834   24389175.8694
        46.000          41.000
 139135254.46847  90624839.59647  24573647.3814   24573654.6424   24573646.8714
        44.000          37.000
 15  5  1  1  5  0.0000000  0  8G12G25G22G31G24G14G15G04
 111229121.20247  86672012.47147  21166221.6394   21166226.6364   21166221.2734
        54.000          49.000
 107493007.74647 101552955.09347  22358204.1784   22358213.3994   22358204.1394
        49.000          44.000
 108958586.00447  84902781.44747  20734138.7184   20734141.8914   20734139.2274
        55.000          50.000
 140087477.38747  91366837.78647  24754844.7074   24754851.1174   24754845.3224
        42.000          39.000
 113227548.13647  88229233.67847  21546504.2434   21546511.7884   21546503.6994
        52.000          48.000
 114612880.86747  89308718.57147  21810122.1524   21810127.0594   21810122.5024
        52.000          46.000
 128256632.08947  99940205.21947  24406446.4224   24406453.9924   24406446.6904
        47.000          41.000
 139122826.05147  90615155.14847  24571281.2744   24571290.7254   24571281.3794
        44.000          37.000
 15  5  1  1  5 30.0000000  0  8G12G25G22G31G24G14G15G04
 111191596.36047  86642772.38347  21159081.1034   21159085.8014   21159080.7844
        54.000          49.000
 107394128.15247 101475906.09847  22339387.7744   22339397.1134   22339387.7154
        49.000          44.000
 108945611.67347  84892671.57747  20731669.8774   20731672.9654   20731670.6484
        55.000          50.000
 139985765.26447  91287581.58047  24735490.4994   24735495.6874   24735490.6694
        43.000          39.000
 113300223.19147  88285863.55747  21560333.9184   21560341.5284   21560333.1904
        52.000          48.000
 114550690.04347  89260258.22447  21798287.6664   21798292.4184   21798287.9564
        52.000          47.000
 128347479.45747 100010995.22447  24423734.1394   24423741.5444   24423733.8644
        46.000          40.000
 139110954.27847  90605904.50347  24569022.5974   24569030.2194   24569022.3504
        44.000          37.000
 15  5  1  1  6  0.0000000  0  8G12G25G22G31G24G14G15G04
 111154689.29347  86614013.67947  21152057.9204   21152062.5714   21152057.6314
        54.000          49.000
 107295562.19647 101399101.48147  22320631.2474   22320640.6554   22320631.1964
        49.000          44.000
 108933186.43347  84882989.57147  20729305.3514   20729308.5754   20729306.0494
        55.000          50.000
 139884186.19847  91208429.10447  24716160.2414   24716165.9964   24716160.9864
        41.000          38.000
 113373150.75047  88342690.18747  21574212.0084   21574219.1004   21574211.5174
        53.000          48.000
 114488660.67047  89211923.68847  21786483.6514   21786488.8884   21786483.7254
        53.000          47.000
 128438421.02447 100081858.62347  24441039.7334   24441047.2604   24441039.6784
        46.000          40.000
 139099641.54147  90597089.40047  24566869.2964   24566877.9314   24566868.5284
        42.000          37.000
 15  5  1  1  6 30.0000000  0  8G12G25G22G31G24G14G15G04
 111118403.17147  86585738.81847  21145152.3784   21145157.7744   21145152.0154
        54.000          49.000
 107197314.76247 101322545.06947  22301935.6344   22301944.7394   22301935.4654
        49.000          44.000
 108921313.18947  84873737.68747  20727045.9184   20727049.2504   20727046.6094
        55.000          50.000
 139782743.37947  91129382.79747  24696853.9564   24696861.4024   24696853.3524
        38.000          38.000
 113446331.23547  88399713.90747  21588138.0274   21588145.0034   21588137.6234
        53.000          48.000
 114426795.35347  89163716.98447  21774710.7804   21774716.3754   21774710.9754
        52.000          47.000
 128529457.88547 100152796.29347  24458363.3454   24458371.7424   24458363.0394
        45.000          40.000
 139088889.69047  90588711.35747  24564823.0524   24564832.2504   24564821.9834
        42.000          37.000
 15  5  1  1  7  0.0000000  0  8G12G25G22G31G24G14G15G04
 111082737.95247  86557947.77047  21138365.8034   21138370.8754   21138365.2594
        54.000          49.000
 107099387.35147 101246238.03147  22283300.5384   22283309.7924   22283300.2844
        49.000          44.000
 108909990.89847  84864915.11447  20724891.3584   20724894.7314   20724892.0934
        55.000          50.000
 139681436.30647  91050442.26547  24677575.2384   24677583.8504   24677572.5804
        40.000          38.000
 113519760.50847  88456931.48947  21602110.8524   21602118.0514   21602110.3344
        52.000          48.000
 114365093.40747  89115637.57847  21762969.4824   21762974.6044   21762969.6144
        52.000          47.000
 128620588.01447 100223806.64847  24475704.6034   24475713.5354   24475704.1584
        45.000          40.000
 139078697.08647  90580769.11547  24562884.0764   24562892.2654   24562883.5714
        43.000          37.000
 15  5  1  1  7 30.0000000  0  8G12G25G22G31G24G14G15G04
 111047696.46647  86530642.75047  21131697.8184   21131702.6364   21131697.5194
        54.000          49.000
 107001784.53047 101170183.90547  22264727.4734   22264736.4574   22264727.5204
        50.000          45.000
 108899221.85447  84856523.64447  20722842.0144   20722845.3304   20722842.6554
        55.000          50.000
 139580267.55647  90971609.46847  24658324.2844   24658331.7654   24658321.4464
        40.000          38.000
 113593438.71747  88514343.05347  21616131.2554   21616138.4474   21616130.7844
        52.000          48.000
 114303557.42847  89067687.49447  21751259.4634   21751264.7024   21751259.5214
        52.000          47.000
 128711812.05447 100294890.16747  24493064.3154   24493072.9074   24493064.4634
        44.000          40.000
 139069065.35147  90573263.85447  24561051.4244   24561059.8114   24561051.5404
        45.000          37.000
 15  5  1  1  8  0.0000000  0  8G12G25G22G31G24G14G15G04
 111013271.00047  86503817.74747  21125146.6134   21125151.4954   21125146.4364
        54.000          49.000
 106904499.91247 101094377.73247  22246214.8794   22246224.0654   22246215.0924
        49.000          45.000
 108888997.54847  84848556.64247  20720896.4234   20720899.6634   20720897.0764
        55.000          50.000
 139479229.01147  90892878.19547  24639096.8454   24639105.2874   24639095.6004
        39.000          38.000
 113667354.10447  88571939.43247  21630196.8254   21630204.2954   21630196.1824
        52.000          48.000
 114242178.47547  89019859.77547  21739579.6414   21739584.8204   21739579.8184
        52.000          47.000
 128803120.40447 100366039.37347  24510439.9334   24510448.3244   24510439.1024
        44.000          40.000
 139059984.71547  90566187.99747  24559324.2694   24559331.6824   24559324.4104
        44.000          37.000
 15  5  1  1  8 30.0000000  0  8G12G25G22G31G24G14G15G04
 110979475.49247  86477483.61647  21118715.4684   21118720.5474   21118714.9814
        54.000          49.000
 106807549.09447 101018831.65847  22227765.9264   22227775.0544   22227766.3234
        50.000          45.000
 108879331.39947  84841024.56847  20719057.0334   20719060.2704   20719057.6844
        55.000          50.000
 139378334.40047  90814259.05647  24619898.6434   24619905.4654   24619898.6944
        42.000          38.000
 113741517.59447  88629729.13047  21644309.6624   21644317.1624   21644309.1834
        52.000          48.000
 114180970.32647  88972165.15247  21727931.9344   21727937.0864   21727932.1184
        52.000          47.000
 128894524.88947 100437263.51247  24527833.2614   24527841.9664   24527833.9574
        45.000          40.000
 139051467.90947  90559551.48647  24557702.8824   24557709.9244   24557702.7894
        43.000          37.000
 15  5  1  1  9  0.0000000  0  8G12G25G22G31G24G14G15G04
 110946311.56047  86451641.62847  21112404.8364   21112409.5284   21112404.7764
        54.000          49.000
 106710935.53447 100943548.38747  22209380.9624   22209390.0954   22209381.2834
        50.000          45.000
 108870224.31547  84833928.13447  20717324.0414   20717327.2934   20717324.7514
        55.000          50.000
 139277585.60847  90735753.54747  24600728.4134   24600733.0014   24600729.1394
        42.000          37.000
 113815927.73247  88687711.01747  21658469.5414   21658476.9414   21658469.0184
        52.000          48.000
 114119934.36647  88924604.69247  21716317.0344   21716322.2494   21716317.2654
        52.000          47.000
 128986025.77047 100508562.73847  24545245.5094   24545254.4074   24545245.9554
        45.000          40.000
 139043515.28047  90553354.61647  24556189.3544   24556197.1934   24556189.0904
        44.000          37.000
 15  5  1  1  9 30.0000000  0  8G12G25G22G31G24G14G15G04
 110913762.80047  86426278.98747  21106210.8124   21106216.0564   21106210.5664
        54.000          49.000
 106614644.18047 100868516.18847  22191056.9774   22191066.3404   22191056.9824
        50.000          45.000
 108861658.97647  84827253.83347  20715694.0584   20715697.4024   20715694.6904
        55.000          50.000
 139176965.64947  90657348.37247  24581580.7584   24581586.4744   24581580.4094
        43.000          38.000
 113890564.34247  88745869.38247  21672672.5664   21672679.9344   21672672.1264
        52.000          48.000
 114059053.30947  88877164.93947  21704731.7644   21704737.0564   21704732.0694
        53.000          47.000
 129077603.76447 100579922.08447  24562671.8304   24562681.0914   24562671.2054
        45.000          39.000
 139036108.58047  90547583.14647  24554780.0794   24554788.3424   24554779.1844
        43.000          37.000
 15  5  1  1 10  0.0000000  0  8G12G25G22G31G24G14G15G04
 110881845.93847  86401408.72747  21100137.1144   21100142.1524   21100136.6444
        54.000          49.000
 106518693.60847 100793749.53547  22172798.0904   22172807.5874   22172798.1304
        50.000          45.000
 108853651.86647  84821014.51747  20714170.3884   20714173.6554   20714170.9514
        55.000          50.000
 139076491.04947  90579056.55147  24562461.4744   24562465.5994   24562462.0134
        44.000          39.000
 113965441.24347  88804214.99147  21686921.0784   21686928.4734   21686920.4804
        52.000          48.000
 113998343.51247  88829858.63747  21693179.2724   21693184.3324   21693179.5794
        53.000          47.000
 129169274.08647 100651353.33347  24580117.0874   24580125.8834   24580117.8184
        43.000          40.000
 139029263.07147  90542248.95847  24553475.8674   24553486.5174   24553475.3124
        43.000          36.000
 15  5  1  1 10 30.0000000  0  8G12G25G22G31G24G14G15G04
 110850567.07947  86377035.60847  21094185.2074   21094189.9974   21094185.0354
        55.000          49.000
 106423091.48147 100719254.38847  22154605.6184   22154614.9144   22154605.5374
        50.000          45.000
 108846208.00747  84815214.09047  20712753.8824   20712757.1844   20712754.4864
        55.000          50.000
 138976167.71647  90500882.59447  24543369.0964   24543374.5634   24543368.7594
        42.000          38.000
 114040561.12247  88862749.93447  21701215.9074   21701223.1164   21701215.1714
        52.000          48.000
 113937810.86447  88782690.37147  21681660.2774   21681665.2404   21681660.7134
        53.000          47.000
 129261041.01747 100722859.91347  24597579.4464   24597589.0774   24597579.1104
        43.000          39.000
 139022983.31147  90537355.65847  24552282.0094   24552291.0244   24552282.0954
        44.000          37.000
 15  5  1  1 11  0.0000000  0  8G12G25G22G31G24G14G15G04
 110819903.06847  86353141.59347  21088350.0084   21088354.6964   21088349.7744
        54.000          49.000
 106327816.19847 100645013.93147  22136475.4054   22136484.5434   22136475.0284
        50.000          45.000
 108839303.50147  84809833.94847  20711439.9294   20711443.2054   20711440.6004
        55.000          50.000
 138875972.11347  90422808.12047  24524301.1854   24524309.4384   24524300.5834
        44.000          38.000
 114115897.98347  88921453.96047  21715552.1714   21715559.3424   21715551.7554
        52.000          48.000
 113877431.65947  88735641.66847  21670170.3084   21670175.4844   21670170.5074
        52.000          47.000
 129352879.34847 100794422.08747  24615056.0204   24615065.0204   24615055.9424
        44.000          39.000
 139017244.42447  90532883.81847  24551189.9134   24551198.9594   24551190.3094
        42.000          37.000
 15  5  1  1 11 30.0000000  0  8G12G25G22G31G24G14G15G04
 110789885.58747  86329751.37547  21082637.5694   21082642.7294   21082637.3314
        54.000          49.000
 106232901.57247 100571054.52447  22118413.5614   22118422.8934   22118413.3894
        50.000          45.000
 108832969.95047  84804898.70047  20710234.7684   20710237.8714   20710235.3494
        55.000          50.000
 138775936.56747  90344858.32947  24505264.6574   24505272.8874   24505264.2214
        44.000          37.000
 114191479.98247  88980348.97947  21729934.6104   21729942.1444   21729933.8284
        52.000          48.000
 113817237.49947  88688737.15747  21658715.4664   21658720.9064   21658715.6204
        52.000          47.000
 129444819.14247 100866063.34247  24632551.9454   24632560.3824   24632551.1274
        44.000          39.000
 139012077.07647  90528857.34547  24550206.5044   24550215.3484   24550206.8054
        43.000          37.000
 15  5  1  1 12  0.0000000  0  8G12G25G22G31G24G14G15G04
 110760501.02447  86306854.32947  21077045.9954   21077050.7344   21077045.5344
        54.000          49.000
 106138335.72247 100497366.88147  22100418.4314   22100427.4784   22100418.2824
        50.000          45.000
 108827192.84647  84800397.04947  20709135.5164   20709138.5244   20709136.3364
        55.000          50.000
 138676046.96547  90267022.31447  24486256.6794   24486263.9974   24486256.2054
        44.000          37.000
 114267291.01847  89039422.47047  21744360.7974   21744368.6434   21744360.0134
        51.000          48.000
 113757214.24947  88641965.82647  21647293.5914   21647298.6954   21647293.7594
        53.000          47.000
 129536845.05647 100937771.72647  24650063.9264   24650072.4274   24650064.1884
        43.000          39.000
 139007465.95847  90525264.31147  24549329.9904   24549337.5554   24549329.3564
        45.000          37.000
 15  5  1  1 12 30.0000000  0  8G12G25G22G31G24G14G15G04
 110731744.93447  86284446.99947  21071573.9264   21071578.4404   21071573.6554
        54.000          49.000
 106044115.78347 100423948.79147  22082489.0894   22082497.9454   22082489.4944
        50.000          45.000
 108821967.18947  84796325.09847  20708140.9614   20708144.2934   20708141.7024
        55.000          50.000
 138576298.60447  90189296.40047  24467275.2054   24467282.9784   24467274.9134
        44.000          38.000
 114343322.92847  89098668.07747  21758829.7014   21758836.9934   21758829.0944
        52.000          48.000
 113697357.31647  88595324.08647  21635903.1364   21635908.1974   21635903.3934
        53.000          47.000
 129628950.79547 101009542.30747  24667591.2444   24667599.9844   24667591.1844
        44.000          39.000
 139003405.20647  90522100.16147  24548556.5924   24548564.2644   24548556.7914
        45.000          37.000
 15  5  1  1 13  0.0000000  0  8G12G25G22G31G24G14G15G04
 110703630.83847  86262539.93447  21066223.7664   21066228.5964   21066223.4164
        54.000          49.000
 105950257.12947 100350812.23047  22064628.2084   22064637.3744   22064628.7494
        51.000          45.000
 108817305.79447  84792692.82547  20707253.9184   20707257.3184   20707254.5614
        55.000          50.000
 138476705.06947  90111691.09147  24448322.2544   24448331.7164   24448321.7494
        43.000          37.000
 114419586.55447  89158094.25147  21773342.5954   21773349.3504   21773341.9434
        52.000          48.000
 113637680.09547  88548822.39047  21624546.9314   21624552.0104   21624547.1754
        53.000          47.000
 129721148.15247 101081384.28347  24685135.8694   24685144.6284   24685136.5004
        41.000          39.000
 138999906.42447  90519373.85047  24547889.6344   24547898.8344   24547889.4194
        43.000          37.000
 15  5  1  1 13 30.0000000  0  8G12G25G22G31G24G14G15G04
 110676153.22647  86241128.83147  21060994.8534   21061000.0994   21060994.3474
        54.000          49.000
 105856755.91147 100277954.18147  22046835.5124   22046844.6304   22046835.7224
        50.000          45.000
 108813202.51947  84789495.44947  20706473.2834   20706476.5154   20706474.0874
        55.000          50.000
 138377260.90447  90034202.14847  24429399.7054   24429406.9904   24429399.9964
        44.000          36.000
 114496073.51747  89217694.44047  21787897.5394   21787904.5624   21787896.8254
        52.000          47.000
 113578176.35647  88502455.86747  21613223.9354   21613229.0894   21613224.2664
        53.000          47.000
 129813429.59947 101153291.75947  24702696.4054   24702705.5324   24702695.1104
        41.000          38.000
 138996962.83147  90517080.14847  24547329.9004   24547338.6064   24547328.7124
        44.000          37.000
 15  5  1  1 14  0.0000000  0  8G12G25G22G31G24G14G15G04
 110649309.85047  86220211.94347  21055886.7174   21055891.7874   21055886.1664
        54.000          49.000
 105763612.07047 100205374.61747  22029110.7924   22029119.8704   22029110.4014
        51.000          45.000
 108809654.64547  84786730.85647  20705798.1334   20705801.3214   20705798.9224
        55.000          50.000
 138277963.89947  89956827.84947  24410504.7794   24410511.5964   24410505.0264
        43.000          37.000
 114572778.13647  89277464.23347  21802493.7764   21802500.7194   21802493.1494
        51.000          47.000
 113518844.23747  88456223.07647  21601933.3554   21601938.5074   21601933.5664
        53.000          47.000
 129905791.80647 101225262.17547  24720271.9854   24720281.1664   24720270.7674
        40.000          38.000
 138994570.77547  90515216.21247  24546874.9354   24546883.5264   24546874.4114
        43.000          37.000
 15  5  1  1 14 30.0000000  0  8G12G25G22G31G24G14G15G04
 110623110.02547  86199796.51947  21050901.1544   21050905.8734   21050900.8554
        54.000          49.000
 105670836.47547 100133082.00047  22011456.0984   22011465.0394   22011456.1694
        51.000          46.000
 108806670.68247  84784405.67247  20705230.3184   20705233.4264   20705231.0554
        55.000          50.000
 138178823.26247  89879575.41147  24391639.1674   24391646.5644   24391638.4994
        43.000          37.000
 114649706.93247  89337408.71247  21817132.9504   21817139.9984   21817132.2024
        52.000          47.000
 113459692.99247  88410131.22547  21590677.1474   21590682.1084   21590677.2604
        53.000          47.000
 129998241.64947 101297300.84747  24737864.6534   24737873.6464   24737862.8704
        40.000          38.000
 138992737.74547  90513787.86247  24546526.2254   24546535.6924   24546525.8404
        42.000          37.000
 15  5  1  1 15  0.0000000  0  8G12G25G22G31G24G14G15G04
 110597550.58247  86179880.08947  21046037.4314   21046042.1694   21046037.1654
        54.000          49.000
 105578427.83147 100061075.31947  21993871.5224   21993880.3744   21993871.6344
        51.000          45.000
 108804246.72347  84782516.85747  20704769.0074   20704772.2794   20704769.6114
        55.000          50.000
 138079835.98347  89802442.50547  24372804.2914   24372808.9314   24372803.4654
        44.000          38.000
 114726854.04147  89397523.29547  21831813.6654   21831820.8534   21831813.4184
        51.000          47.000
 113400719.08947  88364177.56347  21579454.8964   21579459.6024   21579455.0954
        53.000          47.000
 130090774.54047 101369404.24147  24755472.7864   24755482.6644   24755470.4484
        40.000          38.000
 138991459.36947  90512791.74247  24546283.8614   24546292.0614   24546283.4154
        43.000          37.000
 15  5  1  1 15 30.0000000  0  8G12G25G22G31G24G14G15G04
 110572621.86647  86160455.14247  21041293.6114   21041298.6344   21041293.3214
        54.000          49.000
 105486378.34647  99989348.50347  21976355.0594   21976363.8984   21976355.0604
        51.000          46.000
 108802372.67847  84781056.54547  20704412.3494   20704415.7014   20704412.9424
        55.000          50.000
 137980992.27847  89725421.52147  24353992.9184   24353998.6814   24353992.4754
        42.000          38.000
 114804206.89847  89457798.21347  21846533.3834   21846540.6204   21846532.7634
        52.000          47.000
 113341912.54847  88318354.31247  21568264.4154   21568269.2174   21568264.6894
        53.000          48.000
 130183379.36147 101441563.68647  24773096.4224   24773105.1374   24773094.9164
        42.000          39.000
 138990724.20047  90512218.88447  24546144.2714   24546151.4804   24546143.1584
        43.000          37.000
 15  5  1  1 16  0.0000000  0  8G12G25G22G31G24G14G15G04
 110548346.15947  86141539.02847  21036674.2494   21036679.0164   21036674.1154
        55.000          49.000
 105394712.45747  99917920.58947  21958911.5414   21958920.2734   21958911.5494
        51.000          46.000
 108801070.49247  84780041.83547  20704164.6524   20704168.0454   20704165.1834
        55.000          50.000
 137882314.69847  89648529.91147  24335213.6004   24335222.5424   24335212.6854
        42.000          38.000
 114881784.97347  89518248.62047  21861295.8134   21861303.3444   21861295.0364
        51.000          47.000
 113283296.08447  88272679.17547  21557109.9584   21557114.9094   21557109.8994
        53.000          48.000
 130276076.80147 101513795.27547  24790736.2654   24790745.4954   24790735.3834
        42.000          39.000
 138990553.39247  90512085.80947  24546111.0174   24546118.5734   24546110.8654
        41.000          36.000
 15  5  1  1 16 30.0000000  0  8G12G25G22G31G24G14G15G04
 110524712.11347  86123122.91147  21032176.9164   21032181.3704   21032176.6694
        54.000          49.000
 105303420.75247  99846784.24547  21941539.0224   21941548.1374   21941539.0844
        51.000          46.000
 108800328.06447  84779463.29947  20704023.3494   20704026.7194   20704024.0594
        55.000          50.000
 137783792.02547  89571759.04547  24316466.9624   24316475.4974   24316466.8604
        43.000          39.000
 114959574.26547  89578863.61047  21876098.5434   21876106.3354   21876097.8464
        51.000          47.000
 113224858.11147  88227143.11047  21545989.6614   21545994.3624   21545989.7864
        53.000          48.000
 130368853.96747 101586089.02147  24808390.8214   24808401.0294   24808389.1494
        43.000          39.000
 138990934.32447  90512382.62347  24546182.4844   24546191.5564   24546181.6754
        42.000          36.000
 15  5  1  1 17  0.0000000  0  8G12G25G22G31G24G14G15G04
 110501718.57147  86105205.88047  21027801.1404   21027805.9494   21027801.0544
        54.000          49.000
 105212503.68547  99775939.82147  21924238.0794   21924246.9754   21924238.1944
        51.000          46.000
 108800143.35547  84779319.35447  20703988.3104   20703991.6364   20703988.9724
        55.000          50.000
 137685423.31147  89495108.19547  24297747.1454   24297755.2804   24297747.5124
        41.000          39.000
 115037570.19547  89639639.61947  21890940.8474   21890948.1394   21890940.0464
        51.000          47.000
 113166597.55847  88181745.31047  21534902.9574   21534907.7164   21534903.1434
        53.000          48.000
 130461707.88047 101658442.52347  24826060.8504   24826070.2714   24826060.3524
        42.000          39.000
 138991863.72947  90513106.83747  24546358.9244   24546368.0174   24546358.1014
        43.000          37.000
 15  5  1  1 17 30.0000000  0  8G12G25G22G31G24G14G15G04
 110479378.95547  86087798.40047  21023550.0234   21023555.0044   21023549.4994
        54.000          49.000
 105121976.76547  99705399.41747  21907011.2574   21907020.2974   21907011.4324
        51.000          46.000
 108800529.63347  84779620.32947  20704061.9534   20704065.1054   20704062.6594
        56.000          50.000
 137587221.75747  89418587.59047  24279060.0844   24279066.1524   24279059.5394
        43.000          39.000
 115115783.47547  89700584.99147  21905824.7164   21905831.7404   21905824.4014
        51.000          47.000
 113108527.90947  88136496.27147  21523852.6444   21523857.7414   21523852.9554
        53.000          48.000
 130554650.83447 101730865.45547  24843747.6514   24843756.2924   24843747.4114
        42.000          39.000
 138993353.81847  90514267.93447  24546644.0364   24546651.5824   24546643.6844
        44.000          37.000
 15  5  1  1 18  0.0000000  0  8G12G25G22G31G24G14G15G04
 110457681.47447  86070891.29847  21019421.2074   21019425.7854   21019420.9824
        54.000          49.000
 105031830.65247  99635155.74747  21889857.1224   21889866.0594   21889856.8904
        51.000          46.000
 108801474.86647  84780356.86247  20704241.7604   20704244.8374   20704242.5384
        55.000          50.000
 137489176.42647  89342188.64547  24260402.0314   24260409.9464   24260400.7164
        43.000          39.000
 115194200.69747  89761689.26847  21920746.6634   21920754.5044   21920746.0874
        51.000          47.000
 113050637.79147  88091387.12547  21512836.5334   21512841.3904   21512836.6284
        53.000          48.000
 130647669.86947 101803347.64447  24861448.3324   24861457.6584   24861447.1024
        42.000          39.000
 138995391.82947  90515855.99047  24547031.3094   24547040.3074   24547031.3784
        43.000          38.000
 15  5  1  1 18 30.0000000  0  8G12G25G22G31G24G14G15G04
 110436623.20547  86054482.28247  21015414.0514   21015418.2034   21015413.6674
        55.000          49.000
 104942064.06747  99565207.80647  21872775.1544   21872783.9744   21872775.3754
        51.000          46.000
 108802975.17547  84781525.92047  20704527.1494   20704530.3934   20704527.8654
        55.000          50.000
 137391284.30547  89265909.10447  24241773.1164   24241782.2804   24241772.2444
        43.000          40.000
 115272815.39447  89822947.41847  21935706.3094   21935714.3854   21935705.5104
        50.000          47.000
 112992924.24247  88046415.55947  21501854.0034   21501858.6584   21501854.3164
        53.000          48.000
 130740760.25947 101875885.44447  24879161.8804   24879172.3844   24879160.6154
        41.000          39.000
 138997972.78447  90517867.13447  24547523.1214   24547531.2654   24547522.0694
        44.000          37.000
 15  5  1  1 19  0.0000000  0  8G12G25G22G31G24G14G15G04
 110416224.48547  86038587.19647  21011532.1614   21011536.5884   21011531.7994
        54.000          49.000
 104852699.51247  99495573.13547  21855769.4614   21855778.5004   21855769.4444
        51.000          46.000
 108805050.55447  84783143.08147  20704922.1794   20704925.4064   20704922.8934
        55.000          50.000
 137293566.08747  89189765.06747  24223179.9334   24223186.4234   24223179.3664
        45.000          40.000
 115351645.57647  89884373.48447  21950707.4654   21950714.9654   21950706.6354
        51.000          47.000
 112935407.94147  88001597.69847  21490908.8544   21490913.7774   21490909.0624
        54.000          48.000
 130833940.55047 101948493.31547  24896893.0524   24896904.4194   24896893.1514
        42.000          39.000
 139001115.89647  90520316.32647  24548121.3684   24548129.9034   24548121.3964
        44.000          37.000
 15  5  1  1 19 30.0000000  0  8G12G25G22G31G24G14G15G04
 110396469.08847  86023193.39847  21007772.6774   21007777.4824   21007772.0684
        54.000          49.000
 104763722.75447  99426240.64547  21838837.7654   21838846.7844   21838837.6954
        51.000          46.000
 108807683.89447  84785195.02047  20705423.2564   20705426.5214   20705423.9644
        55.000          50.000
 137196005.66547  89113743.99447  24204615.8324   24204621.3054   24204615.7254
        46.000          40.000
 115430672.27947  89945952.69547  21965745.9924   21965752.7584   21965745.5754
        51.000          47.000
 112878072.43747  87956920.70847  21479998.4274   21480003.2394   21479998.8004
        53.000          48.000
 130927193.41447 102021157.71947  24914640.1994   24914650.0384   24914640.4744
        42.000          39.000
 139004803.34847  90523189.65447  24548822.2094   24548831.2314   24548822.0644
        43.000          37.000
 15  5  1  1 20  0.0000000  0  8G12G25G22G31G24G14G15G04
 110377360.96547  86008303.97747  21004136.5814   21004141.3554   21004136.1404
        55.000          49.000
 104675139.50047  99357214.78547  21821980.6854   21821989.9124   21821980.4434
        51.000          46.000
 108810878.81047  84787684.55047  20706031.2214   20706034.4904   20706031.9444
        55.000          50.000
 137098607.13347  89037849.05147  24186080.8074   24186087.3934   24186081.3674
        46.000          41.000
 115509896.78947  90007686.03647  21980821.8694   21980828.9954   21980821.1564
        50.000          47.000
 112820922.20147  87912388.09047  21469122.7974   21469128.0564   21469122.8814
        53.000          48.000
 131020521.18947 102093880.52247  24932400.3434   24932409.2464   24932400.8494
        43.000          39.000
 139009037.37747  90526488.94747  24549627.7164   24549636.8594   24549627.7524
        40.000          37.000
 15  5  1  1 20 30.0000000  0  8G12G25G22G31G24G14G15G04
 110358914.74347  85993930.32347  21000626.3104   21000631.2064   21000625.8604
        55.000          49.000
 104586966.66247  99288508.72447  21805202.0794   21805211.0524   21805202.1084
        51.000          46.000
 108814649.33347  84790622.59947  20706748.6344   20706752.0554   20706749.3694
        55.000          50.000
 137001385.23847  88962091.75347  24167579.1134   24167585.7084   24167579.5994
        45.000          41.000
 115589331.35347  90069583.06147  21995937.7294   21995945.2374   21995937.0714
        51.000          47.000
 112763971.94347  87868011.30647  21458285.2284   21458290.8734   21458285.3834
        53.000          48.000
 131113937.74947 102166672.48747  24950176.3054   24950186.0994   24950176.0784
        43.000          39.000
 139013831.30147  90530224.47547  24550539.2814   24550548.5934   24550538.6764
        41.000          36.000
 15  5  1  1 21  0.0000000  0  8G12G25G22G31G24G14G15G04
 110341108.59447  85980055.42847  20997238.0444   20997242.8064   20997237.7304
        55.000          49.000
 104499184.69547  99220107.23647  21788497.7884   21788506.5474   21788497.9534
        52.000          46.000
 108818973.18347  84793991.81547  20707571.4964   20707574.8934   20707572.2594
        55.000          50.000
 136904318.52647  88886455.40447  24149108.3284   24149114.0754   24149108.5874
        46.000          41.000
 115668951.36047  90131624.58047  22011089.1734   22011096.5854   22011088.3304
        51.000          47.000
 112707200.14847  87823773.57947  21447482.3764   21447487.6404   21447482.6654
        53.000          48.000
 131207419.21747 102239515.05047  24967964.9284   24967975.5704   24967964.0554
        42.000          39.000
 139019161.98847  90534378.19847  24551555.2004   24551563.0244   24551554.7554
        44.000          37.000
 15  5  1  1 21 30.0000000  0  8G12G25G22G31G24G14G15G04
 110323962.70047  85966695.02347  20993975.4234   20993979.7694   20993975.2634
        55.000          49.000
 104411815.87647  99152027.68947  21771871.9074   21771880.8454   21771872.0774
        51.000          46.000
 108823869.96747  84797807.46947  20708503.3834   20708506.6884   20708504.0564
        55.000          50.000
 136807427.93147  88810956.28247  24130670.6724   24130677.0904   24130671.3484
        46.000          41.000
 115748775.08147  90193824.82847  22026278.9884   22026286.7704   22026278.4654
        50.000          47.000
 112650627.28447  87779690.85847  21436716.8924   21436721.9794   21436717.1484
        53.000          48.000
 131300984.41947 102312422.89047  24985770.1154   24985780.8034   24985769.6514
        45.000          39.000
 139025048.21547  90538964.88447  24552675.0124   24552682.4914   24552674.5564
        43.000          37.000
 15  5  1  1 22  0.0000000  0  8G12G25G22G31G24G14G15G04
 110307464.88347  85953839.60247  20990835.8044   20990840.2304   20990835.3844
        54.000          49.000
 104324850.32047  99084262.37147  21755322.8924   21755331.9694   21755322.7404
        51.000          46.000
 108829327.22047  84802059.85347  20709541.8214   20709545.1994   20709542.5834
        55.000          50.000
 136710702.02147  88735585.47447  24112263.5984   24112271.6174   24112264.0214
        44.000          40.000
 115828787.95247  90256172.46547  22041504.9704   22041512.8064   22041504.2454
        51.000          47.000
 112594242.08047  87735754.36547  21425986.9624   21425991.9604   21425987.1244
        53.000          48.000
 131394620.59847 102385386.01547  25003589.7264   25003599.1514   25003589.8454
        44.000          39.000
 139031476.73647  90543974.15747  24553897.8034   24553906.7274   24553897.5434
        44.000          37.000
 15  5  1  1 22 30.0000000  0  8G12G25G22G31G24G14G15G04
 110291615.02747  85941489.09347  20987819.6064   20987824.2324   20987819.3374
        55.000          49.000
 104238289.84747  99016812.69947  21738850.9144   21738859.9724   21738850.6784
        52.000          46.000
 108835344.05647  84806748.27247  20710686.8884   20710690.1764   20710687.8424
        55.000          50.000
 136614140.35447  88660342.66647  24093888.7524   24093895.8854   24093888.3614
        44.000          40.000
 115908986.57047  90318664.85147  22056766.3454   22056774.2904   22056765.5684
        50.000          47.000
 112538044.34747  87691963.95247  21415292.7784   21415297.9304   21415293.0374
        53.000          48.000
 131488326.17447 102458403.18447  25021420.9974   25021430.1654   25021420.4324
        44.000          39.000
 139038445.51347  90549404.36847  24555225.0744   24555232.6284   24555224.8134
        44.000          37.000
 15  5  1  1 23  0.0000000  0  8G12G25G22G31G24G14G15G04
 110276416.23947  85929645.92247  20984927.6584   20984932.1064   20984927.4824
        55.000          49.000
 104152139.93447  98949682.95247  21722457.2454   21722466.0384   21722457.5724
        51.000          46.000
 108841923.45847  84811875.06547  20711938.8284   20711942.2494   20711939.5954
        55.000          50.000
 136517746.73747  88585230.80747  24075545.1524   24075552.5714   24075544.7034
        44.000          39.000
 115989372.53147  90381303.23247  22072063.3084   22072070.8964   22072062.6214
        51.000          46.000
 112482037.86947  87648322.57647  21404635.0394   21404640.2334   21404635.3214
        53.000          48.000
 131582102.72847 102531475.65547  25039265.4644   25039275.1034   25039265.1884
        44.000          39.000
 139045956.29847  90555256.94047  24556654.0614   24556662.4474   24556653.6514
        43.000          37.000
 15  5  1  1 23 30.0000000  0  8G12G25G22G31G24G14G15G04
 110261874.78347  85918314.95247  20982160.3114   20982164.7314   20982160.1624
        54.000          49.000
 104066408.75547  98882879.49047  21706143.0884   21706151.7434   21706142.9504
        52.000          47.000
 108849070.66047  84817444.29347  20713298.9334   20713302.4504   20713299.5124
        55.000          50.000
 136421527.57247  88510254.87947  24057235.7304   24057242.7524   24057235.9314
        44.000          40.000
 116069949.24147  90444090.24747  22087396.7364   22087404.3514   22087396.3754
        50.000          46.000
 112426229.08347  87604835.23947  21394014.8554   21394020.2894   21394014.9044
        53.000          48.000
 131675955.37947 102604607.45647  25057125.5924   25057135.6264   25057124.2664
        44.000          39.000
 139054013.91447  90561535.60247  24558185.7534   24558195.4544   24558185.5264
        42.000          37.000
 15  5  1  1 24  0.0000000  0  8G12G25G22G31G24G14G15G04
 110247987.61247  85907493.81447  20979517.2924   20979521.9414   20979517.0184
        54.000          49.000
 103981095.66347  98816401.80347  21689908.4694   21689917.3154   21689908.5674
        51.000          47.000
 108856782.32547  84823453.36147  20714766.4484   20714769.8784   20714766.9744
        55.000          50.000
 136325480.42447  88435413.00947  24038958.7604   24038966.1634   24038958.9404
        45.000          40.000
 116150711.59647  90507021.90847  22102765.0674   22102773.0814   22102764.2734
        50.000          46.000
 112370615.68947  87561500.15247  21383432.0864   21383437.2994   21383432.2294
        54.000          48.000
 131769880.07247 102677795.37447  25074999.0244   25075008.5994   25074998.4234
        46.000          39.000
 139062613.92547  90568236.87447  24559822.4774   24559832.5694   24559822.5464
        43.000          37.000
 15  5  1  1 24 30.0000000  0  8G12G25G22G31G24G14G15G04
 110234756.57347  85897183.95647  20976999.6054   20977004.4644   20976999.4674
        54.000          49.000
 103896204.69047  98750253.05147  21673754.0544   21673763.1304   21673754.0174
        52.000          47.000
 108865060.08447  84829903.54747  20716341.6574   20716345.0264   20716342.4164
        55.000          50.000
 136229607.85347  88360707.15747  24020713.9064   24020722.5834   24020714.2054
        45.000          40.000
 116231659.66947  90570098.29047  22118169.0494   22118177.0394   22118168.2274
        50.000          46.000
 112315200.14147  87518319.23247  21372886.9774   21372892.0194   21372887.2404
        54.000          48.000
 131863877.52647 102751039.99847  25092886.8354   25092895.3214   25092886.9324
        45.000          39.000
 139071756.89947  90575361.21947  24561562.9314   24561572.3974   24561562.9414
        44.000          37.000
 15  5  1  1 25  0.0000000  0  8G12G25G22G31G24G14G15G04
 110222180.60947  85887384.54047  20974606.5064   20974611.2934   20974606.1814
        54.000          49.000
 103811737.25547  98684434.30747  21657680.5674   21657689.4064   21657680.4674
        52.000          47.000
 108873902.46247  84836793.69447  20718024.2224   20718027.7904   20718024.9394
        55.000          50.000
 136133909.44647  88286136.99447  24002503.7504   24002510.4184   24002503.9944
        45.000          39.000
 116312789.77947  90633316.51447  22133607.5284   22133615.5214   22133607.0134
        50.000          47.000
 112259981.78147  87475291.96447  21362379.1804   21362384.3784   21362379.3194
        53.000          48.000
 131957945.64747 102824339.65947  25110787.6874   25110795.9274   25110788.2764
        45.000          38.000
 139081440.33947  90582906.69847  24563405.7974   24563413.7644   24563404.6984
        44.000          37.000
 15  5  1  1 25 30.0000000  0  8G12G25G22G31G24G14G15G04
 110210259.97747  85878095.78047  20972338.0314   20972342.7434   20972337.7254
        54.000          49.000
 103727695.66947  98618947.40947  21641687.7284   21641696.5954   21641687.7984
        52.000          47.000
 108883309.00947  84844123.45247  20719814.2684   20719817.8574   20719814.9424
        55.000          50.000
 136038385.64547  88211702.89447  23984326.7194   23984332.6904   23984326.7244
        45.000          39.000
 116394099.66447  90696674.82047  22149080.7084   22149088.5204   22149080.3504
        51.000          47.000
 112204961.76147  87432419.24747  21351909.3354   21351914.1564   21351909.7304
        54.000          48.000
 132052083.31647 102897693.51347  25128701.3994   25128709.4954   25128701.1284
        45.000          38.000
 139091663.03147  90590872.44747  24565351.3154   24565359.0834   24565351.0834
        45.000          37.000
 15  5  1  1 26  0.0000000  0  8G12G25G22G31G24G14G15G04
 110198996.82647  85869319.34647  20970194.6754   20970199.3524   20970194.1794
        55.000          49.000
 103644084.70947  98553796.05547  21625777.3534   21625786.0074   21625777.5334
        52.000          47.000
 108893281.89447  84851894.51247  20721712.2134   20721715.7924   20721712.8014
        55.000          50.000
 135943039.42447  88137407.18647  23966183.4334   23966188.6474   23966183.8094
        45.000          39.000
 116475590.13947  90760173.86047  22164587.8834   22164595.6534   22164587.1404
        50.000          46.000
 112150142.97647  87389703.33247  21341477.9474   21341482.3634   21341478.0524
        54.000          48.000
 132146292.10647 102971102.75547  25146628.6714   25146637.9154   25146627.5624
        43.000          39.000
 139102426.14647  90599259.23247  24567399.5324   24567406.9254   24567399.7534
        43.000          37.000
 15  5  1  1 26 30.0000000  0  8G12G25G22G31G24G14G15G04
 110188393.02247  85861056.68347  20968176.6394   20968181.6934   20968176.2484
        54.000          49.000
 103560908.29747  98488983.31247  21609949.2064   21609958.1094   21609949.1444
        52.000          47.000
 108903822.09447  84860107.63547  20723717.7364   20723721.4174   20723718.4104
        55.000          50.000
 135847873.27047  88063251.76547  23948074.1674   23948078.9554   23948075.1634
        45.000          39.000
 116557260.48647  90823813.04447  22180128.8684   22180136.8814   22180128.0004
        49.000          46.000
 112095527.65747  87347145.95247  21331084.9164   21331089.5174   21331085.2624
        54.000          48.000
 132240572.50547 103044567.82447  25164569.5174   25164578.6864   25164568.9384
        43.000          38.000
 139113729.98147  90608067.42447  24569550.6604   24569558.2154   24569550.3314
        42.000          37.000
 15  5  1  1 27  0.0000000  0  8G12G25G22G31G24G14G15G04
 110178444.69247  85853304.77947  20966283.6444   20966288.4644   20966283.3144
        55.000          49.000
 103478165.01447  98424508.07247  21594203.7684   21594212.5604   21594203.7394
        52.000          47.000
 108914925.46947  84868759.59547  20725830.7264   20725834.4404   20725831.4404
        55.000          50.000
 135752883.79047  87989234.04747  23929997.3674   23930003.0394   23929997.9384
        45.000          39.000
 116639104.65247  90887587.68047  22195703.2064   22195711.2764   22195702.7464
        49.000          46.000
 112041112.88747  87304744.85247  21320730.1924   21320734.7874   21320730.4104
        54.000          48.000
 132334919.92547 103118085.09147  25182522.8014   25182533.4454   25182521.9264
        41.000          38.000
 139125569.33447  90617292.88047  24571803.0604   24571811.8234   24571802.6774
        43.000          37.000
 15  5  1  1 27 30.0000000  0  8G12G25G22G31G24G14G15G04
 110169153.30347  85846064.78147  20964515.5114   20964520.1374   20964515.0774
        54.000          49.000
 103395858.51247  98360373.17847  21578541.3384   21578550.0394   21578541.2334
        52.000          47.000
 108926592.89547  84877851.06647  20728050.9574   20728054.6074   20728051.7524
        55.000          50.000
 135658072.82547  87915355.43847  23911955.6084   23911961.9244   23911955.5184
        44.000          39.000
 116721122.20947  90951497.42547  22211310.6234   22211318.5574   22211309.7744
        49.000          46.000
 111986900.58847  87262501.51647  21310413.9464   21310418.4484   21310413.9774
        54.000          48.000
 132429334.54447 103191654.68747  25200488.5614   25200499.8814   25200486.8884
        39.000          37.000
 139137944.24747  90626935.67347  24574157.8834   24574167.4374   24574157.2174
        42.000          37.000
 15  5  1  1 28  0.0000000  0  8G12G25G22G31G24G14G15G04
 110160511.22247  85839330.73147  20962870.9254   20962875.5164   20962870.5974
        55.000          49.000
 103313983.67647  98296574.64147  21562961.1834   21562969.8184   21562961.2304
        52.000          47.000
 108938816.48347  84887375.91047  20730377.0164   20730380.7364   20730377.6414
        55.000          50.000
 135563433.79847  87841610.76847  23893946.1204   23893952.8714   23893946.3894
        43.000          39.000
 116803303.56347  91015534.80347  22226949.5404   22226957.2734   22226948.8344
        50.000          46.000
 111932884.28947  87220410.91047  21300134.8934   21300139.3674   21300135.0724
        54.000          48.000
 132523807.97347 103265270.13247  25218466.9954   25218478.3264   25218465.1454
        40.000          38.000
 139150845.67147  90636988.72047  24576612.7074   24576622.2544   24576612.8134
        43.000          37.000
 15  5  1  1 28 30.0000000  0  8G12G25G22G31G24G14G15G04
 110152536.40247  85833116.62347  20961353.5844   20961358.1074   20961353.3944
        55.000          49.000
 103232560.58147  98233128.11747  21547466.5874   21547475.4264   21547466.6344
        52.000          47.000
 108951613.71147  84897347.75547  20732812.3014   20732815.8644   20732812.9044
        55.000          50.000
 135468985.16347  87768014.48547  23875972.6134   23875980.3194   23875972.7254
        43.000          39.000
 116885664.64247  91079712.22347  22242622.1044   22242630.4404   22242621.7094
        49.000          46.000
 111879081.94147  87178487.02747  21289896.3894   21289901.2884   21289896.5064
        54.000          48.000
 132618357.11747 103338944.57547  25236459.9934   25236470.4004   25236459.2174
        41.000          38.000
 139164290.11047  90647464.94147  24579171.5804   24579180.0654   24579171.4584
        43.000          37.000
 15  5  1  1 29  0.0000000  0  8G12G25G22G31G24G14G15G04
 110145218.86947  85827414.68947  20959960.8884   20959965.5544   20959960.6414
        54.000          49.000
 103151582.20047  98170028.11947  21532056.7424   21532065.6564   21532056.6104
        52.000          47.000
 108964974.40747  84907758.66747  20735355.0594   20735358.3994   20735355.6644
        55.000          50.000
 135374717.48147  87694559.26547  23858033.7844   23858040.8224   23858033.6894
        43.000          39.000
 116968193.86147  91144020.66447  22258327.0484   22258334.8544   22258326.3994
        49.000          46.000
 111825485.72347  87136723.76147  21279697.6554   21279702.2574   21279697.9494
        54.000          49.000
 132712971.43947 103412669.82047  25254465.7054   25254475.0824   25254465.8614
        42.000          38.000
 139178266.74547  90658355.85047  24581831.9554   24581839.3254   24581830.6844
        42.000          37.000
 15  5  1  1 29 30.0000000  0  8G12G25G22G31G24G14G15G04
 110138557.01747  85822223.67647  20958692.9404   20958697.7624   20958692.3914
        54.000          49.000
 103071048.97747  98107274.99947  21516731.6494   21516740.5874   21516731.6554
        52.000          47.000
 108978896.47047  84918607.00747  20738004.3704   20738007.6744   20738005.1554
        55.000          50.000
 135280630.45347  87621244.77247  23840129.6664   23840136.6074   23840129.4474
        44.000          40.000
 117050887.17647  91208456.97147  22274063.2134   22274071.1014   22274062.5924
        50.000          45.000
 111772094.12547  87095119.93647  21269537.4584   21269541.9654   21269537.6224
        54.000          48.000
 132807648.21547 103486443.72447  25272481.6844   25272491.8464   25272481.0594
        39.000          37.000
 139192772.07247  90669658.72447  24584591.7424   24584599.1934   24584591.3364
        44.000          37.000
 15  5  1  1 30  0.0000000  0  8G12G25G22G31G24G14G15G04
 110132553.30747  85817545.50147  20957550.7164   20957555.2754   20957550.3454
        55.000          49.000
 102990965.79947  98044872.56147  21501492.4634   21501501.4034   21501492.3824
        52.000          47.000
 108993381.73847  84929894.20547  20740760.7004   20740764.0984   20740761.3404
        55.000          50.000
 135186726.96247  87548073.27747  23822260.6464   23822267.4744   23822260.1584
        46.000          41.000
 117133745.79647  91273022.08647  22289830.6744   22289838.2514   22289830.3114
        50.000          45.000
 111718910.67747  87053678.30847  21259416.8344   21259421.4474   21259416.9234
        54.000          48.000
 132902389.07647 103560267.56347  25290510.0414   25290520.5984   25290508.7354
        41.000          37.000
 139207807.15947  90681374.36847  24587453.5224   24587460.6454   24587452.2984
        44.000          38.000
 15  5  1  1 30 30.0000000  0  8G12G25G22G31G24G14G15G04
 110127209.41047  85813381.46147  20956533.7444   20956538.4504   20956533.3544
        55.000          49.000
 102911336.93147  97982824.13147  21486339.6814   21486348.4174   21486339.7554
        52.000          47.000
 109008431.91047  84941621.59147  20743624.6314   20743628.0044   20743625.3894
        55.000          50.000
 135093009.61947  87475046.85047  23804427.3214   23804433.5344   23804426.9044
        46.000          41.000
 117216769.34747  91337715.73047  22305629.5614   22305637.5704   22305628.8794
        50.000          46.000
 111665938.05847  87012400.97147  21249336.4824   21249341.2954   21249336.6714
        54.000          49.000
 132997194.81547 103634141.96247  25308551.5754   25308562.2744   25308551.6274
        41.000          38.000
 139223373.01147  90693503.62447  24590415.1954   24590423.3704   24590414.7464
        44.000          38.000
 15  5  1  1 31  0.0000000  0  8G12G25G22G31G24G14G15G04
 110122526.88347  85809732.76547  20955642.7084   20955647.1104   20955642.2604
        54.000          49.000
 102832166.33547  97921132.80047  21471273.9434   21471282.8524   21471273.9294
        52.000          47.000
 109024047.89847  84953789.87147  20746596.3444   20746599.7154   20746597.0674
        55.000          50.000
 134999480.58847  87402167.16147  23786629.3474   23786635.0164   23786629.1054
        45.000          41.000
 117299957.28347  91402537.46147  22321459.9124   22321467.7634   22321459.2504
        49.000          46.000
 111613178.74147  86971289.83547  21239296.6484   21239301.5554   21239296.8184
        54.000          48.000
 133092066.33847 103708067.60147  25326604.8634   25326615.9784   25326603.9344
        41.000          37.000
 139239469.53647  90706046.31747  24593476.8484   24593486.3174   24593476.7764
        43.000          37.000
 15  5  1  1 31 30.0000000  0  8G12G25G22G31G24G14G15G04
 110118500.50747  85806595.35347  20954876.5624   20954880.7904   20954876.1594
        55.000          49.000
 102753451.24647  97859796.39747  21456294.9024   21456303.6104   21456294.8944
        52.000          47.000
 109040224.37247  84966394.88847  20749674.6714   20749677.9964   20749675.2764
        55.000          50.000
 134906135.47447  87329430.78747  23768865.9874   23768871.5354   23768865.3624
        46.000          41.000
 117383303.01447  91467482.14647  22337320.1614   22337327.8884   22337319.4674
        50.000          46.000
 111560628.49647  86930341.61947  21229296.4704   21229301.3754   21229296.6294
        54.000          48.000
 133186997.74747 103782039.94547  25344669.5184   25344680.2854   25344668.5764
        41.000          37.000
 139256090.29547  90718997.55147  24596640.3014   24596649.1384   24596639.8034
        42.000          37.000
 15  5  1  1 32  0.0000000  0  8G12G25G22G31G24G14G15G04
 110115129.96647  85803968.98547  20954235.0794   20954239.4314   20954234.9074
        55.000          49.000
 102675193.85447  97798816.65447  21441403.0544   21441411.8024   21441403.2054
        53.000          47.000
 109056960.33347  84979435.87147  20752859.3964   20752862.7084   20752859.9484
        55.000          50.000
 134812974.62547  87256838.01147  23751137.5484   23751144.1254   23751137.0774
        47.000          42.000
 117466804.28647  91532548.03947  22353209.8774   22353217.7904   22353209.2054
        49.000          45.000
 111508288.45247  86889557.19047  21219336.5494   21219341.3014   21219336.8454
        54.000          49.000
 133281987.94947 103856058.05747  25362745.8344   25362755.8994   25362745.6884
        42.000          36.000
 139273233.33347  90732355.73747  24599902.7994   24599912.0044   24599901.9454
        44.000          38.000
 15  5  1  1 32 30.0000000  0  9G12G25G22G31G24G14G15G04G32
 110112424.34347  85801860.72847  20953720.1794   20953724.6884   20953719.8014
        55.000          49.000
 102597405.63347  97738202.49247  21426600.4374   21426609.1054   21426600.2744
        52.000          48.000
 109074264.19847  84992919.37047  20756152.3254   20756155.5784   20756153.1064
        56.000          50.000
 134720008.22547  87184396.72547  23733446.0254   23733453.3354   23733446.0584
        46.000          41.000
 117550468.73747  91597741.07947  22369130.5914   22369138.3684   22369129.8784
        49.000          45.000
 111456168.26147  86848944.07147  21209418.4354   21209423.3204   21209418.8134
        54.000          49.000
 133377044.96447 103930128.23147  25380835.5364   25380843.5634   25380834.9704
        41.000          37.000
 139290906.74947  90746127.21947  24603266.0714   24603274.9354   24603265.7864
        43.000          38.000
 139227622.99957  90696807.48357  24591230.5715   24591240.8045   24591232.4945
        41.000          36.000
 15  5  1  1 33  0.0000000  0  9G12G25G22G31G24G14G15G04G32
 110110361.65747  85800253.46247  20953327.8784   20953332.1014   20953327.5544
        55.000          50.000
 102520067.31047  97677938.90447  21411883.2714   21411891.8874   21411883.1874
        53.000          48.000
 109092114.33947  85006828.54347  20759549.0824   20759552.4274   20759549.8424
        55.000          50.000
 134627215.34047  87112090.66347  23715788.1854   23715795.5724   23715787.7004
        46.000          41.000
 117634272.71047  91663042.83147  22385078.0274   22385085.9624   22385077.3384
        50.000          46.000
 111404247.30847  86808486.20247  21199538.1094   21199542.9484   21199538.3814
        53.000          49.000
 133472146.58147 104004233.13247  25398932.6984   25398942.5544   25398932.4014
        42.000          36.000
 139309087.27947  90760293.84247  24606725.9984   24606734.0134   24606726.6444
        44.000          38.000
 119132013.23457 110622311.35157  24573031.9495   24573040.6555   24573034.0765
        41.000          36.000
 15  5  1  1 33 30.0000000  0  9G12G25G22G31G24G14G15G04G32
 110108970.85347  85799169.73847  20953063.1734   20953067.5564   20953063.1004
        55.000          49.000
 102443210.47247  97618050.49847  21397258.0054   21397266.5654   21397257.8204
        52.000          48.000
 109110539.09747  85021185.46747  20763055.2124   20763058.4874   20763056.0414
        55.000          50.000
 134534625.67947  87039942.95247  23698169.1924   23698176.0714   23698167.6614
        46.000          41.000
 117718243.49547  91728474.56847  22401057.4584   22401064.9694   22401057.3174
        50.000          45.000
 111352555.70747  86768207.05147  21189701.5074   21189706.3544   21189701.6234
        54.000          49.000
 133567321.15147 104078394.90847  25417043.6474   25417053.7324   25417044.3084
        41.000          36.000
 139327802.64147  90774877.23247  24610287.6724   24610295.4914   24610287.6664
        44.000          38.000
 139036583.67457  90547946.66457  24554875.9035   24554883.6205   24554876.7275
        42.000          36.000
 15  5  1  1 34  0.0000000  0  9G12G25G22G31G24G14G15G04G32
 110108240.34147  85798600.52247  20952923.9544   20952928.3884   20952923.7264
        55.000          50.000
 102366825.89847  97558530.09247  21382722.3044   21382731.0454   21382722.0284
        52.000          48.000
 109129526.44347  85035980.77147  20766668.3924   20766671.6984   20766669.0684
        55.000          50.000
 134442228.68947  86967945.37547  23680586.4984   23680593.1664   23680585.8044
        45.000          41.000
 117802368.17647  91794026.22947  22417065.4894   22417073.0034   22417064.9134
        49.000          45.000
 111301083.02947  86728098.48947  21179906.6214   21179911.4344   21179906.9644
        54.000          49.000
 133662556.16047 104152603.77247  25435166.2594   25435177.4554   25435166.4624
        42.000          36.000
 139347039.85847  90789867.27447  24613948.1194   24613955.5904   24613947.6944
        43.000          37.000
 118941436.99657 110473819.19557  24536760.8975   24536767.7775   24536761.1965
        43.000          36.000
 15  5  1  1 34 30.0000000  0  9G12G25G22G31G24G14G15G04G32
 110108168.24147  85798544.34947  20952910.2804   20952914.7334   20952909.7984
        55.000          49.000
 102290914.32447  97499378.25647  21368276.8414   21368285.6134   21368276.6094
        53.000          48.000
 109149074.12647  85051212.70247  20770388.2274   20770391.5704   20770388.9084
        55.000          50.000
 134350023.10647  86896096.93647  23663040.3734   23663046.9044   23663039.6454
        43.000          40.000
 117886642.68347  91859694.62747  22433102.6714   22433110.0614   22433101.7704
        50.000          45.000
 111249828.76947  86688160.12747  21170153.0874   21170158.0444   21170153.3974
        54.000          49.000
 133757849.24047 104226857.83947  25453299.8964   25453311.4734   25453299.7974
        40.000          37.000
 139366795.79047  90805261.50347  24617707.0004   24617714.9274   24617706.6414
        43.000          37.000
 138846385.87257  90399738.45657  24518683.8855   24518694.2375   24518685.6835
        43.000          36.000
 15  5  1  1 35  0.0000000  0  9G12G25G22G31G24G14G15G04G32
 110108753.51347  85799000.42147  20953021.5554   20953026.0784   20953021.0814
        55.000          49.000
 102215477.46447  97440596.32847  21353921.6874   21353930.3974   21353921.6794
        53.000          48.000
 109169181.20547  85066880.53147  20774214.6644   20774217.9054   20774215.4634
        55.000          50.000
 134258009.49847  86824398.07347  23645530.2014   23645537.6654   23645529.2414
        44.000          40.000
 117971065.47347  91925478.56847  22449167.7014   22449175.2794   22449167.0814
        49.000          45.000
 111198793.13547  86648392.12047  21160441.4654   21160446.3104   21160441.7554
        54.000          49.000
 133853198.82447 104301155.93347  25471444.6064   25471456.8444   25471443.6584
        41.000          36.000
 139387068.33847  90821058.31047  24621564.9074   24621573.6274   24621564.5384
        44.000          37.000
 118751602.90257 110325877.71757  24500650.4445   24500661.7985   24500652.6485
        42.000          37.000
 15  5  1  1 35 30.0000000  0  9G12G25G22G31G24G14G15G04G32
 110109998.54747  85799970.59147  20953258.5024   20953263.0364   20953258.1644
        54.000          50.000
 102140520.17047  97382188.08947  21339657.8204   21339666.4844   21339657.8984
        53.000          48.000
 109189849.56647  85082985.71647  20778147.6704   20778151.0614   20778148.3524
        55.000          50.000
 134166190.81047  86752851.11047  23628057.6844   23628065.0894   23628057.6034
        44.000          40.000
 118055636.70147  91991378.16447  22465261.0674   22465269.2814   22465260.5134
        49.000          45.000
 111147979.74547  86608797.28147  21150772.0734   21150776.7104   21150772.2464
        54.000          49.000
 133948606.73547 104375499.49547  25489600.9554   25489611.4884   25489599.9944
        41.000          36.000
 139407858.33147  90837258.31047  24625521.6784   24625530.0514   24625521.2104
        44.000          38.000
 138657110.87257  90252258.70557  24482661.2105   24482669.9235   24482660.6675
        42.000          36.000
 15  5  1  1 36  0.0000000  0  9G12G25G22G31G24G14G15G04G32
 110111904.32447  85801455.62047  20953621.1854   20953625.8294   20953620.9194
        55.000          49.000
 102066046.20047  97324156.46947  21325485.8544   21325494.5204   21325485.9714
        53.000          48.000
 109211079.78647  85099528.71747  20782187.6934   20782190.9204   20782188.3784
        55.000          50.000
 134074569.42747  86681457.88647  23610623.3614   23610630.1604   23610622.9424
        46.000          40.000
 118140356.54547  92057393.57847  22481382.9604   22481390.6684   22481382.3114
        49.000          45.000
 111097391.07147  86569377.55747  21141145.1124   21141150.0264   21141145.3834
        53.000          49.000
 134044073.58447 104449888.93347  25507768.3254   25507780.4334   25507767.5594
        41.000          36.000
 139429165.92047  90853861.62047  24629576.3764   24629584.4434   24629576.3534
        44.000          38.000
 118562783.50057 110178755.30857  24464711.6325   24464720.5125   24464712.4565
        42.000          36.000
 15  5  1  1 36 30.0000000  0  9G12G25G22G31G24G14G15G04G32
 110114460.66247  85803447.57547  20954107.7254   20954112.2424   20954107.3684
        55.000          49.000
 101992047.94347  97266495.53547  21311404.2214   21311412.9994   21311404.0464
        53.000          48.000
 109232861.52447  85116501.48047  20786332.6124   20786335.8554   20786333.3534
        55.000          50.000
 133983135.75747  86610210.90647  23593224.3864   23593229.9944   23593223.7784
        46.000          41.000
 118225213.15747  92123515.57747  22497530.5244   22497537.7394   22497529.7334
        49.000          45.000
 111047018.17647  86530125.96547  21131559.5494   21131564.4194   21131559.6174
        54.000          49.000
 134139588.87247 104524316.14047  25525944.6624   25525955.2044   25525945.1224
        40.000          36.000
 139450979.59947  90870859.25847  24633727.7174   24633735.4204   24633726.9644
        45.000          38.000
 138468685.10857  90105431.53357  24446806.7395   24446816.0555   24446806.2605
        41.000          36.000
 15  5  1  1 37  0.0000000  0  9G12G25G22G31G24G14G15G04G32
 110117691.32947  85805964.97547  20954722.4104   20954726.7774   20954722.1054
        55.000          49.000
 101918551.70747  97209225.78047  21297418.4794   21297427.0394   21297418.4834
        53.000          48.000
 109255218.12447  85133922.17347  20790586.8334   20790590.1794   20790587.5604
        55.000          50.000
 133891915.15647  86539129.97947  23575865.8794   23575871.1474   23575865.7004
        46.000          41.000
 118310228.93247  92189761.60247  22513708.3424   22513715.8164   22513707.7284
        49.000          45.000
 110996886.27347  86491062.15347  21122019.8764   21122024.5264   21122020.2194
        54.000          49.000
 134235175.70247 104598799.09547  25544132.6764   25544144.6294   25544133.9954
        39.000          34.000
 119473266.65957 110888216.63157  24637976.5795   24637987.2985   24637977.3675
        44.000          37.000
 118374828.03657 110032295.92757  24428945.7905   24428954.9565   24428947.9515
        43.000          36.000
 15  5  1  1 37 30.0000000  0  9G12G25G22G31G24G14G15G04G32
 110121568.17247  85808985.89747  20955460.1244   20955464.4694   20955459.8034
        55.000          49.000
 101845532.19947  97152327.51147  21283523.4924   21283532.0874   21283523.5274
        53.000          48.000
 109278121.32947  85151768.79847  20794945.1024   20794948.7104   20794946.0044
        55.000          50.000
 133800880.55147  86468193.97047  23558542.9244   23558548.4154   23558542.7334
        47.000          41.000
 118395374.31547  92256108.61247  22529911.0614   22529919.0274   22529910.7644
        49.000          45.000
 110946968.58047  86452165.26347  21112520.6814   21112525.5044   21112520.8864
        53.000          49.000
 134330805.81747 104673315.77747  25562331.6154   25562342.1204   25562332.4674
        39.000          34.000
 139496161.33957  90906068.29057  24642323.7625   24642331.3935   24642323.0445
        44.000          37.000
 138281211.10857  89959350.82357  24411129.2695   24411137.8125   24411129.8575
        41.000          36.000
 15  5  1  1 38  0.0000000  0  9G12G25G22G31G24G14G15G04G32
 110126102.24247  85812518.94047  20956322.9584   20956327.2764   20956322.6634
        55.000          49.000
 101773002.94247  97095811.25247  21269721.5194   21269730.0994   21269721.5744
        53.000          48.000
 109301581.68547  85170049.56647  20799409.4934   20799413.0674   20799410.2284
        55.000          50.000
 133710043.86547  86397412.19047  23541257.0554   23541263.1914   23541257.4064
        47.000          41.000
 118480659.51247  92322564.56047  22546140.7944   22546148.5654   22546140.3524
        49.000          45.000
 110897277.67147  86413445.08447  21103064.6694   21103069.8094   21103064.6724
        53.000          49.000
 144426477.35757  94747862.07157  25580539.4035   25580549.5845   25580540.7045
        37.000          34.000
 119519518.69657 110924268.35557  24646768.8355   24646776.5945   24646769.3975
        45.000          38.000
 118187799.72957 109886558.75257  24393355.9055   24393365.2065   24393356.0205
        41.000          36.000
 15  5  1  1 38 30.0000000  0  9G12G25G22G31G24G14G15G04G32
 110131298.26447  85816567.79147  20957311.8194   20957316.1244   20957311.6324
        55.000          49.000
 101700971.34547  97039682.78047  21256014.1574   21256022.9144   21256013.9874
        53.000          48.000
 109325603.72647  85188768.00947  20803980.7724   20803984.4964   20803981.4744
        55.000          50.000
 133619410.90947  86326789.17547  23524010.3854   23524016.1114   23524010.2134
        47.000          42.000
 118566087.41447  92389131.70947  22562397.0824   22562404.9154   22562396.4284
        48.000          45.000
 110847819.61547  86374906.35447  21093653.1874   21093658.1144   21093653.3294
        54.000          49.000
 124522280.80957 114822525.45257  25598762.6775   25598770.3525   25598759.6235
        38.000          34.000
 139543396.44357  90942878.71257  24651309.6255   24651316.3955   24651309.7595
        44.000          37.000
 138094648.46557  89813974.54957  24375629.4075   24375638.5655   24375628.9225
        42.000          36.000
 15  5  1  1 39  0.0000000  0  8G12G25G22G31G24G14G04G32
 110137147.29347  85821125.48047  20958424.7064   20958429.3014   20958424.4784
        55.000          50.000
 101629431.24847  96983937.30347  21242400.4534   21242409.2284   21242400.5514
        53.000          48.000
 109350178.41547  85207917.08947  20808657.1554   20808660.8664   20808657.9134
        55.000          50.000
 133528974.08247  86256318.99347  23506799.9604   23506806.4584   23506799.3144
        46.000          42.000
 118651647.90647  92455802.17247  22578678.3744   22578685.9924   22578677.7114
        48.000          45.000
 110798587.36647  86336543.57247  21084284.5374   21084289.3564   21084284.6214
        53.000          49.000
 119567707.91657 110961810.79457  24655945.1325   24655954.8615   24655945.3455
        42.000          37.000
 118001728.20857 109741571.47257  24357945.7975   24357954.4485   24357946.7865
        41.000          36.000
 15  5  1  1 39 30.0000000  0  8G12G25G22G31G24G14G04G32
 110143653.61747  85826195.33947  20959662.9624   20959667.3714   20959662.7604
        55.000          49.000
 101558389.74247  96928580.33447  21228881.6824   21228890.4304   21228881.8514
        53.000          48.000
 109375309.51547  85227499.73747  20813439.4084   20813443.0804   20813440.2364
        55.000          50.000
 133438739.12847  86186006.12847  23489628.2914   23489635.3954   23489628.3504
        46.000          42.000
 118737344.46947  92522578.66747  22594986.1274   22594993.8314   22594985.5744
        49.000          45.000
 110749586.24447  86298360.90147  21074959.6834   21074964.8724   21074959.7774
        54.000          49.000
 139592611.84557  90981223.71357  24660678.6285   24660686.5555   24660678.8635
        43.000          37.000
 137909078.12257  89669383.09657  24340310.0935   24340317.1605   24340311.4255
        43.000          37.000
 15  5  1  1 40  0.0000000  0  8G12G25G22G31G24G14G04G32
 110150814.12047  85831774.95347  20961025.4214   20961029.8574   20961025.1134
        55.000          49.000
 101487846.18147  96873611.37647  21215457.6104   21215466.4804   21215457.7354
        53.000          48.000
 109400993.43347  85247513.15447  20818326.8954   20818330.5034   20818327.4874
        55.000          50.000
 133348703.59847  86115848.66247  23472495.1204   23472501.3074   23472495.4424
        47.000          42.000
 118823173.04047  92589458.02647  22611318.8094   22611327.0664   22611318.0614
        48.000          45.000
 110700814.90647  86260357.27647  21065679.0404   21065684.1094   21065679.3354
        54.000          49.000
 119618008.07357 111001016.27557  24665507.6855   24665514.4805   24665508.6895
        44.000          38.000
 117816632.60357 109597342.94657  24322720.8865   24322728.7795   24322720.8605
        43.000          37.000
 15  5  1  1 40 30.0000000  0  8G12G25G22G31G24G14G04G32
 110158634.30147  85837868.59847  20962513.4704   20962517.9594   20962513.1884
        55.000          49.000
 101417809.01947  96819037.00747  21202130.0524   21202138.6644   21202130.0924
        53.000          48.000
 109427235.87947  85267961.78947  20823320.7264   20823324.3124   20823321.4464
        55.000          50.000
 133258874.51647  86045852.08847  23455401.3674   23455407.5754   23455401.3844
        47.000          42.000
 118909137.76747  92656443.47747  22627677.2874   22627685.4304   22627676.5044
        48.000          44.000
 110652280.43447  86222538.22047  21056443.3504   21056448.3594   21056443.5324
        54.000          49.000
 139643861.90457  91021156.79657  24670432.2935   24670440.5805   24670431.2465
        44.000          38.000
 137724403.27857  89525468.78657  24305176.7055   24305186.6965   24305177.5175
        42.000          37.000
 15  5  1  1 41  0.0000000  0  8G12G25G22G31G24G14G04G32
 110167104.40547  85844468.67947  20964125.3654   20964129.7664   20964125.0904
        55.000          49.000
 101348271.29847  96764851.80947  21188897.4554   21188905.9034   21188897.3874
        54.000          48.000
 109454026.74247  85288837.77047  20828418.9924   20828422.5904   20828419.8174
        55.000          50.000
 133169243.54447  85976009.85947  23438345.3904   23438351.0824   23438344.9014
        47.000          42.000
 118995227.80247  92723526.56947  22644059.8804   22644067.5064   22644059.5204
        49.000          44.000
 110603975.33347  86184897.90447  21047251.1024   21047255.9674   21047251.3014
        54.000          49.000
 139670234.46647  91041706.83447  24675449.7924   24675458.7634   24675449.6594
        42.000          37.000
 137632459.27747  89453824.20647  24287681.0664   24287689.3874   24287681.4444
        42.000          36.000
 15  5  1  1 41 30.0000000  0  8G12G25G22G31G24G14G04G32
 110176235.87747  85851584.10847  20965863.0334   20965867.5844   20965862.7984
        55.000          49.000
 101279247.22647  96711066.85647  21175762.6274   21175770.9744   21175762.7484
        53.000          48.000
 109481377.35647  85310149.91347  20833623.6634   20833627.1704   20833624.4264
        55.000          50.000
 133079823.53947  85906332.01747  23421329.1414   23421334.8684   23421328.4414
        47.000          42.000
 119081453.70147  92790715.52147  22660468.1494   22660475.8424   22660467.6404
        48.000          44.000
 110555912.45247  86147446.31847  21038105.1564   21038109.9424   21038105.4794
        54.000          49.000
 139697112.14647  91062650.49847  24680563.8684   24680572.8784   24680563.5064
        43.000          38.000
 137540772.98647  89382380.44747  24270234.2334   24270242.6254   24270234.3864
        44.000          37.000
 15  5  1  1 42  0.0000000  0  8G12G25G22G31G24G14G04G32
 110186013.39647  85859202.94947  20967723.6974   20967728.1434   20967723.5064
        55.000          49.000
 101210724.08147  96657672.24347  21162723.0334   21162731.5344   21162723.2704
        53.000          48.000
 109509272.04147  85331886.01147  20838931.7444   20838935.3844   20838932.3514
        55.000          49.000
 132990600.32947  85836807.52747  23404350.4944   23404356.3524   23404350.0144
        46.000          42.000
 119167798.91747  92857997.47147  22676898.9644   22676907.4804   22676898.3304
        48.000          45.000
 110508078.04347  86110172.77847  21029002.4904   21029007.3374   21029002.7254
        54.000          49.000
 139724478.40647  91083974.83647  24685772.6774   24685781.0324   24685771.7674
        43.000          38.000
 137449331.99747  89311127.83247  24252833.7924   24252841.9544   24252834.8034
        43.000          37.000
 15  5  1  1 42 30.0000000  0  8G12G25G22G31G24G14G04G32
 110196450.31347  85867335.61047  20969709.8014   20969714.0974   20969709.5514
        55.000          49.000
 101142718.09347  96604680.60947  21149782.0024   21149790.4534   21149781.9094
        54.000          49.000
 109537723.88747  85354056.26547  20844346.0344   20844349.5284   20844346.8614
        55.000          49.000
 132901588.31447  85767447.61947  23387411.8254   23387418.1324   23387412.0224
        46.000          41.000
 119254276.02847  92925382.16647  22693354.9754   22693363.8334   22693354.3804
        48.000          44.000
 110460487.31547  86073089.11747  21019946.1654   21019951.0584   21019946.5094
        54.000          49.000
 139752345.33847  91105689.29347  24691075.1094   24691083.4184   24691075.6584
        43.000          38.000
 137358152.50947  89240078.98747  24235483.2884   24235490.6254   24235483.7164
        42.000          37.000
 15  5  1  1 43  0.0000000  0  8G12G25G22G31G24G14G04G32
 110207544.34947  85875980.30747  20971821.0094   20971825.2044   20971820.8704
        55.000          49.000
 101075229.51047  96552092.13947  21136939.2614   21136947.9234   21136939.1384
        53.000          49.000
 109566730.18047  85376658.55047  20849865.8694   20849869.2914   20849866.7624
        55.000          49.000
 132812786.61547  85698251.59647  23370513.2414   23370519.3494   23370513.1464
        47.000          42.000
 119340881.46247  92992866.85247  22709835.6474   22709844.0374   22709835.1034
        49.000          44.000
 110413139.37947  86036194.63747  21010936.1894   21010941.0514   21010936.4964
        54.000          49.000
 139780709.45447  91127791.16447  24696473.1004   24696480.4254   24696472.3414
        44.000          37.000
 137267235.01247  89169234.31047  24218182.2234   24218189.5364   24218182.6454
        44.000          37.000
 15  5  1  1 43 30.0000000  0  8G12G25G22G31G24G14G04G32
 110219285.24947  85885129.06147  20974055.1214   20974059.4544   20974054.9054
        55.000          49.000
 101008251.23347  96499901.31047  21124193.4684   21124202.1354   21124193.2334
        54.000          49.000
 109596280.83147  85399685.00947  20855489.0704   20855492.5284   20855489.9104
        55.000          49.000
 132724186.73547  85629212.82047  23353653.6584   23353659.3074   23353652.8494
        47.000          41.000
 119427604.99747  93060443.60047  22726339.0004   22726346.4334   22726338.5454
        48.000          44.000
 110366026.07847  85999482.99847  21001970.8204   21001975.3444   21001971.0724
        54.000          49.000
 139809559.82847  91150271.98447  24701963.2214   24701971.0184   24701963.0874
        43.000          37.000
 137176572.66347  89098588.43247  24200929.2324   24200937.4514   24200930.1534
        43.000          38.000
 15  5  1  1 44  0.0000000  0  8G12G25G22G31G24G14G04G32
 110231677.27747  85894785.19047  20976413.3114   20976417.5614   20976413.1414
        55.000          49.000
 100941790.42547  96448113.70147  21111546.5364   21111554.9884   21111546.4944
        54.000          49.000
 109626379.91747  85423138.82147  20861216.6234   20861220.1594   20861217.4844
        55.000          49.000
 132635794.25647  85560335.62847  23336833.5814   23336838.7684   23336832.5824
        46.000          41.000
 119514449.21747  93128114.38447  22742864.5744   22742871.9974   22742864.0584
        47.000          44.000
 110319153.85247  85962959.20247  20993051.3954   20993055.9424   20993051.6454
        54.000          49.000
 139838899.63047  91173134.17647  24707546.0604   24707554.6554   24707545.9214
        42.000          36.000
 137086172.93547  89028147.20147  24183726.2794   24183735.2094   24183726.9974
        43.000          38.000
 15  5  1  1 44 30.0000000  0  8G12G25G22G31G24G14G04G32
 110244724.64747  85904951.96847  20978896.1574   20978900.4264   20978895.9384
        54.000          49.000
 100875853.80447  96396734.55347  21098999.2524   21099007.6314   21098999.3944
        54.000          49.000
 109657031.50847  85447023.14747  20867049.4954   20867053.0964   20867050.2124
        55.000          49.000
 132547614.53347  85491624.24047  23320052.4614   23320058.4684   23320052.3854
        47.000          41.000
 119601417.89947  93195882.14647  22759414.0084   22759422.1324   22759413.2224
        48.000          44.000
 110272528.63747  85926627.89047  20984178.8504   20984183.6754   20984179.2144
        54.000          49.000
 139868731.55447  91196379.88947  24713222.3444   24713231.4474   24713222.4634
        41.000          37.000
 136996042.66547  88957915.92647  24166574.8174   24166583.9414   24166575.1594
        42.000          38.000
 15  5  1  1 45  0.0000000  0  8G12G25G22G31G24G14G04G32
 110258418.08047  85915622.17547  20981501.7754   20981506.2084   20981501.6114
        54.000          49.000
 100810435.14747  96345759.01147  21086550.2574   21086559.0564   21086549.9824
        54.000          49.000
 109688225.59747  85471330.20247  20872985.5864   20872989.1604   20872986.2414
        55.000          49.000
 132459640.15147  85423072.84847  23303311.4344   23303317.0434   23303311.5514
        47.000          42.000
 119688501.30447  93263739.30347  22775985.9864   22775993.9664   22775985.4154
        48.000          44.000
 110226143.06247  85890483.30347  20975351.9324   20975356.8674   20975352.0784
        54.000          49.000
 139899045.42647  91220001.07447  24718990.5304   24719000.6794   24718990.0924
        42.000          37.000
 136906176.02747  88887890.07947  24149473.5014   24149482.5384   24149473.7714
        43.000          38.000
 15  5  1  1 45 30.0000000  0  8G12G25G22G31G24G14G04G32
 110272766.57947  85926802.82247  20984232.0424   20984236.6444   20984231.4614
        54.000          49.000
 100745546.51047  96295196.47547  21074202.3944   21074211.0914   21074202.5234
        54.000          49.000
 109719971.86647  85496067.53847  20879026.7964   20879030.1644   20879027.4864
        55.000          49.000
 132371881.58547  85354689.61047  23286611.9644   23286617.5834   23286611.9314
        48.000          42.000
 119775707.48947  93331692.10447  22792580.5864   22792588.4964   22792580.1234
        48.000          44.000
 110180008.31447  85854534.16447  20966572.9084   20966577.4704   20966573.1534
        54.000          49.000
 139929849.57647  91244004.26547  24724852.4074   24724862.2164   24724851.6884
        43.000          37.000
 136816585.41747  88818079.29847  24132425.1964   24132433.9974   24132425.7474
        43.000          38.000
 15  5  1  1 46  0.0000000  0  8G12G25G22G31G24G14G04G32
 110287758.16647  85938484.57647  20987084.8864   20987089.5034   20987084.4004
        55.000          49.000
 100681178.35447  96245039.50447  21061953.5504   21061962.0734   21061953.6004
        54.000          49.000
 109752257.41647  85521225.09447  20885170.5294   20885173.7894   20885171.3364
        55.000          49.000
 132284327.98447  85286466.08847  23269950.8074   23269956.2364   23269950.9374
        48.000          42.000
 119863023.67647  93399730.63747  22809196.4644   22809203.7594   22809195.5344
        47.000          44.000
 110134113.86947  85818772.27747  20957839.4264   20957843.8904   20957839.7014
        54.000          49.000
 139961130.43947  91268378.96447  24730805.7894   24730814.6064   24730805.7354
        43.000          37.000
 136727261.42747  88748476.28547  24115427.3924   24115436.5844   24115427.6054
        43.000          38.000
 15  5  1  1 46 30.0000000  0  8G12G25G22G31G24G14G04G32
 110303397.39447  85950670.98647  20990061.1154   20990065.5184   20990060.6844
        55.000          49.000
 100617338.31847  96195294.05047  21049805.2024   21049813.6604   21049805.1964
        54.000          49.000
 109785086.97447  85546806.54947  20891417.7604   20891421.2624   20891418.4084
        55.000          49.000
 132196985.59847  85218407.14847  23253330.1064   23253335.4444   23253330.3534
        48.000          42.000
 119950453.68347  93467857.84247  22825833.6434   22825841.8704   22825833.4754
        48.000          44.000
 110088466.69747  85783203.07447  20949153.0124   20949157.6844   20949153.1484
        54.000          49.000
 139992891.71747  91293128.00547  24736850.3394   24736857.6054   24736850.3044
        44.000          37.000
 136638212.14247  88679087.33747  24098481.4364   24098490.2074   24098482.1114
        44.000          38.000
 15  5  1  1 47  0.0000000  0  8G12G25G22G31G24G14G04G32
 110319686.53247  85963363.81847  20993160.6234   20993165.0154   20993160.3924
        54.000          49.000
 100554031.16147  96145963.82947  21037758.3534   21037766.8404   21037758.4984
        54.000          49.000
 109818462.19547  85572813.18847  20897768.7574   20897772.5804   20897769.6164
        55.000          49.000
 132109857.99047  85150515.54547  23236750.1184   23236755.4944   23236749.8734
        48.000          42.000
 120037998.90547  93536074.83347  22842493.3634   22842501.4004   22842493.1434
        48.000          44.000
 110043070.61447  85747829.52147  20940514.4584   20940519.1744   20940514.8154
        54.000          49.000
 140025134.41647  91318252.18747  24742985.6914   24742993.2584   24742985.3354
        43.000          37.000
 136549442.72547  88609916.45747  24081589.4294   24081597.7334   24081589.6854
        43.000          38.000
 15  5  1  1 47 30.0000000  0  8G12G25G22G31G24G14G04G32
 110336623.05547  85976561.10247  20996383.2604   20996388.0984   20996382.8084
        54.000          49.000
 100491257.76647  96097049.52247  21025812.8924   21025821.2134   21025813.0434
        54.000          49.000
 109852381.02547  85599243.41647  20904223.3034   20904227.2654   20904223.9244
        54.000          49.000
 132022944.95247  85082791.16547  23220210.5734   23220217.1324   23220209.8024
        47.000          42.000
 120125656.63147  93604379.50747  22859174.1824   22859181.8214   22859173.7204
        48.000          44.000
 109997925.72447  85712651.70147  20931923.6994   20931928.4614   20931923.9494
        54.000          49.000
 140057855.39947  91343749.04847  24749211.7744   24749220.6564   24749211.3984
        42.000          37.000
 136460954.33447  88540964.55847  24064750.6194   24064758.5174   24064750.7554
        43.000          38.000
 15  5  1  1 48  0.0000000  0  8G12G25G22G31G24G14G04G32
 110354208.28247  85990263.87647  20999729.8074   20999734.6004   20999729.5374
        54.000          49.000
 100429022.12647  96048554.25147  21013969.6804   21013978.2174   21013969.7624
        54.000          49.000
 109886844.24947  85626097.85847  20910781.5464   20910785.3744   20910782.1004
        55.000          49.000
 131936248.86847  85015235.82347  23203712.8764   23203719.1904   23203712.2574
        47.000          42.000
 120213427.55247  93672772.39147  22875876.6224   22875883.7624   22875876.2464
        47.000          43.000
 109953035.29347  85677672.16547  20923381.3614   20923385.9334   20923381.6054
        54.000          49.000
 140091054.80047  91369618.69247  24755529.1404   24755539.0304   24755529.0844
        42.000          37.000
 136372751.39447  88472235.08047  24047966.3024   24047973.7714   24047966.0574
        43.000          38.000
 15  5  1  1 48 30.0000000  0  8G12G25G22G31G24G14G04G32
 110372434.99847  86004466.51047  21003198.3184   21003203.1494   21003197.9644
        55.000          49.000
 100367320.03147  96000474.72847  21002228.3134   21002236.7234   21002228.3304
        55.000          49.000
 109921844.74147  85653370.94547  20917441.9804   20917445.6484   20917442.4964
        55.000          49.000
 131849764.09447  84947845.11947  23187255.6404   23187261.4044   23187254.9944
        47.000          42.000
 120301304.30247  93741247.71547  22892598.3814   22892606.3954   22892597.9574
        47.000          43.000
 109908394.40247  85642887.07047  20914886.3954   20914891.0684   20914886.8484
        54.000          49.000
 140124724.31447  91395854.62447  24761936.1624   24761945.8524   24761935.8294
        41.000          37.000
 136284830.10747  88403725.09647  24031235.2204   24031243.4664   24031235.1844
        44.000          38.000
 15  5  1  1 49  0.0000000  0  8G12G25G22G31G24G14G04G32
 110391305.13347  86019170.50947  21006789.3044   21006793.8494   21006788.9324
        55.000          49.000
 100306156.15947  95952814.59747  20990589.2774   20990597.7544   20990589.4094
        54.000          49.000
 109957384.21547  85681064.01547  20924204.9024   20924208.6224   20924205.4314
        55.000          49.000
 131763494.19747  84880621.86747  23170838.5484   23170844.3514   23170837.2134
        47.000          42.000
 120389287.34547  93809805.87247  22909341.1994   22909349.2154   22909340.5534
        47.000          43.000
 109864006.83647  85608299.37347  20906439.6704   20906444.5294   20906439.9364
        54.000          49.000
 140158864.75647  91422457.56047  24768433.4254   24768442.2164   24768433.6944
        42.000          37.000
 136197195.45247  88335438.44447  24014558.4614   24014566.2844   24014558.9604
        43.000          38.000
 15  5  1  1 49 30.0000000  0  8G12G25G22G31G24G14G04G32
 110410815.25247  86034373.20347  21010502.1034   21010506.3944   21010501.9234
        55.000          49.000
 100245530.20747  95905573.62547  20979052.3384   20979060.6914   20979052.4184
        54.000          49.000
 109993459.19647  85709174.36547  20931069.7914   20931073.4444   20931070.3864
        55.000          49.000
 131677437.40647  84813564.69947  23154462.5564   23154468.7774   23154462.7494
        47.000          43.000
 120477373.94847  93878444.73047  22926103.6804   22926111.2594   22926103.0934
        47.000          43.000
 109819871.69147  85573908.37347  20898041.0424   20898045.7614   20898041.1204
        54.000          49.000
 140193471.92347  91449424.18747  24775019.6594   24775028.2464   24775019.7544
        43.000          37.000
 136109847.67747  88267375.34847  23997936.2534   23997944.9674   23997936.3844
        44.000          38.000
 15  5  1  1 50  0.0000000  0  8G12G25G22G31G24G14G04G32
 110430968.70347  86050077.18647  21014337.1114   21014341.4874   21014336.6664
        55.000          49.000
 100185448.06047  95858756.39947  20967618.9894   20967627.4004   20967618.9164
        54.000          49.000
 110030072.46547  85737704.15347  20938037.1334   20938040.7504   20938037.9924
        55.000          49.000
 131591598.65247  84746677.41447  23138128.1444   23138134.1854   23138127.9934
        47.000          43.000
 120565566.30047  93947165.98547  22942885.7774   22942893.8664   22942885.1814
        47.000          43.000
 109775994.26547  85539718.18347  20889691.3504   20889695.8734   20889691.4314
        54.000          49.000
 140228547.97547  91476756.12647  24781694.3084   24781701.8534   24781694.4294
        43.000          36.000
 136022793.21247  88199540.76647  23981370.2934   23981379.1284   23981370.7394
        43.000          38.000
 15  5  1  1 50 30.0000000  0  8G12G25G22G31G24G14G04G32
 110451778.04647  86066292.25147  21018297.0174   21018301.4914   21018296.6274
        55.000          49.000
 100125925.29647  95812375.04747  20956292.2454   20956300.7284   20956291.9764
        54.000          49.000
 110067236.63447  85766663.20747  20945109.1874   20945112.8654   20945109.7584
        54.000          49.000
 131505992.47347  84679971.35747  23121837.6654   23121844.0734   23121837.1794
        47.000          43.000
 120653876.69547  94015979.22247  22959690.8204   22959699.1584   22959690.4194
        47.000          43.000
 109732389.33647  85505740.31947  20881393.5014   20881397.9314   20881393.7224
        54.000          49.000
 140264104.44347  91504462.47647  24788460.2174   24788469.0744   24788459.8774
        42.000          37.000
 135936048.00847  88131947.19947  23964861.9474   23964872.3664   23964862.6584
        43.000          38.000
 15  5  1  1 51  0.0000000  0  8G12G25G22G31G24G14G04G32
 110473214.22647  86082995.77947  21022376.1564   21022380.6244   21022375.9474
        55.000          49.000
 100066936.02447  95766409.41547  20945067.0214   20945075.5304   20945067.1374
        54.000          49.000
 110104922.78247  85796029.00347  20952280.5884   20952284.3944   20952281.2384
        54.000          49.000
 131420591.34447  84613425.08447  23105586.2294   23105592.9324   23105585.6584
        47.000          43.000
 120742275.85747  94084861.65547  22976513.2974   22976520.9934   22976512.8444
        47.000          43.000
 109689030.17847  85471953.98047  20873142.5834   20873147.1984   20873142.8874
        54.000          49.000
 140300111.53747  91532519.95447  24795311.4454   24795319.9964   24795311.7544
        43.000          36.000
 135849586.66247  88064574.80747  23948409.5344   23948419.3774   23948410.5384
        44.000          39.000
 15  5  1  1 51 30.0000000  0  8G12G25G22G31G24G14G04G32
 110495289.09947  86100196.97747  21026576.8174   21026581.4694   21026576.6234
        55.000          49.000
 100008494.90347  95720870.91147  20933946.0224   20933954.5074   20933946.0834
        54.000          49.000
 110143142.29647  85825810.40947  20959553.5724   20959557.2634   20959554.2234
        55.000          49.000
 131335408.68047  84547049.05547  23089376.3354   23089383.1714   23089375.7404
        47.000          43.000
 120830775.07247  94153822.03547  22993353.6924   22993361.6734   22993353.4644
        47.000          43.000
 109645931.03647  85438370.25147  20864941.1494   20864945.9004   20864941.3814
        54.000          49.000
 140336580.10647  91560937.00947  24802251.1304   24802260.4264   24802250.4464
        41.000          36.000
 135763424.39647  87997435.46147  23932014.0804   23932023.2674   23932014.5344
        44.000          39.000
 15  5  1  1 52  0.0000000  0  8G12G25G22G31G24G14G04G32
 110518005.62647  86117898.16147  21030899.7094   21030904.2534   21030899.5284
        55.000          49.000
  99950607.82447  95675764.12347  20922930.5134   20922938.8284   20922930.4764
        54.000          49.000
 110181898.23947  85856009.81447  20966928.7364   20966932.2814   20966929.4324
        55.000          49.000
 131250449.42847  84480847.09547  23073209.5704   23073216.0984   23073209.2724
        48.000          43.000
 120919377.37047  94222862.72647  23010213.5134   23010222.2614   23010212.9964
        47.000          43.000
 109603097.35947  85404993.37147  20856790.2644   20856794.8544   20856790.4664
        54.000          49.000
 140373512.09847  91589715.13847  24809279.2204   24809288.6814   24809278.6714
        42.000          36.000
 135677567.68547  87930534.19547  23915676.0234   23915685.0344   23915676.0364
        44.000          39.000
 15  5  1  1 52 30.0000000  0  8G12G25G22G31G24G14G04G32
 110541356.56047  86136093.69347  21035343.3474   21035347.7824   21035343.1724
        55.000          49.000
  99893270.71647  95631085.88547  20912019.4974   20912027.8564   20912019.5454
        54.000          49.000
 110221183.51847  85886621.68947  20974404.3884   20974408.0814   20974405.1594
        55.000          49.000
 131165708.29447  84414815.10647  23057084.1264   23057090.0104   23057083.8654
        48.000          43.000
 121008075.36847  94291977.99347  23027093.1044   23027100.8914   23027092.8784
        47.000          43.000
 109560523.99047  85371819.33247  20848688.8964   20848693.3454   20848689.0844
        54.000          49.000
 140410899.37447  91618848.12647  24816395.0974   24816402.9074   24816394.4144
        42.000          36.000
 135592012.84647  87863868.16547  23899396.0684   23899404.0004   23899396.5044
        45.000          39.000
 15  5  1  1 53  0.0000000  0  8G12G25G22G31G24G14G04G32
 110565346.50147  86154787.15047  21039908.5114   21039912.8464   21039908.3334
        55.000          49.000
  99836490.98647  95586841.96847  20901214.7194   20901222.9954   20901214.6814
        55.000          49.000
 110261002.36747  85917649.33547  20981981.7684   20981985.4554   20981982.5384
        54.000          49.000
 131081191.52447  84348957.92247  23041000.7614   23041006.9024   23041000.2374
        49.000          43.000
 121096873.04947  94361170.95647  23043990.6344   23043998.3414   23043990.1704
        46.000          43.000
 109518218.36647  85338853.92247  20840638.2404   20840642.8714   20840638.4204
        54.000          49.000
 140448745.69447  91648338.79147  24823596.5774   24823604.9814   24823596.4954
        44.000          37.000
 135506768.05047  87797443.73847  23883174.7424   23883182.3064   23883174.9044
        45.000          39.000
 15  5  1  1 53 30.0000000  0  8G12G25G22G31G24G14G04G32
 110589966.85447  86173971.84447  21044593.5894   21044598.0384   21044593.3104
        55.000          49.000
  99780263.06247  95543028.03147  20890514.9684   20890523.1484   20890515.1384
        54.000          49.000
 110301346.23747  85949086.08847  20989658.9724   20989662.7514   20989659.7634
        54.000          49.000
 130996892.29947  84283270.27347  23024958.8554   23024964.9254   23024958.3384
        48.000          43.000
 121185761.97147  94430435.00447  23060905.4674   23060913.4534   23060904.6284
        46.000          43.000
 109476174.15247  85306092.21447  20832637.4194   20832642.1314   20832637.5174
        54.000          49.000
 140487041.45447  91678179.62347  24830883.5104   24830892.2124   24830883.7594
        43.000          37.000
 135421828.24047  87731256.98047  23867010.8954   23867019.1514   23867011.7284
        45.000          39.000
 15  5  1  1 54  0.0000000  0  8G12G25G22G31G24G14G04G32
 110615218.37247  86193648.35247  21049398.7694   21049403.2734   21049398.4204
        55.000          49.000
  99724590.37847  95499646.75047  20879920.6384   20879929.0444   20879920.7344
        54.000          49.000
 110342215.47747  85980932.21347  20997436.0744   20997439.8924   20997436.8664
        55.000          49.000
 130912812.95947  84217753.96847  23008959.1194   23008965.2634   23008958.8684
        48.000          43.000
 121274742.63547  94499770.54447  23077838.2344   23077845.9934   23077837.7534
        46.000          43.000
 109434394.30747  85273536.49947  20824687.0854   20824691.7584   20824687.5824
        54.000          50.000
 140525786.25447  91708370.36747  24838256.1454   24838265.7954   24838255.4064
        41.000          37.000
 135337197.46447  87665311.04247  23850906.3614   23850914.4054   23850907.3434
        46.000          40.000
 15  5  1  1 54 30.0000000  0  8G12G25G22G31G24G14G04G32
 110641109.38347  86213823.16247  21054325.5384   21054329.9954   21054325.1364
        55.000          49.000
  99669484.38447  95456707.04047  20869434.2284   20869442.5484   20869434.3314
        54.000          49.000
 110383618.59047  86013194.34547  21005314.8664   21005318.6764   21005315.7594
        54.000          49.000
 130828963.91147  84152417.09547  22993003.0134   22993009.1244   22993002.6914
        47.000          43.000
 121363822.78247  94569183.60047  23094789.6264   23094797.5324   23094788.7144
        46.000          43.000
 109392889.92347  85241195.43047  20816788.9954   20816793.5974   20816789.2444
        54.000          49.000
 140564987.67247  91738916.91447  24845715.3584   24845725.3334   24845714.9784
        42.000          37.000
 135252887.78947  87599615.28947  23834862.5384   23834870.1724   23834863.4364
        45.000          39.000
 15  5  1  1 55  0.0000000  0  8G12G25G22G31G24G14G04G32
 110667626.25247  86234485.66247  21059371.6004   21059375.8324   21059371.1384
        55.000          49.000
  99614934.67047  95414200.80347  20859053.6954   20859062.1854   20859053.6774
        54.000          49.000
 110425541.98447  86045861.88447  21013292.6324   21013296.4134   21013293.5194
        54.000          49.000
 130745333.46847  84087250.57247  22977088.5174   22977094.5964   22977087.6844
        48.000          43.000
 121452989.65547  94638664.21947  23111757.3364   23111765.3514   23111756.8774
        46.000          42.000
 109351649.83147  85209060.29847  20808941.2884   20808945.8454   20808941.5034
        54.000          50.000
 140604631.44047  91769808.12947  24853259.8674   24853268.2924   24853259.5344
        42.000          37.000
 135168889.55047  87534162.21847  23818877.5714   23818885.8074   23818877.6924
        45.000          39.000
 15  5  1  1 55 30.0000000  0  8G12G25G22G31G24G14G04G32
 110694783.89347  86255647.45147  21064539.5864   21064544.2664   21064539.0794
        55.000          49.000
  99560958.94247  95372141.81747  20848782.5444   20848790.9204   20848782.6004
        55.000          49.000
 110468000.23647  86078946.20547  21021372.1084   21021375.9124   21021372.7304
        54.000          49.000
 130661938.29447  84022267.37447  22961219.1164   22961224.6754   22961218.6674
        48.000          42.000
 121542257.29447  94708223.34947  23128744.1174   23128752.3864   23128743.4834
        46.000          42.000
 109310691.26247  85177144.54147  20801147.1754   20801151.7224   20801147.4574
        54.000          50.000
 140644731.29647  91801054.76547  24860891.7064   24860898.9454   24860889.9734
        43.000          37.000
 135085220.92747  87468965.99547  23802955.8714   23802963.8114   23802955.9594
        45.000          39.000
 15  5  1  1 56  0.0000000  0  8G12G25G22G31G24G14G04G32
 110722553.41247  86277286.03847  21069823.8384   21069828.5524   21069823.6164
        55.000          49.000
  99507531.28547  95330509.90547  20838615.5734   20838623.9914   20838615.5574
        54.000          49.000
 110510964.51247  86112424.83647  21029547.8994   21029551.7014   21029548.5634
        54.000          49.000
 130578751.64547  83957446.68047  22945389.2744   22945395.0704   22945388.8994
        49.000          43.000
 121631596.97747  94777838.64547  23145745.4374   23145752.9724   23145744.3254
        47.000          42.000
 109269988.13447  85145427.82747  20793401.7634   20793406.2254   20793401.8944
        54.000          50.000
 140685257.66847  91832633.75047  24868603.3214   24868609.8584   24868603.5164
        42.000          36.000
 135001856.77047  87404006.98647  23787092.2814   23787099.7324   23787092.4524
        45.000          39.000
 15  5  1  1 56 30.0000000  0  8G12G25G22G31G24G14G04G32
 110750958.41847  86299419.80447  21075228.8674   21075233.4504   21075228.4914
        54.000          49.000
  99454678.28347  95289325.77847  20828557.8184   20828566.1644   20828557.9004
        54.000          49.000
 110554458.34047  86146316.09647  21037824.6004   21037828.3734   21037825.1404
        54.000          49.000
 130495799.06947  83892808.35147  22929604.2884   22929609.2144   22929604.2044
        49.000          43.000
 121721032.68247  94847528.76647  23162764.5264   23162772.1704   23162764.1084
        46.000          42.000
 109229566.42247  85113930.40247  20785709.6724   20785714.1844   20785709.7084
        54.000          50.000
 140726232.99847  91864562.58447  24876400.0964   24876408.8134   24876400.1564
        42.000          37.000
 134918824.43847  87339306.57147  23771291.2904   23771298.5214   23771291.8674
        45.000          39.000
 15  5  1  1 57  0.0000000  0  8G12G25G22G31G24G14G04G32
 110779984.40847  86322037.45447  21080752.4254   21080756.9104   21080752.0254
        55.000          49.000
  99402388.42247  95248580.46447  20818607.4094   20818615.8074   20818607.4434
        54.000          50.000
 110598467.11747  86180608.60747  21046199.3344   21046203.0934   21046200.0074
        54.000          49.000
 130413067.73147  83828342.44147  22913860.9334   22913866.4094   22913860.8154
        49.000          44.000
 121810549.35947  94917281.96247  23179798.5954   23179806.8494   23179798.1034
        46.000          42.000
 109189414.42647  85082643.14347  20778068.9044   20778073.4384   20778069.2894
        54.000          50.000
 140767642.13947  91896829.41447  24884280.1254   24884289.4834   24884279.2434
        43.000          37.000
 134836113.00547  87274856.19447  23755552.2924   23755559.9394   23755553.0764
        45.000          40.000
 15  5  1  1 57 30.0000000  0  8G12G25G22G31G24G14G04G32
 110809645.14747  86345149.71547  21086396.6564   21086401.3894   21086396.4214
        55.000          49.000
  99350678.61347  95208287.13847  20808767.4764   20808775.6584   20808767.5794
        55.000          50.000
 110643004.69347  86215313.17447  21054674.6444   21054678.3614   21054675.4344
        55.000          49.000
 130330573.63447  83764061.40047  22898162.4694   22898168.3194   22898161.9754
        49.000          44.000
 121900161.56947  94987109.60347  23196851.1254   23196859.5304   23196850.3274
        46.000          42.000
 109149548.72847  85051578.97347  20770482.7754   20770487.2054   20770482.9744
        54.000          50.000
 140809498.18347  91929444.47647  24892244.4214   24892254.1324   24892243.9724
        42.000          37.000
 134753740.26247  87210669.72947  23739877.6964   23739885.4844   23739878.2154
        46.000          40.000
 15  5  1  1 58  0.0000000  0  8G12G25G22G31G24G14G04G32
 110839925.52147  86368744.79847  21092158.9394   21092163.6514   21092158.4384
        55.000          49.000
  99299536.41047  95168436.09647  20799035.4154   20799043.7094   20799035.2514
        55.000          50.000
 110688055.64747  86250417.77047  21063247.6504   21063251.3144   21063248.5584
        55.000          49.000
 130248303.22747  83699954.66047  22882506.7824   22882512.8474   22882506.4844
        48.000          44.000
 121989853.91147  95056999.69147  23213919.4804   23213927.6324   23213918.7534
        46.000          42.000
 109109956.63047  85020727.99747  20762948.6224   20762953.1114   20762948.8444
        54.000          50.000
 140851784.72347  91962395.00047  24900291.1894   24900301.4244   24900290.6894
        42.000          37.000
 134671694.43747  87146738.01847  23724264.4854   23724272.4034   23724265.3624
        46.000          40.000
 15  5  1  1 58 30.0000000  0  8G12G25G22G31G24G14G04G32
 110870827.65847  86392824.38247  21098039.6644   21098044.1784   21098039.2604
        54.000          49.000
  99248966.93047  95129031.33847  20789412.3744   20789420.5474   20789412.5554
        55.000          50.000
 110733621.90647  86285923.89847  21071918.4794   21071922.2954   21071919.1514
        54.000          49.000
 130166260.72247  83636025.49347  22866894.6444   22866900.7344   22866894.1324
        49.000          44.000
 122079628.38147  95126953.76547  23231002.6614   23231011.3264   23231001.9674
        46.000          42.000
 109070642.78147  84990093.84147  20755467.4074   20755471.9904   20755467.7144
        54.000          50.000
 140894502.96447  91995681.90847  24908421.3534   24908430.1034   24908421.0624
        42.000          37.000
 134589981.46647  87083065.64447  23708714.8804   23708722.9714   23708715.1344
        46.000          40.000
 15  5  1  1 59  0.0000000  0  8G12G25G22G31G24G14G04G32
 110902346.54247  86417384.54747  21104037.6414   21104041.8664   21104037.1804
        55.000          49.000
  99198968.39047  95090071.46847  20779897.9584   20779906.2864   20779897.9994
        55.000          50.000
 110779698.98547  86321828.07547  21080686.8574   21080690.5554   21080687.6094
        54.000          49.000
 130084443.47747  83572271.85947  22851325.0004   22851331.3104   22851324.6634
        49.000          44.000
 122169480.52947  95196968.35047  23248101.0604   23248109.7624   23248100.0994
        46.000          42.000
 109031605.44547  84959675.14747  20748038.8934   20748043.3954   20748039.0284
        54.000          50.000
 140937647.58047  92029301.06447  24916631.7374   24916639.5974   24916632.0114
        41.000          36.000
 134508600.40847  87019651.89847  23693228.1704   23693236.6104   23693228.5394
        44.000          40.000
 15  5  1  1 59 30.0000000  0  8G12G25G22G31G24G14G04G32
 110934486.61447  86442428.75747  21110153.5284   21110157.8214   21110153.3024
        55.000          49.000
  99149548.25947  95051562.30847  20770493.4994   20770501.9874   20770493.3894
        54.000          50.000
 110826291.34747  86358133.76847  21089553.0854   21089556.8914   21089553.7334
        54.000          49.000
 130002858.08647  83508698.88047  22835800.1644   22835805.8714   22835799.9304
        49.000          44.000
 122259414.88147  95267046.99447  23265214.9974   23265223.8964   23265214.4314
        45.000          42.000
 108992851.65147  84929477.40047  20740664.5904   20740668.7004   20740664.8864
        54.000          50.000
 140981222.06847  92063255.19847  24924923.4314   24924931.5604   24924922.9134
        41.000          35.000
 134427559.43347  86956503.16647  23677805.9514   23677814.5784   23677806.4874
        45.000          40.000
 15  5  1  2  0  0.0000000  0  8G12G25G22G31G24G14G04G32
 110967244.39747  86467954.30247  21116387.0504   21116391.2734   21116386.7084
        55.000          49.000
  99100706.09347  95013503.51347  20761199.0744   20761207.6444   20761199.0704
        55.000          50.000
 110873394.95147  86394837.83247  21098516.6484   21098520.5064   21098517.2754
        54.000          49.000
 129921502.96847  83445305.35447  22820318.6964   22820324.3114   22820317.9744
        49.000          44.000
 122349428.65747  95337187.52047  23282344.6774   23282353.0084   23282343.7014
        46.000          42.000
 108954380.63947  84899500.00447  20733343.7584   20733347.8544   20733344.0674
        54.000          50.000
 141025222.16347  92097540.93047  24933296.2904   24933304.9114   24933296.0184
        42.000          36.000
 134346858.92447  86893619.71047  23662449.0524   23662456.8884   23662449.3064
        46.000          40.000
 15  5  1  2  0 30.0000000  0  8G12G25G22G31G24G14G04G32
 111000616.06647  86493958.20147  21122737.4594   21122741.5114   21122737.3114
        55.000          49.000
  99052441.02547  94975894.40147  20752014.5924   20752022.8734   20752014.6504
        55.000          50.000
 110921006.12147  86431937.40247  21107576.8904   21107580.7164   21107577.4754
        54.000          49.000
 129840376.22747  83382089.76747  22804880.8174   22804885.9524   22804880.4174
        49.000          44.000
 122439518.01147  95407386.97747  23299488.3134   23299495.8354   23299488.0014
        47.000          42.000
 108916191.31147  84869742.08947  20726076.3574   20726080.5934   20726076.3894
        54.000          50.000
 141069643.29547  92132154.74647  24941749.8704   24941757.9104   24941749.3854
        42.000          37.000
 134266498.98347  86831001.62747  23647157.7914   23647165.2244   23647157.8074
        46.000          40.000
 15  5  1  2  1  0.0000000  0  8G12G25G22G31G24G14G04G32
 111034605.39847  86520443.40247  21129205.4264   21129209.7314   21129205.1274
        55.000          49.000
  99004759.65647  94938740.11847  20742941.0684   20742949.3124   20742941.2414
        55.000          50.000
 110969128.78647  86469435.54547  21116734.3034   21116738.1154   21116735.1174
        54.000          49.000
 129759483.68247  83319056.68147  22789487.4214   22789493.1224   22789486.7864
        49.000          44.000
 122529686.51347  95477648.09547  23316646.5724   23316654.4084   23316646.3134
        46.000          42.000
 108878290.48747  84840208.99047  20718864.1594   20718868.3584   20718864.4334
        54.000          50.000
 141114488.21847  92167098.81447  24950282.9904   24950291.3264   24950282.9744
        41.000          36.000
 134186487.00847  86768654.70447  23631932.4574   23631939.3014   23631933.1164
        46.000          40.000
 15  5  1  2  1 30.0000000  0  8G12G25G22G31G24G14G04G32
 111069207.88947  86547406.38347  21135790.1684   21135794.4404   21135789.9064
        55.000          49.000
  98957660.51347  94902039.52047  20733978.4014   20733986.4044   20733978.6294
        55.000          50.000
 111017758.28547  86507328.62047  21125988.0624   21125992.1384   21125988.8284
        54.000          48.000
 129678823.11947  83256204.35547  22774138.4064   22774143.8534   22774138.2054
        49.000          44.000
 122619930.16047  95547967.75047  23333819.5564   23333827.7494   23333819.3764
        46.000          42.000
 108840676.09647  84810899.09247  20711706.2334   20711710.6894   20711706.4584
        54.000          50.000
 141159751.65447  92202369.05047  24958895.8164   24958904.8154   24958895.1534
        41.000          35.000
 134106822.41047  86706578.46747  23616772.4584   23616780.1654   23616772.8684
        47.000          41.000
 15  5  1  2  2  0.0000000  0  8G12G25G22G31G24G14G04G32
 111104419.88047  86574844.30347  21142490.6244   21142495.1384   21142490.3274
        55.000          49.000
  98911143.07447  94865792.19847  20725126.2844   20725134.4454   20725126.2394
        55.000          50.000
 111066891.01247  86545613.81947  21135337.7624   21135341.7094   21135338.6734
        54.000          48.000
 129598392.94047  83193531.54847  22758832.6814   22758838.6534   22758832.4524
        49.000          44.000
 122710246.63647  95618344.13947  23351006.3234   23351014.6034   23351006.0644
        46.000          42.000
 108803347.56847  84781811.94147  20704602.7294   20704607.3864   20704603.0034
        54.000          50.000
 141205429.45847  92237962.10847  24967587.5564   24967596.9724   24967587.9874
        39.000          35.000
 134027505.62947  86644773.25347  23601679.1284   23601687.1784   23601679.2584
        47.000          41.000
 15  5  1  2  2 30.0000000  0  8G12G25G22G31G24G14G04G32
 111140241.22247  86602757.05047  21149307.1934   21149311.5744   21149306.7134
        54.000          49.000
  98865210.08947  94830000.29447  20716385.5544   20716393.6204   20716385.5984
        55.000          50.000
 111116527.06047  86584291.22647  21144783.2644   21144787.1634   21144784.0354
        54.000          48.000
 129518195.19347  83131039.86047  22743571.6934   22743577.1334   22743571.1544
        49.000          44.000
 122800634.89147  95688776.48547  23368206.4024   23368214.4244   23368205.7164
        45.000          41.000
 108766307.61747  84752949.65447  20697554.2994   20697558.8204   20697554.4684
        54.000          50.000
 141251520.41047  92273877.12247  24976359.9584   24976367.8114   24976358.9554
        42.000          36.000
 133948540.36247  86583241.93847  23586652.4594   23586660.2764   23586653.2094
        47.000          41.000
 15  5  1  2  3  0.0000000  0  8G12G25G22G31G24G14G04G32
 111176671.61047  86631144.37447  21156239.5684   21156244.1814   21156239.2714
        54.000          49.000
  98819864.54947  94794666.14247  20707756.6244   20707764.7454   20707756.6054
        55.000          50.000
 111166665.64047  86623360.20647  21154324.4124   21154328.1834   21154325.4184
        54.000          48.000
 129438231.81447  83068730.80047  22728354.8774   22728360.6144   22728354.3344
        49.000          44.000
 122891095.90347  95759265.49447  23385420.2434   23385428.9514   23385419.9304
        44.000          41.000
 108729559.34947  84724314.65547  20690561.5004   20690565.9304   20690561.6584
        54.000          50.000
 141298023.68147  92310113.42247  24985208.3094   24985217.4274   24985208.4684
        42.000          36.000
 133869930.46447  86521987.54047  23571692.7534   23571701.6434   23571693.3934
        46.000          41.000
 15  5  1  2  3 30.0000000  0  8G12G25G22G31G24G14G04G32
 111213704.68647  86660001.32047  21163286.7394   21163291.3434   21163286.4504
        55.000          49.000
  98775102.64047  94759786.76547  20699238.7704   20699246.8484   20699238.8054
        55.000          50.000
 111217300.36547  86662815.79147  21163959.8264   21163963.7924   21163960.7404
        54.000          48.000
 129358498.52847  83006601.03047  22713181.8794   22713188.0674   22713181.4254
        49.000          44.000
 122981623.42147  95829806.34647  23402647.3764   23402655.4484   23402646.9484
        45.000          41.000
 108693098.96047  84695903.97647  20683623.3934   20683627.7674   20683623.6064
        54.000          50.000
 141344932.00447  92346665.31847  24994135.2094   24994143.7034   24994134.7994
        43.000          37.000
 133791673.24647  86461007.97447  23556800.2984   23556809.3864   23556800.6734
        46.000          41.000
 15  5  1  2  4  0.0000000  0  8G12G25G22G31G24G14G04G32
 111251349.99747  86689335.33747  21170450.5674   21170455.0554   21170450.3264
        55.000          49.000
  98730937.05547  94725372.05747  20690834.3634   20690842.4054   20690834.4524
        55.000          50.000
 111268441.15047  86702665.71147  21173691.5884   21173695.5404   21173692.5394
        54.000          48.000
 129279006.94847  82944659.59747  22698055.1474   22698061.0554   22698054.7054
        49.000          44.000
 123072227.60647  95900406.94247  23419888.4704   23419897.0734   23419887.9364
        45.000          41.000
 108656938.80247  84667727.24247  20676742.1614   20676746.5604   20676742.3794
        54.000          50.000
 141392254.23247  92383539.74947  25003140.1854   25003149.4544   25003139.3734
        41.000          37.000
 133713782.24547  86400313.72547  23541978.2684   23541986.9354   23541978.3054
        46.000          41.000
 15  5  1  2  4 30.0000000  0  8G12G25G22G31G24G14G04G32
 111289598.81547  86719139.61447  21177729.0994   21177733.2994   21177728.8914
        55.000          49.000
  98687362.23747  94691417.67847  20682542.2824   20682550.3324   20682542.2114
        55.000          50.000
 111320079.22747  86742903.13047  21183518.0134   21183522.0544   21183518.6804
        54.000          48.000
 129199750.93547  82882901.71247  22682973.4064   22682979.0854   22682973.2104
        49.000          44.000
 123162899.94747  95971060.63447  23437142.9514   23437152.0234   23437141.8484
        45.000          42.000
 108621073.41047  84639780.19647  20669917.0964   20669921.6144   20669917.2744
        54.000          50.000
 141439981.17047  92420729.56747  25012222.2904   25012230.2404   25012222.6904
        41.000          36.000
 133636252.93147  86339901.31547  23527224.2614   23527233.3894   23527224.5304
        45.000          41.000
 15  5  1  2  5  0.0000000  0  8G12G25G22G31G24G14G04G32
 111328442.81647  86749407.67447  21185121.0184   21185125.0744   21185120.7584
        54.000          49.000
  98644372.61647  94657919.30747  20674361.5504   20674369.7014   20674361.8244
        55.000          50.000
 111372206.07047  86783521.40747  21193437.3744   21193441.5014   21193437.9714
        54.000          48.000
 129120724.03047  82821322.37547  22667934.5944   22667940.6224   22667934.2664
        49.000          44.000
 123253633.06547  96041761.69647  23454409.0154   23454417.7204   23454407.8894
        45.000          41.000
 108585497.44247  84612058.68147  20663147.1154   20663151.7634   20663147.3124
        54.000          50.000
 141488103.37347  92458227.34747  25021378.8264   25021387.5574   25021378.3814
        42.000          35.000
 133559080.73447  86279767.20247  23512539.2114   23512548.3174   23512539.7304
        46.000          41.000
 15  5  1  2  5 30.0000000  0  8G12G25G22G31G24G14G04G32
 111367888.76847  86780144.78847  21192626.9984   21192631.6664   21192626.5564
        54.000          49.000
  98601978.18447  94624884.72047  20666294.0234   20666302.1484   20666293.9934
        55.000          50.000
 111424828.76747  86824526.07247  21203451.2494   21203455.3544   21203451.8854
        54.000          48.000
 129041935.52747  82759928.80347  22652941.6494   22652947.5264   22652941.2654
        49.000          44.000
 123344434.23647  96112515.78147  23471687.8314   23471696.2984   23471686.8674
        45.000          41.000
 108550220.82847  84584570.43147  20656434.2414   20656438.8154   20656434.5294
        54.000          50.000
 141536627.28447  92496038.16247  25030612.4424   25030621.9844   25030612.0114
        40.000          36.000
 133482276.74247  86219919.97647  23497924.9164   23497932.6034   23497925.3594
        47.000          41.000
 15  5  1  2  6  0.0000000  0  8G12G25G22G31G24G14G04G32
 111407934.46047  86811349.22347  21200247.2644   21200252.1684   21200246.9434
        54.000          49.000
  98560179.62347  94592314.44347  20658340.0304   20658348.0404   20658340.0484
        55.000          50.000
 111477944.75047  86865915.10547  21213558.9484   21213563.0524   21213559.6544
        54.000          48.000
 128963385.38047  82698720.94747  22637994.2284   22638000.0484   22637994.0874
        49.000          44.000
 123435301.55447  96183321.40847  23488979.4714   23488988.5144   23488979.7424
        46.000          42.000
 108515244.24447  84557315.96547  20649778.2914   20649782.9574   20649778.5814
        54.000          50.000
 141585549.84347  92534159.61047  25039923.3644   25039932.3214   25039922.8374
        41.000          37.000
 133405842.63247  86160360.98647  23483380.2444   23483387.8184   23483380.5744
        47.000          41.000
 15  5  1  2  6 30.0000000  0  8G12G25G22G31G24G14G04G32
 111448573.45947  86843015.99247  21207980.6314   21207985.3074   21207980.1884
        54.000          49.000
  98518973.41347  94560205.74547  20650498.7234   20650506.7644   20650498.7714
        55.000          50.000
 111531547.82147  86907683.70247  21223759.2924   21223763.3834   21223760.0864
        54.000          48.000
 128885069.42147  82637695.58847  22623091.3574   22623097.0734   22623091.1304
        49.000          44.000
 123526229.39147  96254174.19647  23506282.9264   23506292.0794   23506282.3174
        45.000          42.000
 108480564.25647  84530292.61347  20643178.9104   20643183.5694   20643179.0634
        54.000          50.000
 141634863.82247  92572586.04647  25049306.6854   25049315.7164   25049305.8874
        42.000          37.000
 133329775.97547  86101088.34247  23468904.7114   23468912.9884   23468905.2524
        47.000          41.000
 15  5  1  2  7  0.0000000  0  8G12G25G22G31G24G14G04G32
 111489818.18047  86875154.74347  21215829.3534   21215833.9274   21215829.2314
        54.000          49.000
  98478375.16647  94528570.77747  20642773.1264   20642781.1524   20642773.1804
        55.000          50.000
 111585650.58047  86949841.65447  21234054.7294   21234058.7874   21234055.6234
        54.000          48.000
 128807002.43047  82576864.24147  22608235.6654   22608241.5294   22608235.3854
        49.000          44.000
 123617231.37647  96325084.76747  23523599.7374   23523609.2894   23523598.8764
        45.000          41.000
 108446196.70447  84503512.71247  20636639.2334   20636643.5954   20636639.5064
        54.000          50.000
 141684581.16847  92611326.77647  25058767.9994   25058777.8824   25058768.1754
        40.000          36.000
 133254093.54847  86042115.07647  23454503.2034   23454510.7804   23454503.3474
        47.000          41.000
 15  5  1  2  7 30.0000000  0  8G12G25G22G31G24G14G04G32
 111531645.29547  86907747.29247  21223788.7824   21223793.5984   21223788.3124
        54.000          49.000
  98438364.29647  94497393.50247  20635159.2994   20635167.2304   20635159.3604
        55.000          50.000
 111640229.67747  86992370.78247  21244440.8974   21244444.7804   21244441.5214
        54.000          48.000
 128729163.24547  82516210.38547  22593422.9964   22593428.6994   22593422.6104
        49.000          44.000
 123708284.03247  96396034.80347  23540926.6514   23540935.9864   23540926.5454
        45.000          41.000
 108412121.02947  84476960.25747  20630154.7224   20630159.2774   20630154.8644
        54.000          50.000
 141734677.60147  92650362.95247  25068301.9964   25068310.3724   25068301.7194
        42.000          36.000
 133178775.84047  85983426.01747  23440170.0904   23440178.0784   23440170.6734
        47.000          41.000
 15  5  1  2  8  0.0000000  0  8G12G25G22G31G24G14G04G32
 111574064.72947  86940801.40047  21231861.0314   21231865.7474   21231860.7334
        54.000          49.000
  98398953.76047  94466684.02747  20627659.7494   20627667.7474   20627659.8044
        55.000          50.000
 111695294.83647  87035278.66647  21254919.3174   21254923.3624   21254919.9704
        54.000          48.000
 128651564.13547  82455743.61647  22578656.0844   22578662.2264   22578655.4914
        49.000          44.000
 123799398.14647  96467032.73847  23558265.1824   23558274.4224   23558264.6904
        45.000          41.000
 108378350.48547  84450645.56447  20623728.3154   20623732.9514   20623728.6024
        54.000          50.000
 141785162.31747  92689701.64647  25077909.0274   25077916.4714   25077908.5594
        42.000          36.000
 133103836.91747  85925032.10147  23425909.5954   23425917.4664   23425910.0454
        47.000          41.000
 15  5  1  2  8 30.0000000  0  8G12G25G22G31G24G14G04G32
 111617071.37147  86974313.08247  21240044.8654   21240049.5594   21240044.4214
        54.000          49.000
  98360141.54847  94436440.77647  20620273.9914   20620282.0174   20620273.9084
        55.000          50.000
 111750841.14947  87078561.46847  21265489.4374   21265493.5464   21265490.1904
        54.000          48.000
 128574202.61047  82395461.96747  22563935.1404   22563940.2944   22563934.6804
        49.000          45.000
 123890569.76047  96538075.50647  23575615.0334   23575623.9234   23575614.2624
        45.000          41.000
 108344883.27247  84424567.22247  20617359.8854   20617364.2714   20617360.0374
        54.000          50.000
 141836030.04247  92729338.81847  25087587.8134   25087596.4644   25087587.8624
        43.000          36.000
 133029275.96547  85866932.71947  23411721.2354   23411729.1454   23411721.1654
        47.000          41.000
 15  5  1  2  9  0.0000000  0  8G12G25G22G31G24G14G04G32
 111660669.99247  87008286.03347  21248341.2974   21248345.8914   21248340.6394
        54.000          49.000
  98321935.25947  94406669.67447  20613003.3994   20613011.6554   20613003.2244
        55.000          50.000
 111806873.38247  87122222.91347  21276152.1354   21276156.2244   21276152.7854
        54.000          48.000
 128497085.50647  82335370.76647  22549260.3674   22549265.4564   22549259.9774
        50.000          45.000
 123981804.28747  96609167.27447  23592976.1824   23592985.7014   23592975.3194
        45.000          41.000
 108311727.28347  84398731.39347  20611050.5244   20611054.9554   20611050.7734
        54.000          50.000
 141887284.61147  92769277.41247  25097341.4074   25097350.7884   25097342.3474
        40.000          36.000
 132955101.68447  85809134.64647  23397606.1624   23397614.2054   23397607.1064
        48.000          42.000
 15  5  1  2  9 30.0000000  0  8G12G25G22G31G24G14G04G32
 111704846.75947  87042709.50147  21256747.7004   21256752.2004   21256747.3124
        54.000          49.000
  98284324.10147  94377362.31047  20605846.2724   20605854.3924   20605846.3514
        55.000          50.000
 111863377.79547  87166252.28947  21286904.5844   21286908.6664   21286905.3594
        54.000          48.000
 128420201.58647  82275461.28547  22534629.6244   22534634.8384   22534629.5554
        50.000          45.000
 124073088.14347  96680297.47347  23610347.3384   23610356.2164   23610346.7374
        44.000          41.000
 108278871.76147  84373129.70847  20604798.2364   20604802.8944   20604798.6544
        54.000          50.000
 141938911.55447  92809506.13847  25107165.7424   25107174.1574   25107164.7014
        40.000          36.000
 132881304.53347  85751630.45147  23383563.6014   23383571.1164   23383564.2844
        47.000          42.000
 15  5  1  2 10  0.0000000  0  8G12G25G22G31G24G14G04G32
 111749617.20047  87077595.55247  21265267.1444   21265272.0254   21265266.8334
        54.000          49.000
  98247326.49947  94348533.04147  20598805.9614   20598813.9664   20598805.9114
        56.000          50.000
 111920369.84047  87210661.64047  21297749.8374   21297753.8734   21297750.2914
        54.000          48.000
 128343568.61047  82215747.33747  22520046.5974   22520052.2114   22520046.1774
        50.000          45.000
 124164438.22747  96751479.29347  23627730.7854   23627739.2634   23627730.4974
        45.000          41.000
 108246335.56447  84347776.83947  20598606.7854   20598611.4294   20598607.0264
        54.000          50.000
 141990925.83147  92850036.68247  25117063.1024   25117073.2774   25117063.1934
        41.000          36.000
 132807904.09147  85694435.37747  23369595.6724   23369603.4224   23369596.1854
        47.000          41.000
 15  5  1  2 10 30.0000000  0  8G12G25G22G31G24G14G04G32
 111794963.92147  87112930.66547  21273896.4974   21273901.1974   21273896.1974
        54.000          49.000
  98210928.02747  94320170.62647  20591879.7054   20591887.5364   20591879.9654
        56.000          50.000
 111977832.22647  87255437.49047  21308684.6964   21308688.6184   21308685.4344
        54.000          48.000
 128267171.64647  82156217.30047  22505508.9284   22505514.2954   22505508.3444
        50.000          45.000
 124255838.01747  96822699.81347  23645123.3224   23645131.6724   23645123.2284
        44.000          40.000
 108214104.51847  84322661.75247  20592473.4334   20592477.8944   20592473.6034
        54.000          50.000
 142043309.30447  92890854.95647  25127032.3204   25127039.9504   25127031.8504
        42.000          36.000
 132734887.15547  85637539.12847  23355701.1334   23355708.3464   23355701.6624
        48.000          41.000
 15  5  1  2 11  0.0000000  0  8G12G25G22G31G24G14G04G32
 111840887.06947  87148714.94347  21282635.6584   21282639.9124   21282635.4614
        54.000          49.000
  98175131.77747  94292277.47747  20585067.8834   20585075.7664   20585067.8224
        56.000          50.000
 112035765.08347  87300579.93847  21319708.9684   21319713.0564   21319709.7364
        54.000          48.000
 128191012.94947  82096872.92147  22491016.6624   22491021.8414   22491016.6504
        50.000          45.000
 124347288.33247  96893959.70847  23662525.2424   23662534.1734   23662525.4354
        44.000          40.000
 108182181.96847  84297787.05047  20586398.6764   20586403.1704   20586399.0034
        54.000          50.000
 142096061.61247  92931960.62547  25137070.7524   25137077.9624   25137071.3114
        42.000          36.000
 132662257.95147  85580945.01147  23341879.6104   23341887.2124   23341880.2904
        47.000          41.000
 15  5  1  2 11 30.0000000  0  8G12G25G22G31G24G14G04G32
 111887392.21247  87184952.71347  21291485.3424   21291489.7334   21291485.1154
        54.000          49.000
  98139946.18847  94264860.16647  20578372.0834   20578380.0684   20578372.1974
        55.000          50.000
 112094173.92747  87346093.28247  21330823.8494   21330827.6944   21330824.5784
        53.000          48.000
 128115100.99047  82037720.81147  22476570.8364   22476576.0154   22476570.8724
        50.000          45.000
 124438795.47147  96965263.89247  23679938.8514   23679947.6874   23679938.5964
        44.000          41.000
 108150576.87147  84273159.71347  20580384.5594   20580388.8994   20580384.9054
        54.000          50.000
 142149187.62447  92973357.50247  25147179.3094   25147188.7214   25147180.4144
        42.000          36.000
 132590026.42747  85524660.76347  23328134.0784   23328142.3384   23328134.4934
        47.000          41.000
 15  5  1  2 12  0.0000000  0  8G12G25G22G31G24G14G04G32
 111934475.37547  87221640.88347  21300444.8574   21300449.5744   21300444.8014
        54.000          49.000
  98105370.49147  94237918.10247  20571792.4834   20571800.5744   20571792.4344
        55.000          50.000
 112153055.20547  87391974.76347  21342028.4414   21342032.6534   21342028.9624
        54.000          48.000
 128039434.19547  81978759.72447  22462171.9034   22462176.7744   22462172.0014
        50.000          45.000
 124530357.18647  97036610.60947  23697362.4144   23697371.3364   23697361.3744
        44.000          41.000
 108119288.84547  84248779.44547  20574430.6534   20574435.0674   20574430.8604
        54.000          50.000
 142202682.97447  93015042.16147  25157359.5864   25157368.9484   25157360.1354
        42.000          36.000
 132518192.79047  85468686.56147  23314465.0154   23314472.6234   23314465.8384
        47.000          42.000
 15  5  1  2 12 30.0000000  0  8G12G25G22G31G24G14G04G32
 111982122.04647  87258768.15747  21309511.7384   21309516.1524   21309511.7024
        54.000          49.000
  98071393.02647  94211442.18847  20565326.6854   20565334.6594   20565326.7244
        55.000          50.000
 112212394.83847  87438213.39547  21353320.6444   21353324.6494   21353321.5964
        54.000          48.000
 127964000.31447  81919980.13547  22447817.2734   22447822.2154   22447817.0994
        50.000          45.000
 124621959.41347  97107988.87647  23714793.9174   23714803.2454   23714792.9364
        44.000          41.000
 108088306.58047  84224637.42847  20568534.8934   20568539.2504   20568535.0584
        54.000          50.000
 142256532.55347  93057002.83747  25167606.1874   25167615.5254   25167605.9204
        41.000          36.000
 132446746.96447  85413014.53047  23300869.1434   23300876.8684   23300869.1664
        47.000          42.000
 15  5  1  2 13  0.0000000  0  8G12G25G22G31G24G14G04G32
 112030353.86847  87296351.39147  21318690.0584   21318694.2914   21318689.7734
        54.000          49.000
  98038038.24547  94185451.47947  20558979.5654   20558987.5044   20558979.6384
        55.000          50.000
 112272213.71047  87484825.46647  21364703.8854   21364707.8334   21364704.7604
        54.000          48.000
 127888823.62247  81861400.92447  22433511.7414   22433516.5784   22433511.3484
        50.000          45.000
 124713624.86847  97179416.40347  23732237.6624   23732246.0714   23732237.6874
        44.000          40.000
 108057654.84947  84200752.96847  20562702.0764   20562706.3774   20562702.4564
        54.000          50.000
 142310757.32547  93099255.94347  25177925.7554   25177934.9964   25177925.1094
        43.000          36.000
 132375714.44547  85357664.56347  23287351.5504   23287360.1934   23287351.6134
        47.000          42.000
 15  5  1  2 13 30.0000000  0  8G12G25G22G31G24G14G04G32
 112079144.64647  87334370.17547  21327974.5834   21327979.0364   21327974.5774
        54.000          48.000
  98005282.60947  94159927.64747  20552746.3144   20552754.3414   20552746.2494
        55.000          50.000
 112332485.55547  87531790.49847  21376173.1654   21376177.1514   21376174.0704
        54.000          48.000
 127813880.02147  81803003.36047  22419250.1474   22419255.4734   22419249.7254
        50.000          45.000
 124805328.00347  97250873.30147  23749689.0044   23749696.9824   23749688.6474
        45.000          40.000
 108027310.66447  84177108.15947  20556927.6134   20556932.2344   20556927.8634
        54.000          50.000
 142365330.27747  93141780.27847  25188311.1164   25188319.3634   25188310.8014
        43.000          36.000
 132305073.18947  85302619.47047  23273909.4734   23273917.2174   23273909.7794
        48.000          42.000
 15  5  1  2 14  0.0000000  0  8G12G25G22G31G24G14G04G32
 112128510.62247  87372837.16347  21337368.4574   21337373.1684   21337368.2834
        54.000          49.000
  97973145.89047  94134886.08147  20546630.8974   20546638.9714   20546630.9114
        55.000          50.000
 112393227.46047  87579121.80847  21387732.0604   21387736.0404   21387732.8924
        54.000          48.000
 127739188.89347  81744802.53647  22405036.6184   22405042.1514   22405036.3964
        49.000          45.000
 124897086.49547  97322373.35347  23767150.2114   23767158.4044   23767149.8104
        44.000          41.000
 107997294.32247  84153718.80447  20551215.6754   20551220.3274   20551215.8524
        54.000          50.000
 142420267.72547  93184588.66547  25198765.7594   25198773.4254   25198764.8624
        41.000          36.000
 132234844.30247  85247895.70847  23260545.6744   23260552.9514   23260546.3724
        48.000          42.000
 15  5  1  2 14 30.0000000  0  8G12G25G22G31G24G14G04G32
 112178438.43647  87411741.94647  21346869.5674   21346873.9444   21346869.4744
        54.000          48.000
  97941617.43247  94110318.48747  20540631.3474   20540639.1134   20540631.4584
        55.000          50.000
 112454425.85147  87626808.82047  21399377.8794   21399381.8064   21399378.7994
        53.000          48.000
 127664739.17947  81686789.80747  22390869.5124   22390874.8594   22390869.1384
        50.000          45.000
 124988888.14247  97393906.99847  23784619.3744   23784627.1574   23784619.3114
        44.000          41.000
 107967595.61747  84130576.95047  20545564.3634   20545568.7204   20545564.7684
        54.000          50.000
 142475555.33247  93227669.85147  25209286.6674   25209294.5574   25209286.6484
        41.000          36.000
 132165018.45347  85193486.01347  23247258.2104   23247265.0684   23247258.8504
        48.000          42.000
 15  5  1  2 15  0.0000000  0  8G12G25G22G31G24G14G04G32
 112228929.99747  87451086.01347  21356477.8294   21356482.2934   21356477.6814
        54.000          48.000
  97910701.88747  94086228.49447  20534748.0764   20534755.9984   20534748.1524
        55.000          50.000
 112516082.69647  87674853.07247  21411110.5974   21411114.8854   21411111.5624
        54.000          48.000
 127590535.17547  81628968.56147  22376748.7994   22376753.9904   22376748.6554
        50.000          45.000
 125080735.54547  97465476.31247  23802097.3464   23802105.5534   23802096.6274
        45.000          40.000
 107938219.84347  84107686.73447  20539974.4114   20539978.7404   20539974.6064
        54.000          50.000
 142531194.58547  93271025.12347  25219874.0804   25219882.7314   25219873.4274
        43.000          36.000
 132095601.66747  85139395.07147  23234048.2414   23234055.3544   23234048.4864
        48.000          42.000
 15  5  1  2 15 30.0000000  0  8G12G25G22G31G24G14G04G32
 112279983.91547  87490868.27747  21366193.0324   21366197.5314   21366192.8364
        54.000          49.000
  97880400.72547  94062617.23947  20528981.7884   20528989.9134   20528981.7294
        55.000          50.000
 112578196.51547  87723253.40447  21422930.3854   21422934.6264   21422931.2944
        53.000          48.000
 127516578.09647  81571339.70047  22362675.5224   22362680.4944   22362675.1434
        51.000          45.000
 125172628.65747  97537081.26147  23819583.9344   23819592.1714   23819583.6174
        45.000          40.000
 107909168.67347  84085049.45947  20534446.0004   20534450.5234   20534446.1504
        54.000          50.000
 142587183.27847  93314652.61447  25230527.7454   25230536.9784   25230527.5174
        41.000          36.000
 132026596.81147  85085625.11647  23220916.7334   23220924.2394   23220917.0414
        48.000          42.000
 15  5  1  2 16  0.0000000  0  8G12G25G22G31G24G14G04G32
 112331593.72547  87531083.69447  21376013.8584   21376018.5814   21376013.7294
        54.000          48.000
  97850710.37447  94039481.94447  20523332.0294   20523340.0634   20523332.0564
        55.000          50.000
 112640760.92147  87772004.83847  21434836.0544   21434840.2914   21434836.8514
        53.000          48.000
 127442863.92647  81513900.12247  22348647.7934   22348653.1694   22348647.3174
        51.000          46.000
 125264562.20347  97608717.71547  23837078.1674   23837086.9254   23837077.8684
        44.000          40.000
 107880439.32347  84062662.96247  20528978.8504   20528983.4494   20528979.1444
        54.000          50.000
 142643514.73247  93358547.23947  25241247.3514   25241256.4174   25241246.6254
        42.000          36.000
 131958001.76547  85032174.48847  23207863.8214   23207870.8824   23207864.0474
        49.000          42.000
 15  5  1  2 16 30.0000000  0  8G12G25G22G31G24G14G04G32
 112383766.79647  87571738.01047  21385942.1514   21385946.8264   21385941.9454
        54.000          48.000
  97821641.37447  94016830.81447  20517800.3624   20517808.4984   20517800.4204
        55.000          50.000
 112703783.75947  87821113.49447  21446828.9594   21446833.1094   21446829.9764
        53.000          48.000
 127369403.06447  81456657.92247  22334668.8524   22334674.0174   22334668.4924
        51.000          46.000
 125356544.87447  97680392.42847  23854581.9914   23854590.9244   23854581.7144
        43.000          40.000
 107852043.05247  84040535.99847  20523575.3204   20523579.8054   20523575.4874
        54.000          50.000
 142700195.88147  93402714.34847  25252034.1024   25252042.2884   25252033.8014
        41.000          36.000
 131889828.39847  84979052.43947  23194890.7624   23194898.0594   23194891.3884
        48.000          42.000
 15  5  1  2 17  0.0000000  0  8G12G25G22G31G24G14G04G32
 112436488.14247  87612819.56447  21395974.9004   21395979.2834   21395974.6004
        54.000          48.000
  97793181.24747  93994654.13547  20512384.6654   20512392.6104   20512384.6514
        55.000          50.000
 112767249.72247  87870567.43947  21458906.1084   21458910.3264   21458906.8944
        53.000          47.000
 127296182.59747  81399603.06247  22320735.2634   22320740.4114   22320735.2584
        51.000          45.000
 125448562.46547  97752094.34847  23872092.3204   23872101.4294   23872091.6204
        44.000          40.000
 107823967.95747  84018659.31147  20518232.7774   20518237.3894   20518232.9474
        53.000          50.000
 142757211.00547  93447141.72647  25262882.5694   25262892.6384   25262882.5144
        42.000          36.000
 131822065.76747  84926250.45247  23181995.6824   23182002.8954   23181996.4484
        48.000          42.000
 15  5  1  2 17 30.0000000  0  8G12G25G22G31G24G14G04G32
 112489763.06847  87654332.47747  21406112.7354   21406117.2894   21406112.2284
        54.000          48.000
  97765338.17047  93972958.27347  20507086.3324   20507094.1234   20507086.3394
        55.000          50.000
 112831164.43947  87920371.07747  21471068.7864   21471072.7754   21471069.5524
        53.000          47.000
 127223210.20547  81342741.50147  22306848.9114   22306854.2404   22306848.7004
        50.000          45.000
 125540621.82247  97823828.82147  23889610.8444   23889619.5244   23889611.1134
        44.000          40.000
 107796222.81947  83997039.73647  20512953.0084   20512957.6354   20512953.3314
        54.000          50.000
 142814564.73147  93491832.92647  25273797.6724   25273806.9334   25273797.8464
        42.000          36.000
 131754723.51447  84873776.02747  23169180.8254   23169188.3704   23169180.9154
        48.000          42.000
 15  5  1  2 18  0.0000000  0  8G12G25G22G31G24G14G04G32
 112543589.09747  87696274.82547  21416355.4594   21416360.1454   21416355.4354
        54.000          48.000
  97738112.66647  93951743.63747  20501905.3004   20501913.0424   20501905.2874
        55.000          50.000
 112895525.09647  87970522.19747  21483316.3304   21483320.2024   21483316.9654
        53.000          47.000
 127150486.59147  81286073.79047  22293010.1114   22293015.4114   22293009.5944
        50.000          45.000
 125632721.12547  97895594.39947  23907137.2474   23907145.4734   23907137.2544
        44.000          40.000
 107768808.70947  83975678.09547  20507736.2764   20507740.7904   20507736.4874
        54.000          50.000
 142872254.21547  93536785.74647  25284775.1984   25284784.2004   25284776.4514
        42.000          36.000
 131687803.55447  84821630.65747  23156446.4974   23156454.2304   23156446.7874
        48.000          42.000
 15  5  1  2 18 30.0000000  0  8G12G25G22G31G24G14G04G32
 112597957.62547  87738639.88947  21426701.2174   21426706.1954   21426700.6164
        53.000          48.000
  97711498.87847  93931005.66847  20496840.6624   20496848.6164   20496840.7774
        55.000          50.000
 112960323.93647  88021014.76347  21495646.9774   21495651.2344   21495647.5854
        53.000          47.000
 127078005.42547  81229595.01547  22279216.9184   22279222.7284   22279216.2664
        50.000          45.000
 125724853.54947  97967385.79047  23924669.2064   23924678.2454   23924669.2254
        43.000          40.000
 107741720.70147  83954570.56647  20502581.5894   20502586.1184   20502581.8044
        54.000          50.000
 142930270.50947  93581993.18847  25295814.9704   25295824.6394   25295815.9684
        41.000          35.000
 131621301.66247  84769811.05247  23143791.8814   23143798.9704   23143792.7114
        49.000          42.000
 15  5  1  2 19  0.0000000  0  8G12G25G22G31G24G14G04G32
 112652885.92647  87781441.13647  21437153.7114   21437158.3854   21437153.3854
        54.000          48.000
  97685516.86747  93910759.98547  20491896.6024   20491904.4944   20491896.6184
        55.000          50.000
 113025578.12347  88071862.13447  21508064.5114   21508068.6914   21508065.3874
        53.000          47.000
 127005786.68747  81173320.72247  22265474.2484   22265479.7024   22265473.4914
        51.000          45.000
 125817037.42647  98039217.29047  23942211.3064   23942220.4704   23942211.1214
        44.000          40.000
 107714979.53547  83933733.29747  20497492.9814   20497497.5374   20497493.2564
        54.000          50.000
 142988630.36147  93627468.37247  25306920.4434   25306929.2704   25306920.7184
        41.000          36.000
 131555239.26947  84718333.90747  23131220.7204   23131227.2514   23131221.2004
        49.000          42.000
 15  5  1  2 19 30.0000000  0  8G12G25G22G31G24G14G04G32
 112708351.60347  87824661.12747  21447708.8944   21447712.9884   21447708.6524
        54.000          48.000
  97660147.03747  93890991.32547  20487068.9704   20487076.7904   20487068.9364
        56.000          50.000
 113091264.34447  88123046.15547  21520564.1234   21520568.4864   21520564.7624
        53.000          47.000
 126933810.59447  81117235.50347  22251777.8554   22251783.1114   22251777.4884
        51.000          46.000
 125909251.74947  98111072.52647  23959758.5094   23959767.9084   23959757.7114
        43.000          40.000
 107688566.43547  83913151.66347  20492466.7474   20492471.3124   20492467.0724
        54.000          50.000
 143047310.92847  93673193.47247  25318087.5014   25318096.8174   25318087.0504
        39.000          34.000
 131489598.42347  84667185.23647  23118729.5764   23118735.8224   23118730.1564
        48.000          42.000
 15  5  1  2 20  0.0000000  0  8G12G25G22G31G24G14G04G32
 112764357.99647  87868302.44947  21458366.6734   21458370.7714   21458366.2504
        54.000          48.000
  97635395.62847  93871704.56047  20482358.8544   20482366.7584   20482358.9634
        55.000          50.000
 113157386.75747  88174570.06947  21533146.8984   21533151.1524   21533147.7824
        53.000          47.000
 126862083.15047  81061344.05147  22238129.0144   22238133.9104   22238128.8084
        52.000          46.000
 126001501.10847  98182955.04447  23977312.7984   23977322.5534   23977311.7004
        41.000          40.000
 107662488.12047  83892830.90647  20487504.1654   20487508.7804   20487504.2854
        54.000          50.000
 143106314.86747  93719170.58047  25329314.7874   25329323.0494   25329314.4644
        39.000          34.000
 131424386.76147  84616371.01347  23106319.8844   23106327.0064   23106320.6534
        48.000          43.000
 15  5  1  2 20 30.0000000  0  8G12G25G22G31G24G14G04G32
 112820905.25447  87912365.23047  21469127.0934   21469131.4804   21469127.0984
        54.000          48.000
  97611265.80247  93852902.13847  20477766.8634   20477774.9384   20477766.7854
        55.000          50.000
 113223945.88047  88226434.28047  21545812.7714   21545816.9084   21545813.3684
        53.000          47.000
 126790607.47947  81005648.77647  22224527.2934   22224532.4154   22224526.9144
        51.000          46.000
 126093787.33947  98254866.28047  23994874.4244   23994884.1724   23994873.7324
        44.000          40.000
 107636748.58947  83872774.13547  20482606.0324   20482610.6854   20482606.2624
        54.000          50.000
 143165642.26647  93765399.70647  25340603.7654   25340613.6864   25340604.2764
        39.000          34.000
 131359609.15647  84565894.98247  23093992.9824   23094000.2464   23093993.0614
        48.000          42.000
 15  5  1  2 21  0.0000000  0  7G12G25G22G31G24G14G32
 112877988.17447  87956845.40247  21479989.5234   21479994.1164   21479989.3424
        54.000          48.000
  97587754.85347  93834581.96347  20473292.7664   20473300.7584   20473292.8294
        55.000          50.000
 113290936.43547  88278634.65947  21558560.7264   21558564.8894   21558561.5634
        53.000          47.000
 126719380.80047  80950147.51947  22210973.0974   22210978.5184   22210972.6344
        51.000          46.000
 126186106.42347  98326803.14047  24012442.6864   24012451.9604   24012442.2244
        43.000          39.000
 107611346.03747  83852979.94247  20477772.2194   20477776.6384   20477772.4874
        54.000          50.000
 131295264.39847  84515756.25747  23081748.3804   23081755.7104   23081748.5024
        48.000          43.000
 15  5  1  2 21 30.0000000  0  7G12G25G22G31G24G14G32
 112935604.07647  88001740.89147  21490953.6344   21490958.2934   21490953.3564
        54.000          48.000
  97564862.81947  93816744.05447  20468936.4724   20468944.5124   20468936.4364
        55.000          50.000
 113358355.83947  88331169.20847  21571390.3304   21571394.5094   21571390.8174
        53.000          47.000
 126648402.71547  80894839.98747  22197466.4884   22197471.9324   22197466.1364
        52.000          46.000
 126278456.80747  98398764.39447  24030016.4104   24030026.0044   24030015.7824
        44.000          40.000
 107586281.57147  83833449.19047  20473002.7144   20473007.0544   20473002.9394
        54.000          50.000
 131231354.09047  84465956.04847  23069586.8274   23069594.4404   23069586.9984
        49.000          43.000
 15  5  1  2 22  0.0000000  0  7G12G25G22G31G24G14G32
 112993755.12347  88047053.38147  21502019.0494   21502023.7124   21502018.7844
        53.000          48.000
  97542594.75347  93799392.35147  20464699.2384   20464706.8614   20464699.3454
        55.000          50.000
 113426206.18647  88384039.55847  21584301.6884   21584305.9804   21584302.1904
        52.000          47.000
 126577678.60847  80839730.35747  22184008.1394   22184013.1634   22184007.8794
        52.000          46.000
 126370842.46447  98470753.13947  24047597.0804   24047606.1314   24047597.3514
        44.000          39.000
 107561561.00347  83814186.41347  20468298.5184   20468302.9184   20468298.7924
        54.000          50.000
 131167884.96347  84416499.62147  23057509.1914   23057516.7834   23057509.4094
        49.000          43.000
 15  5  1  2 22 30.0000000  0  7G12G25G22G31G24G14G32
 113052431.99147  88092775.59547  21513184.8384   21513189.5204   21513184.6674
        53.000          48.000
  97520943.92947  93782521.61547  20460579.3024   20460587.0064   20460579.5624
        55.000          50.000
 113494478.29047  88437238.54947  21597293.6214   21597297.7414   21597294.2254
        53.000          47.000
 126507201.57447  80784813.25047  22170596.9224   22170601.7304   22170596.5154
        51.000          46.000
 126463255.19347  98542762.96347  24065182.6164   24065192.1874   24065181.3404
        43.000          40.000
 107537178.28647  83795186.89347  20463658.6304   20463662.9364   20463658.7964
        54.000          50.000
 131104851.85247  84367382.95947  23045514.1664   23045521.8024   23045514.8924
        48.000          43.000
 15  5  1  2 23  0.0000000  0  7G12G25G22G31G24G14G32
 113111641.43447  88138912.79847  21524452.1884   21524456.6374   21524451.9764
        54.000          48.000
  97499919.90947  93766139.29447  20456578.4344   20456586.3244   20456578.4634
        55.000          50.000
 113563178.97247  88490771.49747  21610367.0104   21610371.0444   21610367.6444
        53.000          47.000
 126436980.99347  80730095.98047  22157234.2994   22157239.3314   22157233.6654
        51.000          46.000
 126555703.49547  98614800.48247  24082774.8704   24082784.4734   24082774.8914
        43.000          40.000
 107513144.05147  83776458.91447  20459085.0904   20459089.3154   20459085.2204
        54.000          50.000
 131042266.05247  84318614.84647  23033604.4294   23033611.9094   23033604.8804
        49.000          43.000
 15  5  1  2 23 30.0000000  0  7G12G25G22G31G24G14G32
 113171372.76047  88185456.66747  21535818.9324   21535823.3174   21535818.6084
        54.000          48.000
  97479515.16347  93750239.53247  20452695.2904   20452703.2534   20452695.2974
        55.000          50.000
 113632297.82447  88544630.29047  21623519.9104   21623524.0564   21623520.6944
        53.000          47.000
 126367009.56547  80675572.86547  22143919.0774   22143924.1554   22143918.8384
        52.000          46.000
 126648178.11547  98686858.50947  24100372.4134   24100381.9764   24100372.2284
        42.000          39.000
 107489451.58247  83757997.24447  20454576.5324   20454580.7984   20454576.8054
        54.000          50.000
 130980121.54847  84270190.61147  23021778.7584   23021785.7824   23021779.1564
        48.000          43.000
 15  5  1  2 24  0.0000000  0  7G12G25G22G31G24G14G32
 113231627.74347  88232408.58447  21547285.4114   21547289.6094   21547285.1904
        54.000          48.000
  97459733.73047  93734825.46247  20448931.0234   20448938.8224   20448930.8924
        55.000          50.000
 113701836.65647  88598816.34047  21636752.7464   21636756.9574   21636753.3944
        53.000          47.000
 126297291.27947  80621246.99547  22130652.0664   22130656.9544   22130651.8824
        52.000          46.000
 126740681.89247  98758939.27147  24117974.9384   24117984.5954   24117974.6744
        41.000          39.000
 107466106.13947  83739805.98647  20450133.8974   20450138.3384   20450134.1194
        54.000          50.000
 130918424.10547  84222114.73047  23010038.1804   23010045.4224   23010038.8664
        48.000          43.000
 15  5  1  2 24 30.0000000  0  7G12G25G22G31G24G14G32
 113292405.92847  88279768.20447  21558850.9534   21558855.3674   21558850.8664
        54.000          48.000
  97440578.15747  93719899.07247  20445286.0794   20445293.6124   20445286.0424
        56.000          50.000
 113771795.22747  88653329.45347  21650065.2374   21650069.6794   21650066.0844
        53.000          47.000
 126227828.55347  80567120.26247  22117433.7064   22117438.8104   22117433.4684
        51.000          46.000
 126833216.70747  98831044.20547  24135583.5344   24135593.6684   24135583.0074
        43.000          39.000
 107443110.89647  83721887.61347  20445757.9664   20445762.6524   20445758.2464
        53.000          50.000
 130857177.96747  84174390.51547  22998383.4164   22998390.5224   22998383.5644
        48.000          43.000
 15  5  1  2 25  0.0000000  0  7G12G25G22G31G24G14G32
 113353702.61747  88327531.84847  21570514.9404   21570519.6434   21570514.9894
        53.000          48.000
  97422046.00847  93705458.46247  20441759.4434   20441767.0174   20441759.5514
        55.000          50.000
 113842168.66847  88708165.83647  21663457.0204   21663461.4954   21663457.6314
        52.000          47.000
 126158618.96047  80513190.77447  22104263.5984   22104268.4324   22104263.0134
        52.000          46.000
 126925778.48447  98903170.14947  24153197.5574   24153207.4174   24153197.5084
        42.000          39.000
 107420464.91647  83704241.37847  20441448.6954   20441453.2904   20441448.8354
        54.000          50.000
 130796382.43147  84127017.42047  22986814.0494   22986821.7584   22986814.4714
        48.000          43.000
 15  5  1  2 25 30.0000000  0  7G12G25G22G31G24G14G32
 113415515.38447  88375697.63347  21582277.5284   21582282.1954   21582277.2404
        53.000          48.000
  97404137.69047  93691503.95447  20438351.5064   20438359.3604   20438351.6934
        55.000          50.000
 113912955.08747  88763324.02047  21676927.2054   21676931.6194   21676928.0704
        53.000          47.000
 126089663.16147  80459459.04647  22091141.3664   22091146.3884   22091141.0584
        51.000          46.000
 127018366.73047  98975316.76847  24170816.8204   24170826.5964   24170815.6234
        42.000          39.000
 107398169.30047  83686868.16547  20437206.0194   20437210.5614   20437206.3304
        53.000          50.000
 130736039.54147  84079997.02947  22975331.5124   22975339.2374   22975331.7534
        49.000          43.000
 15  5  1  2 26  0.0000000  0  7G12G25G22G31G24G14G32
 113477830.63747  88424254.96547  21594135.7264   21594140.0564   21594135.3534
        53.000          48.000
  97386842.43847  93678027.16747  20435060.2904   20435068.2114   20435060.4034
        55.000          50.000
 113984140.63547  88818793.22347  21690473.5354   21690477.9844   21690474.1974
        53.000          47.000
 126020950.67647  80405916.92147  22078065.5564   22078070.7704   22078065.0054
        51.000          46.000
 127110969.91147  99047474.98647  24188439.0764   24188448.6874   24188439.1154
        43.000          39.000
 107376214.44047  83669760.47847  20433028.1574   20433032.6254   20433028.3364
        54.000          50.000
 130676140.24247  84033322.31547  22963932.9554   22963941.0024   22963933.2304
        49.000          43.000
 15  5  1  2 26 30.0000000  0  8G12G25G22G31G24G14G29G32
 113540663.52147  88473215.64447  21606092.5954   21606096.6244   21606092.3554
        53.000          48.000
  97370177.85347  93665041.79647  20431888.9704   20431897.1134   20431889.0034
        55.000          50.000
 114055740.55947  88874585.30647  21704098.4464   21704103.0124   21704099.1954
        53.000          47.000
 125952498.98447  80352577.99547  22065039.9824   22065044.8724   22065039.7394
        51.000          46.000
 127203604.32947  99119657.57547  24206066.3934   24206077.2684   24206065.5364
        43.000          39.000
 107354619.06647  83652932.90747  20428918.6824   20428923.1434   20428918.8584
        54.000          50.000
 140780199.73557  91906592.27657  24886687.0865   24886700.8915   24886687.7965
        39.000          35.000
 130616703.87947  83987008.31847  22952622.7344   22952630.2444   22952623.5804
        49.000          43.000
 15  5  1  2 27  0.0000000  0  8G12G25G22G31G24G14G29G32
 113604010.33347  88522576.77747  21618147.1664   21618151.4284   21618146.8204
        54.000          48.000
  97354142.98647  93652547.11747  20428837.6724   20428845.6304   20428837.6684
        55.000          50.000
 114127751.19447  88930697.42747  21717801.8014   21717806.2344   21717802.6604
        53.000          47.000
 125884307.26247  80299441.64747  22052063.3104   22052068.6264   22052062.9044
        52.000          46.000
 127296268.01147  99191862.93347  24223700.0084   24223710.0034   24223700.7614
        42.000          39.000
 107333383.29547  83636385.55147  20424877.6824   20424882.0474   20424877.8924
        54.000          50.000
 120687643.83357 111834460.82757  24869082.1545   24869098.4625   24869081.7505
        40.000          36.000
 130557731.31347  83941055.69647  22941400.5164   22941407.8014   22941400.9344
        48.000          43.000
 15  5  1  2 27 30.0000000  0  8G12G25G22G31G24G14G29G32
 113667858.61747  88572328.68047  21630297.0924   21630301.6794   21630297.2274
        53.000          48.000
  97338728.16247  93640535.58847  20425904.4514   20425912.3084   20425904.3994
        56.000          50.000
 114200160.50547  88987120.20847  21731580.9324   21731585.3084   21731581.7234
        53.000          47.000
 125816366.01747  80246500.47647  22039134.4644   22039139.3954   22039133.8454
        52.000          46.000
 127388950.35047  99264082.83047  24241336.6064   24241347.2324   24241336.0174
        41.000          38.000
 107312498.68047  83620111.82247  20420903.6154   20420907.9494   20420903.8874
        54.000          50.000
 120595112.16547 111762358.39447  24851475.0634   24851488.0524   24851474.9594
        41.000          37.000
 130499214.55747  83895458.26347  22930264.6274   22930272.0004   22930265.4964
        48.000          43.000
 15  5  1  2 28  0.0000000  0  8G12G25G22G31G24G14G29G32
 113732211.18347  88622473.52347  21642542.8104   21642547.6004   21642542.6314
        53.000          48.000
  97323938.47947  93629011.17647  20423090.0124   20423097.9044   20423090.0234
        55.000          50.000
 114272971.29747  89043855.82847  21745436.4074   21745440.8334   21745437.2614
        52.000          47.000
 125748680.37147  80193758.47347  22026254.3284   22026259.5474   22026254.0174
        52.000          46.000
 127481655.36947  99336320.38647  24258978.2544   24258988.3564   24258977.1234
        41.000          38.000
 107291971.22947  83604116.40947  20416997.4354   20417001.8054   20416997.7084
        54.000          50.000
 120502575.97747 111690252.49247  24833867.1864   24833877.7134   24833868.3244
        42.000          37.000
 130441160.57847  83850221.44347  22919216.9664   22919224.5384   22919217.1134
        49.000          43.000
 15  5  1  2 28 30.0000000  0  8G12G25G22G31G24G14G29G32
 113797065.11547  88673009.04347  21654884.2274   21654888.9084   21654884.1224
        53.000          48.000
  97309773.91447  93617973.87747  20420394.6324   20420402.4714   20420394.6704
        55.000          51.000
 114346180.73747  89100902.08847  21759367.8904   21759372.3144   21759368.8254
        52.000          47.000
 125681250.75547  80141215.97547  22013422.5714   22013428.2194   22013421.7544
        51.000          46.000
 127574381.81447  99408574.66447  24276623.3274   24276633.1984   24276623.5674
        42.000          38.000
 107271802.29447  83588400.35147  20413159.3324   20413163.7654   20413159.6404
        54.000          50.000
 120410037.84847 111618145.09547  24816257.1934   24816267.5684   24816258.2474
        41.000          36.000
 130383571.15347  83805346.61047  22908258.5544   22908265.8944   22908259.0744
        49.000          43.000
 15  5  1  2 29  0.0000000  0  8G12G25G22G31G24G14G29G32
 113862415.88547  88723931.71747  21667320.2084   21667324.6454   21667320.0664
        54.000          48.000
  97296232.16647  93607421.88747  20417817.5884   20417825.5114   20417817.4724
        55.000          50.000
 114419784.15047  89158255.32447  21773373.7814   21773378.4284   21773374.2224
        52.000          47.000
 125614075.04247  80088871.31347  22000639.6514   22000645.0434   22000638.8204
        52.000          47.000
 127667127.25547  99480843.71447  24294272.7814   24294282.2454   24294272.5734
        41.000          38.000
 107251990.50747  83572962.59247  20409389.2424   20409393.6594   20409389.4184
        54.000          50.000
 120317498.62247 111546036.79147  24798645.9174   24798658.5364   24798645.1444
        40.000          36.000
 130326445.72647  83760833.33347  22897388.1314   22897394.9654   22897388.4384
        48.000          43.000
 15  5  1  2 29 30.0000000  0  8G12G25G22G31G24G14G29G32
 113928263.70647  88775241.70047  21679850.7254   21679854.9734   21679850.4584
        53.000          48.000
  97283316.15047  93597357.47347  20415359.8074   20415367.6004   20415359.8114
        55.000          50.000
 114493781.94347  89215915.86947  21787455.4034   21787459.9054   21787456.2994
        53.000          47.000
 125547156.48147  80036727.02247  21987905.6084   21987910.5804   21987905.3134
        52.000          46.000
 127759893.10647  99553128.71747  24311925.2784   24311934.9294   24311924.8804
        42.000          39.000
 107232540.26147  83557806.54247  20405687.9714   20405692.2864   20405688.3104
        54.000          50.000
 120224963.79647 111473931.91647  24781036.7234   24781049.5264   24781034.9194
        39.000          37.000
 130269788.98147  83716685.25747  22886606.7224   22886613.3254   22886606.9924
        49.000          43.000
 15  5  1  2 30  0.0000000  0  8G12G25G22G31G24G14G29G32
 113994600.16747  88826932.43947  21692474.2424   21692478.6454   21692474.0814
        53.000          48.000
  97271020.21747  93587776.25547  20413019.9264   20413027.7324   20413019.8334
        55.000          50.000
 114568166.26347  89273877.61547  21801610.3924   21801614.7534   21801611.3364
        52.000          46.000
 125480489.43647  79984778.71047  21975219.3914   21975224.0284   21975218.7304
        52.000          47.000
 127852672.85747  99625424.52647  24329581.1904   24329590.8154   24329581.1884
        41.000          38.000
 107213447.05247  83542928.70947  20402054.8414   20402058.9094   20402055.2174
        54.000          50.000
 120132430.79347 111401828.47347  24763429.1844   24763441.1214   24763428.7474
        41.000          37.000
 130213597.19547  83672899.50547  22875913.9024   22875920.4324   22875914.3384
        50.000          43.000
 15  5  1  2 30 30.0000000  0  8G12G25G22G31G24G14G29G32
 114061437.78547  88879013.68347  21705192.7294   21705197.4044   21705192.4114
        53.000          47.000
  97259358.69647  93578689.37447  20410800.7334   20410808.7224   20410800.7154
        56.000          51.000
 114642948.84747  89332149.69347  21815841.2554   21815845.4384   21815842.0954
        53.000          46.000
 125414088.77047  79933037.97847  21962583.6884   21962588.5604   21962583.5184
        52.000          47.000
 127945480.37647  99697741.98747  24347241.6164   24347251.5104   24347241.3174
        41.000          38.000
 107194726.59547  83528341.33947  20398492.2974   20398496.5304   20398492.6354
        53.000          50.000
 120039917.06447 111329740.10647  24745824.5104   24745836.2414   24745825.3884
        41.000          38.000
 130157886.51347  83629488.61747  22865312.5094   22865319.0444   22865313.0514
        49.000          43.000
 15  5  1  2 31  0.0000000  0  8G12G25G22G31G24G14G29G32
 114128751.84847  88931466.18347  21718002.1684   21718006.9604   21718001.6924
        53.000          48.000
  97248310.54547  93570080.44547  20408698.4614   20408706.2794   20408698.5604
        56.000          51.000
 114718106.40447  89390713.95347  21830142.9124   21830147.6344   21830143.4854
        52.000          46.000
 125347933.79047  79881488.68847  21949994.6074   21949999.8134   21949994.1634
        52.000          47.000
 128038293.86847  99770064.06747  24364903.8034   24364913.5934   24364903.5324
        43.000          39.000
 107176358.88547  83514028.83047  20394996.8744   20395001.3004   20394997.0614
        53.000          50.000
 119947404.52647 111257652.64647  24728220.0264   24728231.0194   24728220.9134
        39.000          37.000
 130102637.79047  83586437.68647  22854798.5064   22854805.4224   22854799.1604
        48.000          43.000
 15  5  1  2 31 30.0000000  0  8G12G25G22G31G24G14G29G32
 114196557.79047  88984301.96647  21730905.1474   21730909.9274   21730904.9444
        53.000          47.000
  97237893.31047  93561963.14247  20406716.1924   20406723.7534   20406716.2214
        56.000          51.000
 114793653.79247  89449581.97847  21844519.3464   21844523.5684   21844520.1444
        52.000          46.000
 125282042.05747  79830144.52247  21937455.8594   21937460.8334   21937455.3304
        52.000          47.000
 128131130.10547  99842403.88347  24382570.1144   24382579.0884   24382569.9854
        42.000          39.000
 107158362.93547  83500006.00947  20391572.3434   20391576.7694   20391572.4864
        54.000          50.000
 119854913.97047 111185582.34047  24710617.3634   24710631.0704   24710616.1644
        38.000          37.000
 130047870.36947  83543761.81847  22844376.4014   22844383.8054   22844376.6724
        49.000          43.000
 15  5  1  2 32  0.0000000  0  8G12G25G22G31G24G14G29G32
 114264839.52747  89037508.50447  21743898.7334   21743903.2274   21743898.6954
        52.000          47.000
  97228093.20447  93554326.71847  20404851.1594   20404858.9024   20404851.3674
        55.000          51.000
 114869575.02647  89508741.30547  21858966.7174   21858971.1874   21858967.6144
        52.000          46.000
 125216400.47947  79778995.27847  21924964.7544   21924969.6164   21924964.4974
        52.000          47.000
 128223974.66247  99914750.19447  24400238.0994   24400247.8084   24400237.8864
        42.000          39.000
 107140726.36147  83486263.22747  20388216.4584   20388220.5964   20388216.6574
        54.000          50.000
 139762478.48757  91113563.69757  24693020.3425   24693033.8485   24693020.3145
        38.000          36.000
 129993572.33247  83501451.70547  22834044.5054   22834051.2774   22834045.0524
        49.000          43.000
 15  5  1  2 32 30.0000000  0  8G12G25G22G31G24G14G29G32
 114333610.47347  89091096.24447  21756985.2694   21756990.1184   21756984.8924
        52.000          47.000
  97218926.05947  93547183.51547  20403106.6604   20403114.4744   20403106.6624
        56.000          51.000
 114945883.23447  89568202.18247  21873487.8984   21873492.2234   21873488.6304
        52.000          46.000
 125151025.07047  79728053.44147  21912523.9314   21912528.9344   21912523.5114
        52.000          47.000
 128316842.38147  99987114.55447  24417910.3374   24417920.5904   24417909.7264
        41.000          38.000
 107123466.07147  83472813.65247  20384931.8794   20384936.0154   20384932.1174
        53.000          50.000
 119670079.36957 111041576.75257  24675428.2515   24675438.7985   24675430.3275
        42.000          37.000
 129939761.50447  83459521.23047  22823804.7714   22823811.0874   22823805.4304
        50.000          44.000
 15  5  1  2 33  0.0000000  0  8G12G25G22G31G24G14G29G32
 114402857.21147  89145054.71547  21770162.5374   21770167.4794   21770162.0254
        53.000          47.000
  97210381.06647  93540525.10747  20401480.5654   20401488.3654   20401480.6824
        56.000          51.000
 115022565.70847  89627954.69447  21888079.9724   21888084.4264   21888080.7014
        51.000          46.000
 125085905.54347  79677310.99747  21900132.1644   21900137.1484   21900132.0684
        52.000          47.000
 128409722.20047 100059488.32847  24435584.9174   24435594.4734   24435583.9174
        39.000          38.000
 107106573.00247  83459650.22347  20381717.1784   20381721.3744   20381717.3334
        53.000          50.000
 139577636.86957  90969541.44257  24657839.4835   24657850.8265   24657839.8595
        42.000          38.000
 129886428.99347  83417963.46247  22813655.6004   22813662.4914   22813656.2174
        49.000          43.000
 15  5  1  2 33 30.0000000  0  8G12G25G22G31G24G14G29G32
 114472577.09447  89199381.87947  21783429.9164   21783434.3454   21783429.5134
        52.000          47.000
  97202458.03047  93534351.33347  20399972.9764   20399980.7414   20399972.9334
        56.000          51.000
 115099619.81247  89687996.78147  21902743.0314   21902747.5794   21902743.7764
        52.000          46.000
 125021042.01247  79626768.02047  21887789.1794   21887794.2254   21887788.8234
        52.000          47.000
 128502613.13347 100131870.74347  24453261.1634   24453271.4924   24453260.5454
        40.000          37.000
 107090048.02847  83446773.61347  20378572.6324   20378576.8994   20378572.8904
        53.000          50.000
 119485258.83457 110897564.98157  24640256.1715   24640266.0705   24640256.4635
        42.000          38.000
 129833576.31847  83376779.60447  22803597.8204   22803604.9074   22803598.4564
        49.000          43.000
 15  5  1  2 34  0.0000000  0  8G12G25G22G31G24G14G29G32
 114542769.77747  89254077.45147  21796787.1374   21796791.7234   21796786.9394
        53.000          47.000
  97195158.84647  93528663.68547  20398584.0114   20398591.7044   20398583.9694
        56.000          51.000
 115177045.13147  89748328.12147  21917476.6054   21917481.1184   21917477.3004
        52.000          46.000
 124956436.89547  79576426.41347  21875495.2814   21875500.2514   21875494.8644
        53.000          47.000
 128595516.75147 100204263.04147  24470939.7024   24470950.0504   24470939.1774
        40.000          37.000
 107073894.66947  83434186.58347  20375498.7664   20375503.0314   20375499.0774
        53.000          50.000
 139392878.49657  90825576.43857  24622678.3635   24622688.7975   24622677.1425
        42.000          38.000
 129781207.51347  83335972.78347  22793632.0984   22793639.4344   22793632.5404
        49.000          43.000
 15  5  1  2 34 30.0000000  0  8G12G25G22G31G24G14G29G32
 114613436.82047  89309142.66347  21810234.7114   21810239.0994   21810234.4744
        53.000          47.000
  97188487.62747  93523465.35847  20397314.2624   20397322.2424   20397314.4184
        55.000          51.000
 115254843.36547  89808950.04247  21932281.2074   21932285.6574   21932281.9804
        52.000          46.000
 124892094.82947  79526289.77847  21863251.4674   21863256.0804   21863251.2944
        52.000          47.000
 128688435.97147 100276667.50247  24488622.6374   24488631.8884   24488622.9444
        40.000          37.000
 107058118.48647  83421893.45247  20372496.5574   20372500.9724   20372496.7344
        53.000          50.000
 119300541.18857 110753626.55657  24605106.8825   24605118.1085   24605105.9115
        43.000          38.000
 129729328.54547  83295547.63547  22783759.9474   22783767.0364   22783760.6994
        49.000          43.000
 15  5  1  2 35  0.0000000  0  8G12G25G22G31G24G14G29G32
 114684567.53047  89364569.16647  21823770.4004   21823775.1584   21823770.2834
        52.000          47.000
  97182436.06947  93518749.88347  20396162.6564   20396170.5714   20396162.6594
        56.000          51.000
 115333003.81747  89869854.21447  21947154.6344   21947159.3864   21947155.3584
        52.000          46.000
 124828007.76947  79476351.84547  21851055.6564   21851060.5934   21851055.1414
        52.000          47.000
 128781362.87747 100349077.97347  24506306.0144   24506316.1424   24506305.6694
        42.000          37.000
 107042712.67347  83409888.92047  20369564.9814   20369569.3724   20369565.3744
        53.000          50.000
 119208241.77047 110681705.29947  24587543.1224   24587554.6354   24587542.1724
        42.000          39.000
 129677932.99447  83255499.20147  22773979.7274   22773986.5174   22773980.3914
        48.000          43.000
 15  5  1  2 35 30.0000000  0  8G12G25G22G31G24G14G29G32
 114756164.58947  89420359.05647  21837395.1694   21837399.8364   21837394.7824
        53.000          47.000
  97177009.19447  93514521.17447  20395130.1334   20395137.9094   20395130.1574
        56.000          51.000
 115411529.55247  89931043.02147  21962097.3874   21962102.3674   21962098.0644
        52.000          46.000
 124764181.40447  79426617.06147  21838909.7004   21838914.7424   21838909.1744
        52.000          47.000
 128874301.49347 100421497.57947  24523992.6424   24524001.9234   24523992.6474
        43.000          38.000
 107027683.57747  83398177.92847  20366705.0764   20366709.4914   20366705.3254
        53.000          50.000
 119115983.60247 110609816.21547  24569986.7164   24569998.1154   24569986.5394
        44.000          38.000
 129627028.00947  83215833.01547  22764293.0644   22764299.6474   22764293.1684
        49.000          43.000
 15  5  1  2 36  0.0000000  0  8G12G25G22G31G24G14G29G32
 114828230.73447  89476514.46547  21851108.9744   21851113.6114   21851108.4044
        53.000          47.000
  97172211.98747  93510783.10847  20394217.3374   20394224.8994   20394217.4694
        56.000          51.000
 115490423.02547  89992518.37547  21977110.5914   21977115.3654   21977111.2854
        52.000          46.000
 124700621.43547  79377089.84747  21826815.0364   21826819.6584   21826814.6194
        53.000          47.000
 128967256.48547 100493929.94547  24541680.9634   24541690.2934   24541681.8944
        43.000          38.000
 107013037.40347  83386765.31647  20363917.9064   20363922.3964   20363918.1684
        53.000          50.000
 119023775.39947 110537966.02147  24552439.5234   24552451.0994   24552438.7344
        44.000          38.000
 129576620.43347  83176554.40647  22754700.8144   22754707.5034   22754701.1194
        49.000          44.000
 15  5  1  2 36 30.0000000  0  8G12G25G22G31G24G14G29G32
 114900749.37547  89533022.47547  21864908.6454   21864913.4614   21864908.4614
        52.000          47.000
  97168030.36447  93507524.71947  20393421.5314   20393429.0424   20393421.5594
        56.000          51.000
 115569668.02347  90054267.63547  21992190.3374   21992195.2024   21992191.0704
        51.000          46.000
 124637314.22747  79327759.60047  21814768.1284   21814772.6304   21814767.5814
        52.000          47.000
 129060213.11947 100566363.55747  24559369.5604   24559379.3884   24559370.7154
        43.000          38.000
 106998761.92747  83375641.56547  20361201.4084   20361205.9914   20361201.6184
        53.000          50.000
 118931605.93547 110466146.00147  24534900.0164   24534910.9934   24534899.7054
        44.000          38.000
 129526698.21547  83137654.01847  22745200.9234   22745207.9534   22745201.4434
        49.000          44.000
 15  5  1  2 37  0.0000000  0  8G12G25G22G31G24G14G29G32
 114973724.81347  89589886.42247  21878795.3384   21878800.3564   21878794.9194
        52.000          47.000
  97164470.86147  93504751.10547  20392744.0764   20392751.7044   20392744.2734
        56.000          51.000
 115649269.05247  90116294.32747  22007338.0484   22007342.8584   22007338.6304
        51.000          46.000
 124574266.78247  79278631.77047  21802770.3944   21802775.1064   21802770.2124
        52.000          47.000
 129153178.03847 100638803.65647  24577060.5034   24577070.5634   24577060.4644
        43.000          38.000
 106984865.33447  83364813.04047  20358556.9414   20358561.6214   20358557.0344
        53.000          50.000
 118839485.45147 110394364.15147  24517369.9924   24517380.6404   24517370.2064
        44.000          38.000
 129477269.88747  83099138.46147  22735794.4594   22735802.0574   22735794.9704
        49.000          43.000
 15  5  1  2 37 30.0000000  0  8G12G25G22G31G24G14G29G32
 115047153.64547  89647103.65947  21892768.3574   21892773.4094   21892767.9904
        52.000          47.000
  97161532.49347  93502461.48447  20392184.8334   20392192.6224   20392184.8914
        56.000          51.000
 115729222.53147  90178595.66147  22022552.6914   22022557.4604   22022553.1264
        51.000          45.000
 124511478.87647  79229706.18047  21790822.2854   21790827.1724   21790821.7604
        53.000          47.000
 129246149.64847 100711248.97147  24594752.3924   24594762.2794   24594751.8204
        43.000          38.000
 106971348.24847  83354280.24347  20355984.7964   20355989.2964   20355984.9784
        53.000          50.000
 118747416.24047 110322622.22647  24499849.6014   24499859.1814   24499849.5004
        44.000          38.000
 129428336.44347  83061008.53647  22726482.9774   22726490.3414   22726483.4054
        49.000          44.000
 15  5  1  2 38  0.0000000  0  8G12G25G22G31G24G14G29G32
 115121020.65347  89704662.33947  21906824.9164   21906829.5704   21906824.7174
        53.000          47.000
  97159202.31347  93500645.77547  20391741.5454   20391749.3134   20391741.5834
        56.000          51.000
 115809513.57847  90241160.03047  22037831.4304   22037836.3664   22037832.0404
        51.000          45.000
 124448937.88047  79180972.98347  21778921.0894   21778925.9484   21778920.5994
        52.000          47.000
 129339114.91747 100783689.32947  24612443.0564   24612452.3154   24612442.3084
        41.000          38.000
 106958199.13247  83344034.17147  20353482.6404   20353486.8824   20353482.9614
        54.000          50.000
 118655389.43547 110250913.30747  24482336.8754   24482347.1134   24482336.1104
        44.000          38.000
 129379887.00547  83023255.75747  22717263.3684   22717270.9544   22717263.9014
        50.000          44.000
 15  5  1  2 38 30.0000000  0  8G12G25G22G31G24G14G29G32
 115195355.31947  89762585.42147  21920970.4404   21920974.7874   21920970.3604
        52.000          47.000
  97157511.98047  93499328.64447  20391420.0014   20391427.7184   20391420.2124
        56.000          51.000
 115890171.54047  90304010.30347  22053180.4224   22053185.2684   22053180.9864
        51.000          45.000
 124386676.27047  79132457.48647  21767073.2454   21767077.6164   21767073.1534
        53.000          47.000
 129432105.05747 100856149.07847  24630137.6734   24630148.2984   24630136.7404
        41.000          37.000
 106945451.12847  83334100.65347  20351056.8774   20351060.9744   20351057.2424
        53.000          50.000
 118563439.10747 110179263.90947  24464839.3554   24464850.3174   24464838.5614
        44.000          38.000
 129331955.28047  82985906.38847  22708142.6574   22708149.8394   22708143.3494
        49.000          44.000
 15  5  1  2 39  0.0000000  0  8G12G25G22G31G24G14G29G32
 115270129.64447  89820851.10347  21935199.2934   21935203.8674   21935199.2924
        52.000          47.000
  97156435.99647  93498490.23147  20391215.0104   20391222.9904   20391215.1824
        56.000          51.000
 115971169.00447  90367125.12447  22068593.7384   22068598.5594   22068594.5594
        51.000          45.000
 124324669.39447  79084140.48147  21755273.9824   21755277.9854   21755273.7014
        53.000          47.000
 129525094.19447 100928608.01647  24647833.3384   24647843.4184   24647833.0214
        41.000          38.000
 106933080.59147  83324461.26347  20348702.9014   20348707.0694   20348703.2254
        53.000          50.000
 118471543.75647 110107657.32847  24447352.4194   24447362.9644   24447353.5644
        45.000          37.000
 129284517.64947  82948942.03347  22699115.3404   22699122.4854   22699115.7634
        50.000          44.000
 15  5  1  2 39 30.0000000  0  8G12G25G22G31G24G14G29G32
 115345351.65247  89879465.63447  21949513.8604   21949518.4374   21949513.6224
        52.000          47.000
  97155984.19847  93498138.19747  20391128.9414   20391136.9474   20391129.0544
        56.000          51.000
 116052513.47247  90430510.33347  22084073.3074   22084078.2064   22084074.4894
        51.000          45.000
 124262927.51847  79036029.97247  21743524.6364   21743528.9004   21743524.5864
        53.000          47.000
 129618092.36647 101001074.02847  24665530.6564   24665540.3914   24665530.3264
        41.000          37.000
 106921098.84947  83315124.84347  20346422.7414   20346427.1184   20346422.9844
        53.000          50.000
 118379716.95047 110036104.16747  24429878.2794   24429888.8404   24429879.1324
        44.000          37.000
 129237586.10247  82912372.02547  22690184.3084   22690191.4184   22690184.7834
        49.000          43.000
