     2.11           OBSERVATION DATA    G (GPS)             RINEX VERSION / TYPE
teqc  2013Mar15     gpsops              20150507 19:36:20UTCPGM / RUN BY / DATE
Linux 2.4.21-27.ELsmp|Opteron|gcc -static|Linux x86_64|=+   COMMENT
BIT 2 OF LLI FLAGS DATA COLLECTED UNDER A/S CONDITION       COMMENT
CRAO                                                        MARKER NAME
12337M002                                                   MARKER NUMBER
Reilnger, Rob       MIT                                     OBSERVER / AGENCY
UC120031621         ASHTECH UZ-12       CQ00                REC # / TYPE / VERS
CR520003501         ASH701945C_M    SCIS                    ANT # / TYPE
  3783897.0146  2551404.4833  4441264.3100                  APPROX POSITION XYZ
        0.0800        0.0000        0.0000                  ANTENNA: DELTA H/E/N
     1     1                                                WAVELENGTH FACT L1/2
     7    L1    L2    P1    P2    C1    S1    S2            # / TYPES OF OBSERV
    30.0000                                                 INTERVAL
                                                            COMMENT
This data is provided as a public service by NASA/JPL.      COMMENT
No warranty is expressed or implied regarding suitability   COMMENT
for use.  For further information, contact:                 COMMENT
Dave Stowers, NASA/JPL m/s 238-600                          COMMENT
4800 Oak Grove Drive, Pasadena CA 91109 USA                 COMMENT
                                                            COMMENT
Forced Modulo Decimation to 30 seconds                      COMMENT
 SNR is mapped to RINEX snr flag value [0-9]                COMMENT
  L1 & L2: min(max(int(snr_dBHz/6), 0), 9)                  COMMENT
pseudorange smoothing corrections not applied               COMMENT
  2015     5     1     0     0    0.0000000     GPS         TIME OF FIRST OBS
                                                            END OF HEADER
 15  5  1  0  0  0.0000000  0  9G11G01G04G32G18G22G19G14G27
 -12154039.14248  -9412395.46347  22128746.4704   22128748.6844   22128746.376
        49.0004         44.0004
  -6692409.32647  -5125017.04446  23587227.9134   23587233.2834   23587229.070
        44.0004         39.0004
 -18865694.82848 -14635848.74147  21216258.5514   21216260.8474   21216258.585
        52.0004         47.0004
 -16391652.80148 -12695523.80047  21792266.0634   21792269.9694   21792266.114
        50.0004         45.0004
  -8767090.39747  -6568213.30946  23465530.3974   23465530.7114   23465530.799
        45.0004         40.0004
 -16558605.45049 -12849862.26748  21066488.6814   21066489.7224   21066489.603
        54.0004         49.0004
 -19778000.58049 -15349219.09848  20967885.5994   20967887.0514   20967886.906
        55.0004         50.0004
 -17535877.05248 -13601700.34048  21153428.6864   21153430.8734   21153429.365
        53.0004         49.0004
 -15880333.59948 -12359310.60248  21758145.4514   21758150.1854   21758145.042
        53.0004         48.0004
 15  5  1  0  0 30.0000000  0  9G11G01G04G32G18G22G19G14G27
 -12240132.19648  -9479480.92847  22112363.7954   22112365.2484   22112363.937
        49.0004         44.0004
  -6785172.20147  -5197299.78146  23569576.3354   23569581.9164   23569577.359
        44.0004         40.0004
 -18932991.04248 -14688287.34247  21203452.0604   21203454.8844   21203452.011
        52.0004         47.0004
 -16464886.98448 -12752589.35847  21778329.6564   21778333.2324   21778330.540
        50.0004         45.0004
  -8687445.11447  -6506152.08446  23480686.1944   23480685.8894   23480687.301
        45.0004         40.0004
 -16508005.09149 -12810433.42848  21076117.9604   21076119.0254   21076119.090
        54.0004         49.0004
 -19748804.28249 -15326468.74748  20973441.7384   20973442.7404   20973443.054
        55.0004         50.0004
 -17564138.95948 -13623722.58848  21148050.5324   21148052.7124   21148050.948
        53.0004         49.0004
 -15796658.02048 -12294108.87448  21774068.1174   21774073.1254   21774068.097
        53.0004         48.0004
 15  5  1  0  1  0.0000000  0  9G11G01G04G32G18G22G19G14G27
 -12325924.73148  -9546332.23147  22096037.7744   22096039.1494   22096038.481
        49.0004         44.0004
  -6877856.81247  -5269521.51146  23551939.5724   23551944.3924   23551937.971
        44.0004         40.0004
 -18999995.99248 -14740498.97547  21190701.2234   21190704.0714   21190701.277
        52.0004         47.0004
 -16537793.67848 -12809399.73447  21764456.0314   21764460.3304   21764456.756
        50.0004         46.0004
  -8607723.52647  -6444031.38346  23495855.9214   23495856.2774   23495856.936
        45.0004         40.0004
 -16457150.33049 -12770806.33848  21085795.2614   21085795.6724   21085796.045
        54.0004         49.0004
 -19719030.41949 -15303268.34748  20979107.3184   20979108.5604   20979108.274
        55.0004         50.0004
 -17591844.31748 -13645311.16448  21142778.1324   21142780.3754   21142778.107
        53.0004         48.0004
 -15712592.59748 -12228603.37148  21790065.6724   21790070.6194   21790065.334
        53.0004         48.0004
 15  5  1  0  1 30.0000000  0  9G11G01G04G32G18G22G19G14G27
 -12411415.64748  -9612948.50747  22079768.7484   22079770.5404   22079769.412
        49.0004         44.0004
  -6970463.10647  -5341682.23446  23534315.4024   23534320.9414   23534314.143
        44.0004         39.0004
 -19066709.25148 -14792483.32647  21178006.6464   21178008.8364   21178006.025
        52.0004         47.0004
 -16610373.49948 -12865955.39647  21750643.9164   21750648.2074   21750645.195
        50.0004         46.0004
  -8527927.89547  -6381852.96846  23511041.0554   23511043.3724   23511041.404
        45.0004         40.0004
 -16406043.59249 -12730982.91248  21095520.6064   21095520.7754   21095521.560
        54.0004         49.0004
 -19688681.19949 -15279619.61248  20984882.7004   20984883.7704   20984883.685
        55.0004         50.0004
 -17618993.58548 -13666466.42948  21137612.2614   21137614.0434   21137613.012
        53.0004         48.0004
 -15628141.07148 -12162797.01348  21806136.2504   21806141.3874   21806137.040
        53.0004         48.0004
 15  5  1  0  2  0.0000000  0  9G11G01G04G32G18G22G19G14G27
 -12496603.98248  -9679329.00247  22063558.7624   22063560.7894   22063559.174
        49.0004         45.0004
  -7062991.03347  -5413781.89946  23516708.5964   23516714.0954   23516709.356
        45.0004         40.0004
 -19133130.46048 -14844240.10447  21165367.1924   21165369.6464   21165366.879
        52.0004         47.0004
 -16682626.97548 -12922256.77047  21736895.5814   21736899.2154   21736896.082
        50.0004         46.0004
  -8448059.95747  -6319618.18546  23526238.6934   23526240.7334   23526239.313
        44.0004         40.0004
 -16354687.40049 -12690965.09548  21105293.4254   21105293.6974   21105294.401
        54.0004         49.0004
 -19657758.91149 -15255524.33248  20990767.1524   20990768.5774   20990767.938
        55.0004         50.0004
 -17645587.54348 -13687188.98248  21132551.9084   21132553.7344   21132552.070
        53.0004         49.0004
 -15543307.15648 -12096692.68548  21822279.3714   21822283.7484   21822278.897
        53.0004         48.0004
 15  5  1  0  2 30.0000000  0  9G11G01G04G32G18G22G19G14G27
 -12581485.03548  -9745470.05747  22047406.3184   22047406.9934   22047407.487
        49.0004         45.0004
  -7155437.00947  -5485817.71346  23499117.9284   23499121.8284   23499118.346
        45.0004         41.0004
 -19199255.43448 -14895766.05148  21152783.5224   21152786.7354   21152783.718
        52.0004         48.0004
 -16754551.17048 -12978301.55747  21723209.1464   21723212.4414   21723209.501
        51.0004         46.0004
  -8368118.75747  -6257326.37746  23541451.3174   23541452.8604   23541452.648
        44.0004         40.0004
 -16303080.78949 -12650752.15348  21115113.6414   21115114.0484   21115114.662
        54.0004         49.0004
 -19626262.16349 -15230981.42448  20996760.9674   20996762.0164   20996762.337
        55.0004         50.0004
 -17671622.49948 -13707475.93948  21127597.4384   21127599.4254   21127598.042
        53.0004         49.0004
 -15458091.00948 -12030290.51447  21838495.0234   21838500.4574   21838494.761
        52.0004         47.0004
 15  5  1  0  3  0.0000000  0  9G11G01G04G32G18G22G19G14G27
 -12666059.11048  -9811371.89447  22031311.9214   22031313.0474   22031312.900
        49.0004         44.0004
  -7247802.27947  -5557790.63046  23481540.6964   23481545.7204   23481540.740
        45.0004         41.0004
 -19265085.29948 -14947062.03548  21140256.3334   21140259.7214   21140255.856
        52.0004         48.0004
 -16826147.91348 -13034091.18747  21709584.4954   21709587.5894   21709585.207
        51.0004         46.0004
  -8288107.64247  -6194980.06146  23556677.6684   23556679.1364   23556680.655
        44.0004         40.0004
 -16251227.54149 -12610347.02748  21124981.2284   21124981.3324   21124981.976
        54.0004         49.0004
 -19594194.39849 -15205993.56348  21002862.9384   21002864.2224   21002864.001
        55.0004         50.0004
 -17697100.42248 -13727328.85148  21122748.6204   21122750.9404   21122749.754
        53.0004         49.0004
 -15372497.69748 -11963594.45148  21854783.4124   21854788.6114   21854783.721
        52.0004         48.0004
 15  5  1  0  3 30.0000000  0  9G11G01G04G32G18G22G19G14G27
 -12750322.28348  -9877031.48247  22015277.0974   22015279.4274   22015277.713
        49.0004         45.0004
  -7340083.79147  -5629698.27946  23463979.5264   23463985.7724   23463977.784
        45.0004         40.0004
 -19330616.63648 -14998125.40247  21127786.4694   21127789.2684   21127786.378
        52.0004         47.0004
 -16897414.74848 -13089623.75247  21696022.1754   21696026.3354   21696022.651
        51.0004         46.0004
  -8208025.35147  -6132578.30546  23571915.9834   23571917.8544   23571917.903
        44.0004         40.0004
 -16199126.76349 -12569749.02148  21134895.8664   21134896.0634   21134897.077
        54.0004         49.0004
 -19561554.49249 -15180559.87648  21009074.0524   21009075.4844   21009075.218
        55.0004         50.0004
 -17722018.90248 -13746745.82948  21118007.0324   21118009.2354   21118007.905
        53.0004         49.0004
 -15286527.89348 -11896605.02148  21871142.7584   21871148.1724   21871142.997
        53.0004         48.0004
 15  5  1  0  4  0.0000000  0  9G11G01G04G32G18G22G19G14G27
 -12834271.40648  -9942446.36847  21999302.2714   21999304.6264   21999303.073
        49.0004         45.0004
  -7432279.77547  -5701539.25346  23446434.9224   23446441.3294   23446433.528
        45.0004         40.0004
 -19395847.05748 -15048954.28548  21115373.9684   21115375.7744   21115373.714
        52.0004         48.0004
 -16968350.67348 -13144898.46047  21682523.7414   21682528.1804   21682524.119
        51.0004         46.0004
  -8127872.54447  -6070121.58946  23587169.4324   23587170.7174   23587169.115
        45.0004         40.0004
 -16146779.23849 -12528958.73948  21144856.7254   21144857.6194   21144857.688
        54.0004         49.0004
 -19528343.28649 -15154681.03348  21015394.2004   21015395.0264   21015395.255
        55.0004         50.0004
 -17746376.68848 -13765725.90948  21113371.8004   21113374.1304   21113372.172
        53.0004         49.0004
 -15200183.66348 -11829323.84047  21887573.2194   21887578.1434   21887572.965
        52.0004         47.0004
 15  5  1  0  4 30.0000000  0  9G11G01G04G32G18G22G19G14G27
 -12917906.41048 -10007616.47647  21983387.0804   21983388.6034   21983387.348
        49.0004         44.0004
  -7524390.72447  -5773313.98146  23428906.7944   23428913.1814   23428906.337
        45.0004         40.0004
 -19460776.92148 -15099548.97248  21103017.9324   21103020.4474   21103017.721
        52.0004         48.0004
 -17038956.86648 -13199916.23647  21669087.6644   21669092.1654   21669088.418
        51.0004         46.0004
  -8047652.08647  -6007612.13446  23602436.0544   23602438.8914   23602436.195
        45.0004         40.0004
 -16094188.19849 -12487978.71148  21154864.4544   21154865.5364   21154865.337
        54.0004         49.0004
 -19494563.50749 -15128359.13448  21021822.4124   21021823.5974   21021823.568
        55.0004         50.0004
 -17770175.26948 -13784270.23648  21108842.6744   21108845.6364   21108842.876
        53.0004         48.0004
 -15113469.38448 -11761754.30347  21904075.0644   21904079.5564   21904074.836
        52.0004         47.0004
 15  5  1  0  5  0.0000000  0  9G11G01G04G32G18G22G19G14G27
 -13001222.32748 -10072537.93247  21967532.2074   21967534.3894   21967533.150
        49.0004         45.0004
  -7616412.76147  -5845019.43546  23411395.2824   23411401.5214   23411396.463
        45.0004         40.0004
 -19525401.96848 -15149906.14548  21090720.0754   21090722.5424   21090720.170
        52.0004         48.0004
 -17109230.03748 -13254674.51647  21655715.3654   21655719.2884   21655715.920
        51.0004         46.0004
  -7967362.00747  -5945048.43446  23617715.4494   23617716.1964   23617716.007
        45.0004         40.0004
 -16041352.41949 -12446807.97148  21164918.8994   21164919.9344   21164919.710
        54.0004         49.0004
 -19460213.44849 -15101592.86148  21028358.9904   21028360.4284   21028360.074
        55.0004         50.0004
 -17793411.25748 -13802376.18548  21104420.9734   21104423.4434   21104421.277
        53.0004         48.0004
 -15026385.03048 -11693896.38248  21920646.6364   21920651.1934   21920646.898
        52.0004         48.0004
 15  5  1  0  5 30.0000000  0  9G11G01G04G32G18G22G19G14G27
 -13084219.79148 -10137211.26147  21951738.8844   21951740.6064   21951738.979
        49.0004         45.0004
  -7708347.62847  -5916656.97446  23393901.1654   23393907.4874   23393901.217
        45.0004         41.0004
 -19589723.64048 -15200026.91248  21078480.0884   21078483.3144   21078480.182
        52.0004         48.0004
 -17179172.61548 -13309175.19947  21642405.6654   21642409.3474   21642406.341
        51.0004         46.0004
  -7887006.33247  -5882433.63346  23633005.3804   23633006.8354   23633006.558
        45.0004         40.0004
 -15988275.78349 -12405449.55648  21175018.8634   21175019.8994   21175019.814
        54.0004         49.0004
 -19425297.25049 -15074385.45048  21035003.3414   21035004.2564   21035004.600
        54.0004         50.0004
 -17816087.16148 -13820045.70748  21100106.4484   21100108.8084   21100106.927
        53.0004         49.0004
 -14938936.17348 -11625754.46047  21937287.4294   21937292.4944   21937286.920
        52.0004         47.0004
 15  5  1  0  6  0.0000000  0  9G11G01G04G32G18G22G19G14G27
 -13166893.89748 -10201632.61847  21936005.8484   21936008.2364   21936005.932
        49.0004         45.0004
  -7800191.29247  -5988223.42546  23376423.9434   23376430.4714   23376423.684
        46.0004         41.0004
 -19653737.58048 -15249907.88148  21066299.0244   21066301.5844   21066298.907
        52.0004         48.0004
 -17248781.35248 -13363415.73747  21629160.2534   21629163.7484   21629160.591
        51.0004         46.0004
  -7806583.25547  -5819766.31146  23648308.7354   23648310.3104   23648308.889
        45.0004         40.0004
 -15934956.95649 -12363902.42748  21185165.2544   21185166.4334   21185166.091
        54.0004         49.0004
 -19389813.38149 -15046735.70348  21041755.4514   21041756.7894   21041756.335
        54.0004         50.0004
 -17838199.36748 -13837275.97648  21095898.2444   21095901.2104   21095898.867
        53.0004         49.0004
 -14851122.64348 -11557328.37447  21953997.7614   21954002.8724   21953998.578
        52.0004         47.0004
 15  5  1  0  6 30.0000000  0  9G11G01G04G32G18G22G19G14G27
 -13249243.42548 -10265801.05347  21920335.6004   21920336.9024   21920335.705
        49.0004         44.0004
  -7891943.22847  -6059718.41647  23358964.7354   23358970.6614   23358964.133
        46.0004         42.0004
 -19717442.76248 -15299548.26848  21054176.2204   21054178.6544   21054175.741
        53.0004         48.0004
 -17318056.51748 -13417396.34447  21615977.4874   21615981.2424   21615978.274
        51.0004         46.0004
  -7726094.21947  -5757047.61346  23663624.1734   23663627.4554   23663625.519
        44.0004         40.0004
 -15881397.98748 -12322168.17448  21195357.2664   21195357.7404   21195357.941
        53.0004         49.0004
 -19353763.79749 -15018645.12748  21048615.3164   21048616.9574   21048616.043
        54.0004         50.0004
 -17859748.57648 -13854067.55248  21091797.7364   21091799.9124   21091798.288
        53.0004         49.0004
 -14762947.91648 -11488620.81447  21970776.6354   21970781.3894   21970776.540
        52.0004         47.0004
 15  5  1  0  7  0.0000000  0  9G11G01G04G32G18G22G19G14G27
 -13331266.97148 -10329715.46647  21904726.6264   21904729.1474   21904726.980
        49.0004         45.0004
  -7983603.40547  -6131141.91947  23341522.6224   23341528.0654   23341521.773
        46.0004         42.0004
 -19780838.96448 -15348947.89248  21042111.5874   21042114.4184   21042111.607
        52.0004         48.0004
 -17386998.77148 -13471117.55347  21602857.5714   21602861.1254   21602858.639
        51.0004         46.0004
  -7645541.47847  -5694279.27146  23678954.2814   23678957.3624   23678955.663
        44.0004         40.0004
 -15827601.19748 -12280248.59348  21205594.3634   21205595.1514   21205595.375
        53.0004         49.0004
 -19317150.79849 -14990115.52848  21055583.4714   21055583.7814   21055584.618
        54.0004         50.0004
 -17880735.34548 -13870420.86048  21087804.4464   21087806.5844   21087804.864
        53.0004         49.0004
 -14674415.83448 -11419634.80847  21987623.6194   21987628.9584   21987622.419
        52.0004         47.0004
 15  5  1  0  7 30.0000000  0  9G11G01G04G32G18G22G19G14G27
 -13412960.69848 -10393372.89547  21889180.2384   21889182.7854   21889181.510
        49.0004         44.0004
  -8075168.72347  -6202491.48246  23324095.7874   23324102.2464   23324096.775
        46.0004         41.0004
 -19843922.59348 -15398103.94648  21030107.9984   21030110.3624   21030107.578
        53.0004         48.0004
 -17455605.71048 -13524577.47147  21589802.0224   21589805.9944   21589802.868
        51.0004         46.0004
  -7564924.13047  -5631460.58146  23694294.9754   23694296.6464   23694295.906
        44.0004         39.0004
 -15773566.46349 -12238143.60748  21215877.2474   21215877.4334   21215878.269
        54.0004         49.0004
 -19279973.80649 -14961146.45448  21062657.0884   21062658.1794   21062658.085
        54.0004         50.0004
 -17901157.53548 -13886334.24148  21083917.6454   21083920.4594   21083918.664
        53.0004         49.0004
 -14585527.16148 -11350370.94447  22004538.4164   22004544.3554   22004538.526
        52.0004         47.0004
 15  5  1  0  8  0.0000000  0  9G11G01G04G32G18G22G19G14G27
 -13494323.39948 -10456772.38147  21873698.0114   21873700.0694   21873698.753
        49.0004         45.0004
  -8166639.02747  -6273767.00946  23306690.1364   23306695.8984   23306690.257
        46.0004         41.0004
 -19906693.48148 -15447016.30948  21018162.6734   21018165.6634   21018162.958
        53.0004         48.0004
 -17523878.00948 -13577776.62747  21576810.3134   21576813.9534   21576810.878
        51.0004         46.0004
  -7484244.23947  -5568593.12846  23709646.7984   23709649.3904   23709647.239
        44.0004         39.0004
 -15719295.69149 -12195854.69648  21226204.3944   21226205.3894   21226205.638
        54.0004         49.0004
 -19242234.99949 -14931739.59848  21069838.3424   21069839.7904   21069838.707
        54.0004         49.0004
 -17921015.80848 -13901808.21148  21080139.0174   21080141.3484   21080139.658
        53.0004         49.0004
 -14496285.73348 -11280832.19947  22021521.5154   22021525.8504   22021521.141
        52.0004         47.0004
 15  5  1  0  8 30.0000000  0  9G11G01G04G32G18G22G19G14G27
 -13575349.95248 -10519909.93747  21858279.5864   21858281.0044   21858280.129
        49.0004         45.0004
  -8258010.11147  -6344965.18146  23289303.2014   23289309.0274   23289303.229
        45.0004         41.0004
 -19969146.85148 -15495681.25448  21006277.7694   21006280.7074   21006277.358
        53.0004         48.0004
 -17591812.22948 -13630712.33647  21563882.4244   21563886.5404   21563883.562
        51.0004         46.0004
  -7403499.69847  -5505675.27046  23725010.8734   23725015.4244   23725011.402
        44.0004         39.0004
 -15664787.20549 -12153380.55548  21236577.3844   21236576.9944   21236578.427
        54.0004         49.0004
 -19203932.87349 -14901893.79948  21077127.1854   21077128.5204   21077128.524
        54.0004         50.0004
 -17940306.51848 -13916839.91148  21076468.1554   21076470.1434   21076468.677
        53.0004         49.0004
 -14406691.29848 -11211018.38347  22038570.5854   22038575.2804   22038570.775
        52.0004         47.0004
 15  5  1  0  9  0.0000000  0  9G11G01G04G32G18G22G19G14G27
 -13656042.89348 -10582787.52047  21842924.5364   21842925.7364   21842925.263
        50.0004         45.0004
  -8349285.11547  -6416088.52146  23271935.2904   23271940.4974   23271935.469
        45.0004         41.0004
 -20031285.72648 -15544101.13548  20994453.3724   20994456.2244   20994452.844
        53.0004         48.0004
 -17659412.44148 -13683387.79647  21551018.5164   21551022.4464   21551020.018
        51.0004         46.0004
  -7322696.09147  -5442711.43346  23740390.2744   23740392.3774   23740391.464
        44.0004         40.0004
 -15610047.03049 -12110725.86548  21246993.8164   21246994.5054   21246994.854
        54.0004         49.0004
 -19165073.17649 -14871613.53148  21084522.0704   21084523.2484   21084522.883
        54.0004         50.0004
 -17959034.18748 -13931432.88448  21072904.3804   21072906.7574   21072904.924
        53.0004         49.0004
 -14316751.01648 -11140935.07047  22055684.6984   22055690.9854   22055684.995
        51.0004         47.0004
 15  5  1  0  9 30.0000000  0  9G11G01G04G32G18G22G19G14G27
 -13736396.14748 -10645400.41047  21827633.9604   21827634.7314   21827633.974
        50.0004         45.0004
  -8440459.05147  -6487133.10346  23254584.9584   23254590.6764   23254584.976
        46.0004         41.0004
 -20093104.69948 -15592271.74348  20982689.6764   20982692.6104   20982689.666
        53.0004         48.0004
 -17726674.41548 -13735799.69047  21538219.1184   21538222.5724   21538219.432
        51.0004         46.0004
  -7241830.69247  -5379699.45846  23755778.5284   23755779.9854   23755779.487
        44.0004         39.0004
 -15555072.40648 -12067888.51348  21257455.1604   21257455.3144   21257455.997
        53.0004         49.0004
 -19125653.34549 -14840896.78548  21092023.2444   21092024.9044   21092024.276
        54.0004         50.0004
 -17977194.62848 -13945583.86948  21069448.6264   21069450.9634   21069448.907
        53.0004         49.0004
 -14226463.85748 -11070581.46347  22072866.7444   22072872.1654   22072866.846
        51.0004         47.0004
 15  5  1  0 10  0.0000000  0  9G11G01G04G32G18G22G19G14G27
 -13816408.74748 -10707747.87047  21812407.7924   21812409.1914   21812407.751
        50.0004         45.0004
  -8531532.03947  -6558099.01147  23237253.9064   23237260.5824   23237253.616
        46.0004         42.0004
 -20154603.67548 -15640193.02448  20970987.1134   20970989.5324   20970986.937
        53.0004         48.0004
 -17793599.15048 -13787948.81347  21525483.2754   21525487.8344   21525483.925
        51.0004         46.0004
  -7160905.51847  -5316640.90246  23771177.6504   23771181.0564   23771178.356
        44.0004         39.0004
 -15499866.22648 -12024870.71148  21267960.6314   21267960.7784   21267961.634
        53.0004         49.0004
 -19085676.07649 -14809745.68348  21099631.8254   21099632.2974   21099633.293
        54.0004         50.0004
 -17994788.72148 -13959293.53548  21066100.4044   21066102.8934   21066100.888
        53.0004         49.0004
 -14135833.93948 -10999960.78947  22090112.9234   22090117.8684   22090113.169
        52.0004         47.0004
 15  5  1  0 10 30.0000000  0  9G11G01G04G32G18G22G19G14G27
 -13896078.41948 -10769828.11447  21797246.7424   21797248.7544   21797247.053
        50.0004         45.0004
  -8622502.66847  -6628985.16747  23219942.5234   23219950.4044   23219941.695
        47.0004         42.0004
 -20215781.03548 -15687863.68048  20959344.7794   20959347.9294   20959344.537
        53.0004         48.0004
 -17860185.96948 -13839834.61747  21512812.8934   21512816.2734   21512814.149
        51.0004         47.0004
  -7079921.42647  -5253536.38946  23786588.3914   23786591.4044   23786588.136
        44.0004         39.0004
 -15444429.87648 -11981673.56148  21278509.6704   21278510.2134   21278510.849
        53.0004         49.0004
 -19045142.87749 -14778161.38148  21107344.1324   21107345.6304   21107344.789
        54.0004         50.0004
 -18011816.18648 -13972561.66848  21062860.4904   21062862.5414   21062860.537
        53.0004         49.0004
 -14044863.91848 -10929075.08847  22107423.7264   22107429.5684   22107424.512
        51.0004         47.0004
 15  5  1  0 11  0.0000000  0  9G11G01G04G32G18G22G19G14G27
 -13975401.84648 -10831638.54547  21782152.2274   21782152.9484   21782152.706
        50.0004         45.0004
  -8713368.44347  -6699789.62347  23202652.3474   23202658.7424   23202653.080
        47.0004         42.0004
 -20276633.69448 -15735281.31148  20947765.1184   20947767.8364   20947765.171
        53.0004         48.0004
 -17926433.34348 -13891455.91247  21500206.3754   21500210.7224   21500208.025
        51.0004         47.0004
  -6998878.02847  -5190385.69846  23802009.9074   23802012.7764   23802011.600
        44.0004         39.0004
 -15388763.11348 -11938296.87948  21289102.9884   21289103.1784   21289103.697
        53.0004         49.0004
 -19004053.92349 -14746144.02548  21115162.5924   21115164.1834   21115164.028
        54.0004         49.0004
 -18028275.49348 -13985387.08848  21059727.8244   21059730.4954   21059728.154
        53.0004         49.0004
 -13953555.31448 -10857925.54747  22124799.2674   22124804.5154   22124799.677
        51.0004         47.0004
 15  5  1  0 11 30.0000000  0  9G11G01G04G32G18G22G19G14G27
 -14054377.96748 -10893178.35747  21767123.0764   21767124.6304   21767123.371
        49.0004         45.0004
  -8804129.04047  -6770512.11747  23185381.9514   23185387.7114   23185381.481
        47.0004         42.0004
 -20337161.30348 -15782445.67248  20936247.4354   20936249.4044   20936247.122
        53.0004         48.0004
 -17992341.84648 -13942813.16147  21487664.0454   21487668.2934   21487665.045
        51.0004         47.0004
  -6917777.20847  -5127190.27046  23817444.6744   23817445.1584   23817445.932
        44.0004         39.0004
 -15332868.07748 -11894742.30248  21299739.1054   21299739.7894   21299739.903
        53.0004         48.0004
 -18962411.37249 -14713695.30148  21123087.7024   21123088.3274   21123088.412
        54.0004         49.0004
 -18044167.67948 -13997770.59348  21056703.6324   21056706.0624   21056704.364
        53.0004         49.0004
 -13861911.85848 -10786515.07547  22142239.0584   22142243.5894   22142239.008
        51.0004         47.0004
 15  5  1  0 12  0.0000000  0  9G11G01G04G32G18G22G19G14G27
 -14133005.21448 -10954446.31247  21752160.9474   21752161.7294   21752161.495
        50.0004         45.0004
  -8894784.03847  -6841152.32247  23168128.9184   23168135.6984   23168129.593
        47.0004         42.0004
 -20397363.33148 -15829356.33248  20924791.3524   20924793.6094   20924791.330
        53.0004         48.0004
 -18057911.89348 -13993906.66047  21475187.0224   21475190.4034   21475187.807
        51.0004         47.0004
  -6836621.12647  -5063951.80246  23832887.5594   23832887.3404   23832888.968
        44.0004         39.0004
 -15276747.11948 -11851011.68848  21310418.6254   21310419.0034   21310418.982
        53.0004         48.0004
 -18920217.50349 -14680816.97748  21131116.5104   21131118.2874   21131117.330
        54.0004         49.0004
 -18059493.14948 -14009712.50548  21053788.1774   21053789.9124   21053788.181
        53.0004         49.0004
 -13769937.17648 -10714846.51347  22159741.1984   22159746.0284   22159741.373
        52.0004         47.0004
 15  5  1  0 12 30.0000000  0  9G11G01G04G32G18G22G19G14G27
 -14211279.99948 -11015439.63747  21737265.5274   21737267.2074   21737265.926
        50.0004         45.0004
  -8985330.52547  -6911707.97146  23150898.4684   23150905.1874   23150898.898
        46.0004         41.0004
 -20457236.21648 -15876010.51148  20913397.5914   20913399.9294   20913397.335
        53.0004         48.0004
 -18123141.55448 -14044734.92947  21462773.7824   21462777.5204   21462774.766
        51.0004         47.0004
  -6755408.37147  -5000669.16646  23848341.4344   23848345.3874   23848340.693
        44.0004         39.0004
 -15220399.83248 -11807104.71748  21321141.2934   21321141.5434   21321142.621
        53.0004         49.0004
 -18877472.16949 -14647508.93448  21139251.1864   21139252.3004   21139252.574
        54.0004         49.0004
 -18074250.42648 -14021211.66548  21050979.0964   21050982.0254   21050979.696
        53.0004         49.0004
 -13677632.43448 -10642920.77447  22177305.5604   22177311.6374   22177305.675
        52.0004         47.0004
 15  5  1  0 13  0.0000000  0  9G11G01G04G32G18G22G19G14G27
 -14289199.11148 -11076155.79147  21722438.5094   21722439.9084   21722438.862
        50.0004         45.0004
  -9075766.23347  -6982177.28646  23133688.4834   23133695.7294   23133689.036
        46.0004         41.0004
 -20516777.67648 -15922406.43748  20902067.2014   20902070.0364   20902067.547
        53.0004         48.0004
 -18188029.45148 -14095296.90147  21450425.9514   21450429.5314   21450426.529
        51.0004         47.0004
  -6674139.55747  -4937342.83646  23863806.4784   23863809.9664   23863805.899
        43.0004         38.0004
 -15163826.45548 -11763021.57648  21331907.0274   21331907.3744   21331907.931
        53.0004         48.0004
 -18834176.13249 -14613771.77448  21147489.5274   21147490.8334   21147490.587
        54.0004         49.0004
 -18088438.17848 -14032267.04348  21048279.5314   21048281.7484   21048279.910
        53.0004         49.0004
 -13584999.46748 -10570739.25647  22194933.0444   22194937.8454   22194932.886
        51.0004         46.0004
 15  5  1  0 13 30.0000000  0  9G11G01G04G32G18G22G19G14G27
 -14366760.01448 -11136592.83247  21707679.0764   21707680.0754   21707680.085
        50.0004         45.0004
  -9166089.70347  -7052559.15646  23116502.0904   23116508.0224   23116502.307
        46.0004         41.0004
 -20575986.06048 -15968542.83448  20890800.8394   20890803.3534   20890800.397
        53.0004         49.0004
 -18252575.05448 -14145592.14847  21438143.6614   21438146.7064   21438144.682
        51.0004         47.0004
  -6592815.29747  -4873973.31646  23879279.0744   23879287.2264   23879281.954
        42.0004         37.0004
 -15107028.40748 -11718763.35948  21342715.1234   21342715.2564   21342716.202
        53.0004         48.0004
 -18790330.69549 -14579606.51548  21155833.6664   21155834.5474   21155834.648
        54.0004         49.0004
 -18102056.11348 -14042878.40548  21045688.0284   21045690.3204   21045688.126
        53.0004         49.0004
 -13492040.94248 -10498304.05847  22212622.9104   22212627.5524   22212622.888
        51.0004         47.0004
 15  5  1  0 14  0.0000000  0  9G11G01G04G32G18G22G19G14G27
 -14443963.10348 -11196751.05147  21692987.8834   21692989.2914   21692988.242
        50.0004         45.0004
  -9256301.52947  -7122854.03447  23099334.7934   23099340.8804   23099334.088
        46.0004         42.0004
 -20634861.95548 -16014420.13548  20879596.3644   20879599.3504   20879596.853
        53.0004         48.0004
 -18316779.95548 -14195621.90147  21425926.0434   21425929.1194   21425927.202
        51.0004         47.0004
  -6511438.27547  -4810562.68646  23894767.0524   23894769.9074   23894766.653
        42.0004         38.0004
 -15050008.70048 -11674332.43448  21353565.3844   21353566.7194   21353566.170
        53.0004         48.0004
 -18745939.24949 -14545015.78248  21164280.8354   21164282.4454   21164282.175
        54.0004         49.0004
 -18115106.24448 -14053047.31448  21043204.3434   21043207.1324   21043204.890
        53.0004         49.0004
 -13398761.57848 -10425618.88247  22230373.5204   22230378.4414   22230372.863
        51.0004         47.0004
 15  5  1  0 14 30.0000000  0  9G11G01G04G32G18G22G19G14G27
 -14520805.79448 -11256628.44647  21678364.6514   21678366.4724   21678364.955
        50.0004         45.0004
  -9346400.41447  -7193060.90546  23082188.6094   23082195.4304   23082187.928
        46.0004         41.0004
 -20693403.36948 -16060036.80448  20868456.1944   20868459.0134   20868455.450
        53.0004         48.0004
 -18380643.79248 -14245385.90147  21413772.7864   21413776.4064   21413773.489
        51.0004         47.0004
  -6430008.91947  -4747111.26046  23910263.0914   23910264.5134   23910263.150
        42.0004         38.0004
 -14992768.69948 -11629729.84548  21364458.6614   21364458.6144   21364459.497
        53.0004         49.0004
 -18701003.25649 -14510000.73848  21172831.8764   21172833.3784   21172833.180
        54.0004         49.0004
 -18127588.10748 -14062773.43248  21040829.6154   21040831.8614   21040829.598
        53.0004         49.0004
 -13305164.19548 -10352685.89147  22248184.2434   22248189.3594   22248184.310
        51.0004         47.0004
 15  5  1  0 15  0.0000000  0  9G11G01G04G32G18G22G19G14G27
 -14597283.45848 -11316221.41047  21663811.4314   21663813.4244   21663811.085
        50.0004         45.0004
  -9436382.59347  -7263176.83447  23065065.6054   23065072.4234   23065065.304
        46.0004         42.0004
 -20751606.34648 -16105389.75648  20857380.7504   20857383.7564   20857381.306
        53.0004         49.0004
 -18444163.92748 -14294882.07847  21401685.5664   21401689.4304   21401686.427
        52.0004         47.0004
  -6348526.14347  -4683618.21346  23925767.1854   23925770.5844   23925767.182
        43.0004         38.0004
 -14935307.16748 -11584954.63848  21375392.7674   21375393.0334   21375393.830
        53.0004         48.0004
 -18655522.04649 -14474560.84548  21181486.6774   21181488.0034   21181488.197
        54.0004         49.0004
 -18139499.57448 -14072055.08348  21038562.6454   21038564.8164   21038562.999
        53.0004         49.0004
 -13211249.22148 -10279505.40347  22266056.4034   22266060.6354   22266055.881
        51.0004         46.0004
 15  5  1  0 15 30.0000000  0  9G11G01G04G32G18G22G19G14G27
 -14673393.62148 -11375527.99047  21649328.7974   21649329.7434   21649329.231
        50.0004         46.0004
  -9526246.16647  -7333200.34147  23047966.8694   23047972.2704   23047966.064
        47.0004         42.0004
 -20809468.96948 -16150477.49648  20846370.3004   20846372.5804   20846370.007
        53.0004         48.0004
 -18507339.35648 -14344109.65247  21389663.8574   21389666.9784   21389664.361
        52.0004         47.0004
  -6266990.30147  -4620083.79746  23941283.6034   23941286.0064   23941284.498
        43.0004         39.0004
 -14877624.80248 -11540007.34648  21386369.5014   21386369.5224   21386370.736
        53.0004         48.0004
 -18609496.29749 -14438696.63948  21190244.8254   21190246.5754   21190245.856
        54.0004         49.0004
 -18150840.03548 -14080891.79248  21036404.8934   21036406.9604   21036405.499
        53.0004         49.0004
 -13117018.83848 -10206079.16547  22283986.9744   22283991.8454   22283987.413
        51.0004         46.0004
 15  5  1  0 16  0.0000000  0  9G11G01G04G32G18G22G19G14G27
 -14749138.07348 -11434549.61547  21634914.4994   21634915.8544   21634915.121
        50.0004         45.0004
  -9615993.51147  -7403133.28547  23030888.8354   23030893.9494   23030888.799
        47.0004         42.0004
 -20866993.31948 -16195301.64948  20835423.6374   20835426.2464   20835423.519
        53.0004         49.0004
 -18570173.55548 -14393071.33047  21377706.6144   21377710.2084   21377707.431
        52.0004         47.0004
  -6185406.33447  -4556511.88946  23956810.0914   23956812.1364   23956811.366
        44.0004         39.0004
 -14819726.55148 -11494891.82848  21397387.1644   21397387.7394   21397387.716
        53.0004         48.0004
 -18562931.68649 -14402412.53548  21199105.6674   21199107.1604   21199107.057
        54.0004         49.0004
 -18161613.19148 -14089286.44048  21034354.5434   21034356.6854   21034355.272
        53.0004         49.0004
 -13022479.64348 -10132412.29947  22301977.9214   22301982.6844   22301977.042
        51.0004         46.0004
 15  5  1  0 16 30.0000000  0  9G11G01G04G32G18G22G19G14G27
 -14824509.70048 -11493280.73547  21620572.4494   21620573.0734   21620571.894
        50.0004         46.0004
  -9705618.99947  -7472971.26547  23013833.1744   23013838.6934   23013832.956
        47.0004         42.0004
 -20924173.82448 -16239857.88048  20824542.5624   20824544.7594   20824542.904
        53.0004         49.0004
 -18632661.84048 -14441763.46747  21365815.0494   21365819.1974   21365815.573
        52.0004         47.0004
  -6103770.47647  -4492899.55446  23972344.0074   23972346.9734   23972344.079
        44.0004         39.0004
 -14761609.36048 -11449605.71448  21408446.2554   21408447.2794   21408447.436
        53.0004         48.0004
 -18515825.47349 -14365706.40648  21208070.1294   21208071.3334   21208070.473
        54.0004         49.0004
 -18171814.60048 -14097235.57848  21032413.1334   21032415.5894   21032413.332
        53.0004         49.0004
 -12927630.20748 -10058503.67747  22320026.9924   22320032.3444   22320027.298
        51.0004         46.0004
 15  5  1  0 17  0.0000000  0  9G11G01G04G32G18G22G19G14G27
 -14899507.76448 -11551720.75647  21606300.1494   21606302.8154   21606300.229
        50.0004         46.0004
  -9795122.54647  -7542714.23047  22996800.3054   22996806.1244   22996799.350
        47.0004         42.0004
 -20981009.99648 -16284145.79348  20813726.4984   20813729.6364   20813725.904
        53.0004         49.0004
 -18694805.15448 -14490186.80147  21353989.9774   21353993.9894   21353990.704
        52.0004         47.0004
  -6022084.88247  -4429248.48346  23987887.3374   23987891.3134   23987888.051
        43.0004         38.0004
 -14703275.99548 -11404151.15448  21419546.3864   21419547.8564   21419547.420
        53.0004         48.0004
 -18468180.56849 -14328580.52048  21217136.7244   21217137.9284   21217138.043
        54.0004         49.0004
 -18181445.73348 -14104740.34648  21030580.9464   21030582.6264   21030582.029
        53.0004         49.0004
 -12832474.62048  -9984356.50347  22338133.5094   22338138.4994   22338133.754
        50.0004         45.0004
 15  5  1  0 17 30.0000000  0  9G11G01G04G32G18G22G19G14G27
 -14974132.02448 -11609869.50447  21592099.7314   21592101.7054   21592100.727
        50.0004         46.0004
  -9884504.62147  -7612362.54647  22979790.2984   22979797.2094   22979789.773
        46.0004         42.0004
 -21037502.02848 -16328165.54348  20802977.1104   20802979.0094   20802977.154
        53.0004         49.0004
 -18756605.07948 -14538342.55347  21342229.2844   21342233.2094   21342229.722
        52.0004         47.0004
  -5940351.95547  -4365560.51946  24003440.6574   24003444.0114   24003442.051
        43.0004         38.0004
 -14644729.37248 -11358530.42148  21430687.6314   21430688.8384   21430689.217
        53.0004         48.0004
 -18420000.32249 -14291037.48948  21226304.5004   21226306.0594   21226305.293
        54.0004         49.0004
 -18190508.50248 -14111802.23048  21028855.9624   21028858.1044   21028856.265
        53.0004         49.0004
 -12737017.58048  -9909974.43147  22356299.2194   22356304.1494   22356300.444
        50.0004         46.0004
 15  5  1  0 18  0.0000000  0  9G11G01G04G32G18G22G19G14G27
 -15048377.75948 -11667723.30247  21577970.9624   21577973.1584   21577971.934
        51.0004         46.0004
  -9973760.86547  -7681912.84547  22962805.7704   22962812.4654   22962805.816
        46.0004         42.0004
 -21093645.64548 -16371913.80048  20792292.7694   20792295.6164   20792292.639
        53.0004         49.0004
 -18818058.38848 -14586228.22547  21330535.5384   21330538.7084   21330536.158
        52.0004         47.0004
  -5858570.07647  -4301834.43446  24019003.4474   24019006.1384   24019004.198
        43.0004         38.0004
 -14585967.59148 -11312742.01948  21441869.4264   21441869.8284   21441870.049
        53.0004         48.0004
 -18371283.70949 -14253076.49948  21235575.5724   21235576.7964   21235576.849
        54.0004         49.0004
 -18198999.92748 -14118418.91348  21027239.4214   21027242.5104   21027240.263
        53.0004         49.0004
 -12641258.98448  -9835357.37047  22374521.4044   22374526.3284   22374522.035
        50.0004         46.0004
 15  5  1  0 18 30.0000000  0  9G11G01G04G32G18G22G19G14G27
 -15122243.74148 -11725281.18947  21563915.0974   21563916.5554   21563915.241
        51.0004         46.0004
 -10062891.00647  -7751364.86247  22945846.5234   22945851.6214   22945846.567
        47.0004         42.0004
 -21149440.20248 -16415390.06448  20781675.8374   20781678.5594   20781675.668
        53.0004         49.0004
 -18879165.86148 -14633844.40747  21318906.8524   21318910.3784   21318907.804
        52.0004         47.0004
  -5776740.77947  -4238071.40846  24034576.8434   24034577.4144   24034576.569
        43.0004         38.0004
 -14526993.20848 -11266787.96148  21453092.1134   21453093.0834   21453092.360
        53.0004         48.0004
 -18322033.56049 -14214699.77848  21244947.4514   21244948.8534   21244948.704
        54.0004         49.0004
 -18206921.36548 -14124591.45448  21025732.9294   21025735.1934   21025733.106
        53.0004         49.0004
 -12545202.80548  -9760508.44247  22392799.2534   22392805.3334   22392799.851
        50.0004         45.0004
 15  5  1  0 19  0.0000000  0  9G11G01G04G32G18G22G19G14G27
 -15195727.68248 -11782541.37747  21549931.3494   21549932.6474   21549932.330
        51.0004         46.0004
 -10151893.93747  -7820717.76347  22928909.5274   22928914.4514   22928910.000
        47.0004         42.0004
 -21204884.56848 -16458593.44548  20771124.7144   20771127.4134   20771124.729
        53.0004         49.0004
 -18939927.59948 -14681191.18247  21307344.0704   21307348.4604   21307344.493
        52.0004         47.0004
  -5694865.45747  -4174272.51546  24050155.0184   24050157.0034   24050156.175
        43.0004         38.0004
 -14467807.91548 -11220669.55948  21464354.5644   21464355.3014   21464355.396
        53.0004         48.0004
 -18272251.64149 -14175908.67948  21254420.3764   21254422.0534   21254421.722
        54.0004         49.0004
 -18214273.33748 -14130320.24548  21024333.9654   21024336.1804   21024334.339
        53.0004         49.0004
 -12448852.14248  -9685430.03447  22411135.0414   22411140.5494   22411135.163
        50.0004         45.0004
 15  5  1  0 19 30.0000000  0  9G11G01G04G32G18G22G19G14G27
 -15268826.65148 -11839501.59647  21536021.9364   21536022.7244   21536022.266
        51.0004         46.0004
 -10240766.90847  -7889969.37247  22911996.8244   22912002.8584   22911997.323
        47.0004         42.0004
 -21259975.87948 -16501521.72948  20760641.2214   20760644.1924   20760641.009
        53.0004         49.0004
 -19000341.80748 -14728267.15847  21295847.8484   21295851.9614   21295848.372
        52.0004         47.0004
  -5612943.40847  -4110437.18246  24065743.7904   24065745.8924   24065744.070
        42.0004         38.0004
 -14408411.32748 -11174386.51248  21475656.9454   21475658.4464   21475658.148
        53.0004         48.0004
 -18221938.47349 -14136703.62348  21263994.4704   21263996.2104   21263995.237
        54.0004         49.0004
 -18221054.38248 -14135604.16848  21023043.0164   21023045.4834   21023043.265
        53.0004         49.0004
 -12352208.52748  -9610123.35247  22429526.5374   22429531.3264   22429525.627
        50.0004         46.0004
 15  5  1  0 20  0.0000000  0  9G11G01G04G32G18G22G19G14G27
 -15341538.33648 -11896160.02647  21522184.7144   21522185.5184   21522185.129
        51.0004         46.0004
 -10329508.62447  -7959118.70647  22895109.1824   22895115.8444   22895109.242
        47.0004         43.0004
 -21314712.49249 -16544173.61948  20750225.6714   20750227.9464   20750225.670
        54.0004         49.0004
 -19060408.46948 -14775072.32547  21284417.4444   21284421.6654   21284418.771
        52.0004         47.0004
  -5530975.75447  -4046566.30746  24081342.1804   24081345.3284   24081342.190
        42.0004         37.0004
 -14348804.78048 -11127939.85748  21487000.0344   21487001.0444   21487001.429
        53.0004         48.0004
 -18171095.90949 -14097086.05948  21273669.6984   21273670.6654   21273671.023
        54.0004         49.0004
 -18227264.64048 -14140443.32048  21021861.3934   21021863.5734   21021861.788
        53.0004         49.0004
 -12255274.95648  -9534590.74147  22447971.2804   22447976.7994   22447971.250
        50.0004         45.0004
 15  5  1  0 20 30.0000000  0  9G11G01G04G32G18G22G19G14G27
 -15413861.46348 -11952515.69647  21508421.7034   21508423.5594   21508422.167
        51.0004         46.0004
 -10418118.23147  -8028165.09447  22878247.6154   22878253.0634   22878247.892
        47.0004         43.0004
 -21369093.57649 -16586548.48048  20739877.2274   20739879.3334   20739877.416
        54.0004         49.0004
 -19120127.86248 -14821606.87847  21273053.7004   21273057.7264   21273054.408
        52.0004         47.0004
  -5448963.70147  -3982660.83846  24096949.9264   24096950.5904   24096950.389
        42.0004         37.0004
 -14288990.05648 -11081330.98648  21498382.6134   21498383.1634   21498383.392
        53.0004         48.0004
 -18119726.17349 -14057057.71048  21283445.0194   21283446.5354   21283445.903
        54.0004         49.0004
 -18232905.13848 -14144838.50348  21020788.4714   21020789.9194   21020788.502
        53.0004         49.0004
 -12158054.85748  -9458834.85747  22466472.2704   22466477.2524   22466472.525
        50.0004         46.0004
 15  5  1  0 21  0.0000000  0  9G11G01G04G32G18G22G19G14G27
 -15485793.78848 -12008566.82847  21494733.7184   21494735.5004   21494734.415
        51.0004         46.0004
 -10506594.49747  -8097107.58847  22861411.5104   22861417.0354   22861411.450
        47.0004         43.0004
 -21423117.87949 -16628645.32748  20729596.6564   20729599.1964   20729596.790
        54.0004         49.0004
 -19179499.83848 -14867870.72447  21261755.4704   21261758.9244   21261756.462
        52.0004         47.0004
  -5366908.34147  -3918721.59646  24112563.4114   24112566.6044   24112564.850
        42.0004         37.0004
 -14228968.49448 -11034560.93948  21509804.3314   21509805.2064   21509804.881
        53.0004         48.0004
 -18067831.23049 -14016620.10248  21293320.3844   21293321.9754   21293321.266
        54.0004         49.0004
 -18237976.18148 -14148789.95048  21019822.9574   21019825.8774   21019823.338
        53.0004         49.0004
 -12060551.31648  -9382858.09747  22485025.8354   22485031.8834   22485026.562
        50.0004         46.0004
 15  5  1  0 21 30.0000000  0  9G11G01G04G32G18G22G19G14G27
 -15557331.94848 -12064310.83647  21481119.6084   21481122.2664   21481119.737
        51.0004         46.0004
 -10594934.72747  -8165944.08147  22844600.9494   22844605.4664   22844600.818
        47.0004         42.0004
 -21476782.34049 -16670461.77548  20719384.1544   20719387.0574   20719383.967
        54.0004         49.0004
 -19238522.92348 -14913862.70547  21250523.4194   21250527.2264   21250524.382
        52.0004         47.0004
  -5284808.78846  -3854747.91246  24128186.9414   24128187.0114   24128187.988
        41.0004         37.0004
 -14168740.32348 -10987629.90548  21521264.9934   21521266.3134   21521266.097
        53.0004         48.0004
 -18015411.73649 -13975773.75448  21303295.7234   21303297.1084   21303296.549
        54.0004         49.0004
 -18242476.76548 -14152296.89048  21018966.5014   21018968.8574   21018967.007
        53.0004         49.0004
 -11962765.91148  -9306661.70947  22503634.1504   22503641.4134   22503634.488
        50.0004         46.0004
 15  5  1  0 22  0.0000000  0  9G11G01G04G32G18G22G19G14G27
 -15628474.40448 -12119746.49347  21467582.0364   21467583.8994   21467581.950
        51.0004         46.0004
 -10683138.03347  -8234673.90147  22827816.7524   22827819.6044   22827816.540
        47.0004         42.0004
 -21530086.24049 -16711997.26648  20709241.1664   20709243.8564   20709241.509
        54.0004         49.0004
 -19297197.57948 -14959583.18247  21239358.0764   21239361.5164   21239358.394
        52.0004         47.0004
  -5202667.11646  -3790741.44546  24143818.1394   24143820.2244   24143818.947
        41.0004         37.0004
 -14108307.28948 -10940539.22948  21532764.9694   21532766.4374   21532765.889
        52.0004         48.0004
 -17962470.15649 -13934520.59048  21313370.0304   21313371.5714   21313371.126
        54.0004         49.0004
 -18246407.75648 -14155359.98748  21018218.8354   21018220.8354   21018218.919
        53.0004         49.0004
 -11864702.13748  -9230248.41847  22522296.1794   22522300.9674   22522296.261
        50.0004         46.0004
 15  5  1  0 22 30.0000000  0  9G11G01G04G32G18G22G19G14G27
 -15699217.56048 -12174871.02447  21454120.3104   21454121.5214   21454120.869
        51.0004         46.0004
 -10771201.52647  -8303294.76847  22811058.1234   22811062.8914   22811057.523
        47.0004         43.0004
 -21583026.46649 -16753249.38148  20699166.7984   20699169.5884   20699166.554
        54.0004         49.0004
 -19355521.94148 -15005030.71047  21228259.3624   21228262.8104   21228259.453
        52.0004         47.0004
  -5120482.52046  -3726701.52846  24159457.4274   24159459.9044   24159457.873
        41.0004         37.0004
 -14047668.97348 -10893288.60548  21544304.4324   21544305.7504   21544305.617
        53.0004         48.0004
 -17909006.93049 -13892860.94748  21323544.0334   21323545.0904   21323545.373
        54.0004         49.0004
 -18249768.00548 -14157978.35448  21017579.3644   21017581.9394   21017579.701
        53.0004         49.0004
 -11766361.37048  -9153619.27947  22541009.2764   22541014.1484   22541010.137
        50.0004         45.0004
 15  5  1  0 23  0.0000000  0  9G11G01G04G32G18G22G19G14G27
 -15769560.64948 -12229683.80847  21440734.4134   21440736.2404   21440734.836
        51.0004         46.0004
 -10859125.03248  -8371806.53947  22794327.0604   22794331.8854   22794325.303
        48.0004         43.0004
 -21635602.59249 -16794217.77848  20689161.6264   20689164.2964   20689161.231
        54.0004         49.0004
 -19413497.16048 -15050206.17347  21217227.1484   21217230.3964   21217227.698
        52.0004         47.0004
  -5038257.33146  -3662629.98946  24175104.6114   24175104.3514   24175105.895
        41.0004         36.0004
 -13986827.80648 -10845879.90248  21555882.2744   21555882.8944   21555883.389
        53.0004         48.0004
 -17855025.29449 -13850797.34648  21333815.6744   21333817.7214   21333816.432
        54.0004         49.0004
 -18252559.05748 -14160153.19148  21017047.6794   21017051.0654   21017048.412
        53.0004         49.0004
 -11667747.81648  -9076777.57347  22559774.1034   22559779.7394   22559774.674
        50.0004         45.0004
 15  5  1  0 23 30.0000000  0  9G11G01G04G32G18G22G19G14G27
 -15839501.67648 -12284183.29947  21427424.8504   21427426.9184   21427424.690
        51.0004         46.0004
 -10946907.03048  -8440208.05047  22777621.7974   22777628.1674   22777622.536
        48.0004         44.0004
 -21687813.47149 -16834901.57748  20679226.7834   20679228.6124   20679227.425
        54.0004         49.0004
 -19471122.94248 -15095109.33947  21206260.6004   21206264.6594   21206261.605
        52.0004         47.0004
  -4955991.61046  -3598526.88246  24190758.7244   24190762.7754   24190760.202
        40.0004         36.0004
 -13925785.09548 -10798314.15848  21567498.0894   21567498.7794   21567499.593
        52.0004         48.0004
 -17800526.85249 -13808331.04048  21344186.5854   21344188.0274   21344188.091
        54.0004         49.0004
 -18254781.14948 -14161884.68648  21016625.4064   21016627.3474   21016625.669
        53.0004         49.0004
 -11568864.34348  -8999725.55047  22578591.1734   22578596.1944   22578592.552
        50.0004         45.0004
 15  5  1  0 24  0.0000000  0  9G11G01G04G32G18G22G19G14G27
 -15909037.66048 -12338367.17047  21414192.6574   21414194.6804   21414192.410
        51.0004         46.0004
 -11034545.67548  -8508497.85847  22760946.0474   22760950.4044   22760945.299
        48.0004         44.0004
 -21739656.66349 -16875298.86548  20669361.3474   20669363.5474   20669360.696
        54.0004         49.0004
 -19528398.65448 -15139739.73647  21195361.5444   21195365.5704   21195362.587
        52.0004         47.0004
  -4873685.75446  -3534392.53845  24206422.1884   24206424.0394   24206421.588
        40.0004         35.0004
 -13864541.44748 -10750591.83548  21579152.2124   21579152.9664   21579152.980
        52.0004         48.0004
 -17745512.97249 -13765463.09248  21354655.5874   21354657.1974   21354656.413
        54.0004         49.0004
 -18256434.53548 -14163173.02548  21016310.3514   21016312.7454   21016310.736
        53.0004         49.0004
 -11469713.41948  -8922465.11847  22597460.5894   22597464.9764   22597459.806
        50.0004         45.0004
 15  5  1  0 24 30.0000000  0  9G11G01G04G32G18G22G19G14G27
 -15978165.95448 -12392233.35947  21401038.3514   21401040.1674   21401038.575
        51.0004         46.0004
 -11122038.74748  -8576674.23047  22744296.6384   22744301.8984   22744294.962
        48.0004         44.0004
 -21791130.16649 -16915408.08348  20659566.1884   20659568.2894   20659566.535
        54.0004         49.0004
 -19585323.41248 -15184096.65947  21184529.8784   21184532.5374   21184530.228
        52.0004         47.0004
  -4791340.14046  -3470227.17845  24222091.4484   24222093.8974   24222090.384
        40.0004         35.0004
 -13803097.62048 -10702713.52848  21590845.1484   21590845.8994   21590846.128
        52.0004         48.0004
 -17689984.97949 -13722194.53648  21365222.0294   21365223.4664   21365223.329
        54.0004         49.0004
 -18257518.49748 -14164017.65948  21016104.5794   21016106.7584   21016105.134
        53.0004         49.0004
 -11370297.26048  -8844998.00347  22616378.4364   22616382.2284   22616378.359
        50.0004         45.0004
 15  5  1  0 25  0.0000000  0  9G11G01G04G32G18G22G19G14G27
 -16046884.94448 -12445780.61247  21387961.4064   21387962.4704   21387961.361
        51.0004         46.0004
 -11209385.18048  -8644736.32247  22727674.0364   22727680.2884   22727673.977
        48.0004         44.0004
 -21842232.72549 -16955228.25748  20649841.7354   20649843.9094   20649841.284
        54.0004         49.0004
 -19641897.42448 -15228180.26947  21173763.6174   21173767.0634   21173764.315
        52.0004         47.0004
  -4708956.02246  -3406031.82345  24237765.9654   24237770.2814   24237768.203
        40.0004         35.0004
 -13741454.96548 -10654680.31047  21602574.6154   21602575.5704   21602575.402
        52.0004         47.0004
 -17633945.28649 -13678527.26048  21375886.4684   21375887.6024   21375887.165
        54.0004         49.0004
 -18258033.63248 -14164419.06148  21016006.3874   21016009.2024   21016006.566
        53.0004         49.0004
 -11270619.13148  -8767326.76147  22635346.7054   22635350.9584   22635346.476
        50.0004         45.0004
 15  5  1  0 25 30.0000000  0  9G11G01G04G32G18G22G19G14G27
 -16115191.10548 -12499006.17647  21374963.6504   21374964.8114   21374963.978
        51.0004         47.0004
 -11296582.02548  -8712681.87647  22711081.5874   22711086.0434   22711082.407
        48.0004         44.0004
 -21892961.52049 -16994757.18348  20640188.0164   20640190.3734   20640188.127
        54.0004         49.0004
 -19698119.09048 -15271989.31848  21163064.8664   21163068.9234   21163065.269
        52.0004         48.0004
  -4626532.62046  -3341805.84246  24253453.2314   24253455.9054   24253453.114
        40.0004         36.0004
 -13679613.33048 -10606492.02147  21614342.7724   21614343.5024   21614343.069
        52.0004         47.0004
 -17577394.31149 -13634461.58648  21386647.4184   21386649.5304   21386648.913
        54.0004         49.0004
 -18257979.30848 -14164376.71948  21016016.3904   21016018.6884   21016017.246
        53.0004         49.0004
 -11170680.51548  -8689452.54247  22654363.6914   22654369.5944   22654363.476
        50.0004         45.0004
 15  5  1  0 26  0.0000000  0  9G11G01G04G32G18G22G19G14G27
 -16183086.59848 -12551911.74347  21362043.0844   21362044.9264   21362043.581
        51.0004         47.0004
 -11383632.05848  -8780513.03747  22694516.7134   22694522.8424   22694516.999
        48.0004         43.0004
 -21943319.25049 -17033996.96848  20630605.0244   20630607.6184   20630604.962
        54.0004         49.0004
 -19753992.39048 -15315526.92248  21152432.7264   21152436.2964   21152433.451
        52.0004         48.0004
  -4544074.92346  -3277553.13546  24269144.4934   24269147.7304   24269145.680
        40.0004         36.0004
 -13617578.06448 -10558152.85647  21626149.0524   21626147.9244   21626150.529
        52.0004         47.0004
 -17520338.50449 -13590002.52848  21397505.0034   21397506.5654   21397506.215
        54.0004         49.0004
 -18257360.21648 -14163894.30348  21016134.2344   21016136.5554   21016134.944
        53.0004         49.0004
 -11070488.60948  -8611380.95747  22673429.1734   22673435.1874   22673428.858
        50.0004         45.0004
 15  5  1  0 26 30.0000000  0  9G11G01G04G32G18G22G19G14G27
 -16250561.83848 -12604489.84947  21349203.4614   21349204.4954   21349203.630
        51.0004         47.0004
 -11470526.18948  -8848222.72647  22677982.6194   22677986.6374   22677981.745
        48.0004         44.0004
 -21993296.73849 -17072940.46548  20621095.0454   20621097.0824   20621094.957
        54.0004         49.0004
 -19809509.68348 -15358787.12248  21141867.7924   21141871.3134   21141867.832
        52.0004         48.0004
  -4461576.03746  -3213268.33146  24284843.1514   24284845.7844   24284842.912
        40.0004         36.0004
 -13555342.91948 -10509657.94347  21637991.3894   21637991.3574   21637992.455
        52.0004         47.0004
 -17462772.13149 -13545145.63248  21408459.6614   21408460.6134   21408460.837
        54.0004         49.0004
 -18256169.18548 -14162966.21848  21016361.1854   21016363.0564   21016361.125
        53.0004         49.0004
 -10970038.70648  -8533108.35447  22692544.8724   22692549.5354   22692543.379
        49.0004         44.0004
 15  5  1  0 27  0.0000000  0  9G11G01G04G32G18G22G19G14G27
 -16317622.13848 -12656744.62047  21336442.3024   21336442.8774   21336442.436
        51.0004         47.0004
 -11557270.52148  -8915815.65147  22661474.4934   22661480.4784   22661474.793
        48.0004         44.0004
 -22042900.34849 -17111592.62048  20611655.4474   20611658.0524   20611655.240
        54.0004         49.0004
 -19864678.34448 -15401775.65748  21131369.6624   21131373.4734   21131370.534
        52.0004         48.0004
  -4379044.21146  -3148957.86145  24300545.6124   24300550.5694   24300549.560
        40.0004         35.0004
 -13492916.57548 -10461014.03448  21649870.4794   21649870.8544   21649871.766
        52.0004         48.0004
 -17404704.88049 -13499898.43348  21419509.5844   21419510.8954   21419510.812
        54.0004         49.0004
 -18254414.15248 -14161598.65648  21016694.5814   21016697.3094   21016694.778
        53.0004         49.0004
 -10869341.35748  -8454642.91847  22711706.1874   22711711.4234   22711707.118
        49.0004         44.0004
 15  5  1  0 27 30.0000000  0  9G11G01G04G32G18G22G19G14G27
 -16384259.83248 -12708670.09147  21323760.9664   21323762.6724   21323760.776
        52.0004         47.0004
 -11643858.00048  -8983286.37747  22644997.2024   22645003.2884   22644996.218
        48.0004         44.0004
 -22092122.51349 -17149947.55848  20602288.8394   20602291.2034   20602288.853
        54.0004         49.0004
 -19919492.71948 -15444488.13048  21120938.7414   21120942.1944   21120939.162
        52.0004         48.0004
  -4296474.77946  -3084618.07945  24316263.4484   24316262.2254   24316260.681
        39.0004         34.0004
 -13430294.40248 -10412217.54948  21661787.0474   21661787.7454   21661788.255
        52.0004         48.0004
 -17346132.77049 -13454257.84748  21430655.4734   21430656.7844   21430656.741
        54.0004         49.0004
 -18252090.17448 -14159787.75248  21017137.4324   21017139.1974   21017137.849
        53.0004         49.0004
 -10768393.92948  -8375982.61247  22730916.3724   22730921.6934   22730916.169
        49.0004         44.0004
 15  5  1  0 28  0.0000000  0  9G11G01G04G32G18G22G19G14G27
 -16450475.40048 -12760266.63047  21311159.9734   21311162.1034   21311160.033
        52.0004         47.0004
 -11730289.52648  -9050635.58047  22628549.7774   22628554.7174   22628548.412
        48.0004         43.0004
 -22140964.31649 -17188006.08948  20592995.0124   20592997.2584   20592995.162
        54.0004         49.0004
 -19973955.06248 -15486926.28248  21110574.7834   21110578.6414   21110575.974
        52.0004         48.0004
  -4213871.34246  -3020251.80645  24331981.5044   24331980.7184   24331980.246
        38.0004         33.0004
 -13367480.29548 -10363271.49047  21673740.3384   21673740.7944   21673741.225
        52.0004         47.0004
 -17287061.02749 -13408227.93648  21441895.8794   21441898.0034   21441896.779
        54.0004         49.0004
 -18249200.39548 -14157535.96948  21017687.3794   21017690.0564   21017688.136
        53.0004         49.0004
 -10667201.81648  -8297131.65847  22750172.9254   22750178.6144   22750173.695
        49.0004         45.0004
 15  5  1  0 28 30.0000000  0  9G11G01G04G32G18G22G19G14G27
 -16516255.25948 -12811523.66347  21298642.9524   21298645.3644   21298643.458
        52.0004         47.0004
 -11816551.97448  -9117853.03247  22612133.1644   22612139.3984   22612133.766
        48.0004         43.0004
 -22189412.80849 -17225758.15948  20583775.4454   20583777.7314   20583774.860
        54.0004         49.0004
 -20028053.63448 -15529080.98748  21100280.4364   21100283.7894   21100281.228
        52.0004         48.0004
 -26187102.43156 -20142250.09545  24347701.8065   24347704.9634   24347705.433
        37.0004         32.0004
 -13304463.69748 -10314167.66647  21685731.7684   21685732.0534   21685732.851
        52.0004         47.0004
 -17227479.82348 -13361801.04148  21453234.3964   21453235.9034   21453235.390
        53.0004         49.0004
 -18245733.47248 -14154834.45848  21018346.9924   21018349.0784   21018346.969
        53.0004         49.0004
 -10565756.34448  -8218083.27847  22769476.8264   22769482.7114   22769477.953
        49.0004         44.0004
 15  5  1  0 29  0.0000000  0  9G11G01G04G32G18G22G19G14G27
 -16581620.13048 -12862457.30547  21286204.7804   21286206.6574   21286205.997
        52.0004         47.0004
 -11902666.78048  -9184955.43847  22595747.1454   22595753.0174   22595746.830
        48.0004         43.0004
 -22237489.52049 -17263220.53048  20574626.6844   20574628.8274   20574626.769
        54.0004         49.0004
 -20081811.24148 -15570969.99848  21090050.7734   21090053.8814   21090052.155
        53.0004         48.0004
                 -20077831.63945                  24363431.4124   24363437.662
                        31.0004
 -13241268.79848 -10264924.90147  21697757.1394   21697757.6644   21697758.133
        52.0004         47.0004
 -17167413.67648 -13314996.27748  21464664.7424   21464665.4744   21464665.707
        53.0004         49.0004
 -18241713.13848 -14151701.71948  21019112.0474   21019114.2564   21019112.679
        53.0004         49.0004
 -10464083.39948  -8138857.64947  22788825.0004   22788830.4754   22788825.344
        49.0004         44.0004
 15  5  1  0 29 30.0000000  0  9G11G01G04G32G18G22G19G14G27
 -16646555.16848 -12913056.02447  21273847.5794   21273849.8604   21273848.233
        52.0004         47.0004
 -11988619.54048  -9251931.58947  22579391.2794   22579396.8564   22579391.462
        48.0004         44.0004
 -22285180.00549 -17300381.94048  20565551.3874   20565553.7514   20565551.852
        54.0004         49.0004
 -20135214.89748 -15612583.20648  21079888.7534   21079891.7954   21079889.571
        53.0004         48.0004
 -26021727.60146                  24379176.1814                   24379179.107
        36.0004
 -13177883.76348 -10215533.97047  21709818.9434   21709818.9104   21709820.128
        52.0004         47.0004
 -17106852.39348 -13267805.69048  21476188.7524   21476190.5974   21476190.148
        53.0004         49.0004
 -18237126.97748 -14148128.07448  21019984.7114   21019986.9874   21019985.012
        53.0004         49.0004
 -10362173.05948  -8059447.02647  22808216.5554   22808222.7384   22808217.073
        49.0004         44.0004
 15  5  1  0 30  0.0000000  0  9G11G01G04G32G18G22G19G14G27
 -16711055.99848 -12963316.39447  21261573.9764   21261575.5074   21261573.864
        52.0004         47.0004
 -12074406.40848  -9318778.47947  22563065.7184   22563072.5014   22563066.611
        48.0004         44.0004
 -22332480.24749 -17337239.25448  20556550.1834   20556552.7614   20556550.047
        54.0004         49.0004
 -20188262.23248 -15653918.76748  21069793.3744   21069797.2824   21069794.202
        53.0004         48.0004
                                                                  24394922.667

 -13114307.66148 -10165994.15647  21721917.9864   21721918.1394   21721918.701
        52.0004         47.0004
 -17045795.79948 -13220229.13448  21487807.8204   21487808.9724   21487808.585
        53.0004         49.0004
 -18231973.52848 -14144112.38548  21020965.1534   21020967.5694   21020965.426
        53.0004         49.0004
 -10260025.97248  -7979851.93747  22827655.8864   22827661.3094   22827656.008
        49.0004         44.0004
 15  5  1  0 30 30.0000000  0  9G11G01G04G32G18G22G19G14G27
 -16775128.45648 -13013242.98547  21249381.3054   21249382.6214   21249381.498
        52.0004         47.0004
 -12160033.67248  -9385500.98447  22546771.3984   22546777.9044   22546771.040
        48.0004         44.0004
 -22379396.69949 -17373797.52048  20547622.1904   20547624.8974   20547622.612
        54.0004         49.0004
 -20240960.95948 -15694982.68148  21059765.4374   21059768.9324   21059766.086
        53.0004         48.0004
                 -19884421.14045                  24410674.0144   24410674.234
                        31.0004
 -13050549.37848 -10116312.39147  21734050.5544   21734050.4734   21734051.299
        52.0004         47.0004
 -16984253.65148 -13172274.24348  21499519.1304   21499520.5084   21499519.961
        53.0004         49.0004
 -18226260.82648 -14139660.91748  21022052.1504   21022055.0594   21022052.351
        53.0004         49.0004
 -10157652.88448  -7900080.74847  22847135.9594   22847142.2584   22847137.748
        49.0004         44.0004
 15  5  1  0 31  0.0000000  0  9G11G01G04G32G18G22G19G14G27
 -16838753.76148 -13062821.12747  21237273.7074   21237275.6874   21237274.238
        52.0004         47.0004
 -12245483.03748  -9452084.85847  22530511.6794   22530517.5934   22530511.036
        48.0004         44.0004
 -22425911.11249 -17410042.50648  20538771.0774   20538773.8114   20538771.269
        54.0004         49.0004
 -20293294.22648 -15735761.82748  21049807.0234   21049810.2134   21049807.648
        53.0004         48.0004
                                                                  24426430.012

 -12986593.06748 -10066476.30447  21746220.9534   21746221.1164   21746221.759
        52.0004         47.0004
 -16922211.60848 -13123929.81348  21511324.5224   21511326.1294   21511325.537
        53.0004         48.0004
 -18219973.07348 -14134761.35848  21023249.0534   21023251.1794   21023249.716
        53.0004         49.0004
 -10055040.03248  -7820122.72147  22866663.7784   22866669.5614   22866663.015
        49.0004         44.0004
 15  5  1  0 31 30.0000000  0  8G11G01G04G32G22G19G14G27
 -16901948.58548 -13112063.84047  21225248.0904   21225249.4284   21225247.948
        52.0004         47.0004
 -12330771.81248  -9518543.59947  22514280.4844   22514286.5774   22514281.720
        48.0004         44.0004
 -22472041.07049 -17445987.90748  20529992.4924   20529995.2534   20529992.328
        54.0004         49.0004
 -20345280.80248 -15776270.81648  21039913.8874   21039917.1534   21039914.879
        53.0004         48.0004
 -12922458.98148 -10016501.69647  21758424.8024   21758425.0934   21758426.403
        52.0004         47.0004
 -16859690.30348 -13075211.92548  21523222.4774   21523223.5464   21523222.936
        53.0004         48.0004
 -18213130.03848 -14129429.11548  21024550.6494   21024553.2314   21024551.380
        53.0004         49.0004
  -9952209.23248  -7739994.86147  22886230.6894   22886236.1954   22886231.169
        49.0004         44.0004
 15  5  1  0 32  0.0000000  0  9G11G01G04G32G22G19G14G27G03
 -16964700.76448 -13160961.63447  21213306.7234   21213308.1284   21213306.730
        52.0004         47.0004
 -12415888.07048  -9584867.93347  22498084.6054   22498087.7964   22498084.119
        48.0004         44.0004
 -22517774.50449 -17481624.34048  20521290.0034   20521292.1704   20521290.473
        54.0004         49.0004
 -20396910.30948 -15816501.57048  21030088.8104   21030092.6174   21030089.548
        53.0004         48.0004
 -12858137.84948  -9966381.35147  21770664.7914   21770665.5444   21770665.818
        52.0004         47.0004
 -16796681.72148 -13026114.35148  21535213.1414   21535213.8894   21535214.253
        53.0004         48.0004
 -18205721.79448 -14123656.45348  21025960.5904   21025962.7384   21025961.068
        53.0004         49.0004
  -9849153.12448  -7659691.42347  22905841.6854   22905847.5164   22905842.132
        48.0004         44.0004
   -930405.96647   -651818.90746  24679414.8314   24679421.9914   24679415.204
        47.0004         36.0004
 15  5  1  0 32 30.0000000  0  9G11G01G04G32G22G19G14G27G03
 -17027011.70248 -13209515.59147  21201449.8264   21201450.6404   21201450.181
        52.0004         47.0004
 -12500833.71548  -9651059.32147  22481919.8224   22481924.5564   22481920.430
        48.0004         44.0004
 -22563113.51849 -17516953.44248  20512662.4364   20512664.6704   20512662.446
        54.0004         49.0004
 -20448186.12948 -15856456.72948  21020331.3714   21020335.3784   21020331.705
        53.0004         48.0004
 -12793634.27648  -9916118.83147  21782938.4714   21782940.2864   21782938.795
        52.0004         47.0004
 -16733191.71548 -12976641.64048  21547294.7684   21547295.6714   21547296.304
        53.0004         48.0004
 -18197752.68648 -14117446.74248  21027477.1124   21027479.2274   21027477.596
        53.0004         49.0004
  -9745878.10948  -7579217.42547  22925494.3044   22925500.1404   22925493.984
        49.0004         44.0004
  -1022154.14947   -723310.90646  24661955.5164   24661965.4424   24661953.551
        43.0004         37.0004
 15  5  1  0 33  0.0000000  0  9G11G01G04G32G22G19G14G27G03
 -17088878.31048 -13257723.33747  21189676.3224   21189677.8344   21189676.880
        52.0004         47.0004
 -12585605.92748  -9717115.55347  22465788.0194   22465793.1934   22465788.067
        48.0004         44.0004
 -22608055.31149 -17551973.01148  20504109.9374   20504113.0294   20504109.595
        54.0004         49.0004
 -20499106.80348 -15896135.16048  21010641.8834   21010644.8824   21010642.655
        53.0004         48.0004
 -12728948.08148  -9865714.02447  21795248.7004   21795249.6164   21795249.639
        52.0004         47.0004
 -16669221.10748 -12926794.42848  21559467.2394   21559468.9514   21559468.833
        53.0004         48.0004
 -18189222.10448 -14110799.52548  21029100.3634   21029103.0724   21029101.028
        53.0004         49.0004
  -9642385.86548  -7498574.17547  22945188.7154   22945193.8724   22945187.595
        49.0004         44.0004
  -1113813.00147   -794733.31446  24644512.8504   24644519.3044   24644513.617
        42.0004         36.0004
 15  5  1  0 33 30.0000000  0  9G11G01G04G32G22G19G14G27G03
 -17150316.17248 -13305596.98347  21177985.6054   21177986.7874   21177985.442
        52.0004         47.0004
 -12670220.87748  -9783049.25547  22449687.9844   22449691.8654   22449687.548
        49.0004         44.0004
 -22652616.19749 -17586695.77248  20495630.3424   20495633.4334   20495630.167
        54.0004         49.0004
 -20549690.17548 -15935550.74648  21001016.4914   21001019.4514   21001016.954
        53.0004         48.0004
 -12664098.37148  -9815181.79447  21807589.7244   21807590.6024   21807590.728
        52.0004         47.0004
 -16604789.63748 -12876588.11048  21571727.7344   21571729.4114   21571728.832
        53.0004         48.0004
 -18180148.62848 -14103729.27148  21030827.1364   21030829.2704   21030828.061
        53.0004         49.0004
  -9538697.14648  -7417777.80947  22964920.1514   22964925.3684   22964921.235
        49.0004         44.0004
  -1205399.92346   -866099.68646  24627085.1064   24627091.3334   24627086.655
        41.0004         37.0004
 15  5  1  0 34  0.0000000  0  9G11G01G04G32G22G19G14G27G03
 -17211284.86748 -13353105.03947  21166382.9894   21166385.1934   21166383.398
        52.0004         47.0004
 -12754638.62048  -9848829.29447  22433622.2324   22433626.9854   22433621.913
        49.0004         44.0004
 -22696756.37549 -17621090.71248  20487230.8964   20487233.6064   20487230.695
        54.0004         50.0004
 -20599897.82448 -15974673.55448  20991461.8324   20991465.3974   20991463.019
        53.0004         48.0004
 -12599047.61448  -9764492.90447  21819968.4024   21819968.7764   21819969.304
        52.0004         47.0004
 -16539861.67848 -12825994.91448  21584083.3884   21584085.0824   21584084.587
        53.0004         48.0004
 -18170494.67548 -14096206.69648  21032664.4294   21032666.5304   21032664.865
        53.0004         49.0004
  -9434776.59748  -7336800.78547  22984695.8624   22984701.1104   22984695.591
        49.0004         44.0004
  -1296876.25447   -937379.83446  24609678.1894   24609684.6094   24609677.234
        42.0004         37.0004
 15  5  1  0 34 30.0000000  0  9G11G01G04G32G22G19G14G27G03
 -17271803.99848 -13400262.79047  21154867.1544   21154868.4924   21154867.563
        52.0004         47.0004
 -12838879.01848  -9914471.13947  22417591.1514   22417597.3314   22417590.752
        49.0004         44.0004
 -22740496.00349 -17655173.53348  20478907.3504   20478909.5904   20478906.822
        54.0004         49.0004
 -20649751.15948 -16013520.28548  20981974.7724   20981978.6344   20981975.375
        53.0004         48.0004
 -12533818.37448  -9713664.94947  21832381.5714   21832381.6024   21832382.434
        52.0004         47.0004
 -16474460.60448 -12775033.06348  21596529.4344   21596530.5654   21596530.330
        53.0004         48.0004
 -18160282.59248 -14088249.21648  21034607.0414   21034609.4154   21034607.936
        53.0004         49.0004
  -9330648.56148  -7255662.09447  23004509.8124   23004515.4884   23004509.378
        48.0004         44.0004
  -1388262.90047  -1008590.13446  24592288.6594   24592295.5934   24592289.378
        42.0004         37.0004
 15  5  1  0 35  0.0000000  0  9G11G01G04G32G22G19G14G27G03
 -17331869.19348 -13447066.83148  21143437.4564   21143438.5504   21143438.400
        52.0004         48.0004
 -12922938.01348  -9979971.62547  22401595.2404   22401601.6154   22401595.069
        49.0004         44.0004
 -22783830.90049 -17688940.98348  20470660.9064   20470663.5864   20470661.174
        54.0004         49.0004
 -20699247.74548 -16052089.03148  20972555.9274   20972559.8354   20972557.118
        53.0004         48.0004
 -12468409.43548  -9662696.95247  21844828.0484   21844828.5114   21844828.971
        52.0004         47.0004
 -16408586.45048 -12723702.56448  21609064.8364   21609066.5644   21609065.669
        53.0004         48.0004
 -18149510.82348 -14079855.62048  21036657.6084   21036660.1694   21036658.245
        53.0004         49.0004
  -9226313.62248  -7174362.18347  23024363.8464   23024369.6814   23024362.274
        48.0004         43.0004
  -1479557.15347  -1079728.43646  24574916.2884   24574921.3904   24574914.776
        42.0004         37.0004
 15  5  1  0 35 30.0000000  0  9G11G01G04G32G22G19G14G27G03
 -17391480.14248 -13493516.90647  21132093.1834   21132095.0014   21132093.172
        52.0004         47.0004
 -13006815.69748 -10045330.82947  22385634.8484   22385640.6994   22385633.664
        49.0004         44.0004
 -22826761.49149 -17722393.37848  20462491.5954   20462494.7814   20462491.616
        54.0004         50.0004
 -20748389.14448 -16090381.00648  20963204.7344   20963208.5254   20963205.645
        53.0004         48.0004
 -12402823.72448  -9611591.22647  21857308.9644   21857308.5594   21857309.637
        52.0004         47.0004
 -16342243.08948 -12672006.45848  21621689.3674   21621690.5554   21621690.581
        53.0004         48.0004
 -18138181.92848 -14071027.89848  21038813.4314   21038815.6684   21038813.740
        53.0004         49.0004
  -9121776.38548  -7092904.64647  23044256.7264   23044262.7454   23044257.231
        48.0004         43.0004
  -1570760.21247  -1150795.68346  24557558.0174   24557564.5204   24557557.678
        42.0004         37.0004
 15  5  1  0 36  0.0000000  0  9G11G01G04G32G22G19G14G27G03
 -17450633.10248 -13539610.10947  21120836.7844   21120838.0694   21120837.305
        52.0004         47.0004
 -13090508.83448 -10110546.24747  22369708.3364   22369714.4064   22369707.914
        49.0004         44.0004
 -22869284.67549 -17755528.31948  20454400.1434   20454402.0334   20454400.537
        54.0004         50.0004
 -20797173.74948 -16128394.96648  20953921.5074   20953924.8834   20953922.209
        53.0004         48.0004
 -12337060.54448  -9560347.20347  21869823.0284   21869823.8204   21869824.106
        52.0004         47.0004
 -16275431.40948 -12619945.42548  21634403.1694   21634404.4584   21634404.851
        53.0004         48.0004
 -18126294.67048 -14061765.09148  21041075.3454   21041077.4044   21041075.455
        53.0004         49.0004
  -9017038.24648  -7011290.54147  23064188.0924   23064193.0284   23064187.430
        48.0004         43.0004
  -1661870.07147  -1221790.34646  24540221.1584   24540228.7474   24540220.959
        42.0004         37.0004
 15  5  1  0 36 30.0000000  0  9G11G01G04G32G22G19G14G27G03
 -17509325.48748 -13585344.41148  21109668.2064   21109669.9804   21109668.003
        52.0004         48.0004
 -13174014.91248 -10175615.89847  22353816.9364   22353822.5644   22353817.977
        49.0004         45.0004
 -22911398.03849 -17788343.91748  20446386.0474   20446388.2014   20446386.214
        54.0004         50.0004
 -20845600.54148 -16166130.10048  20944706.2894   20944709.5104   20944706.966
        53.0004         48.0004
 -12271120.14348  -9508965.08547  21882370.6994   21882371.3844   21882371.186
        52.0004         47.0004
 -16208152.58848 -12567520.39348  21647206.2164   21647206.9574   21647207.712
        53.0004         48.0004
 -18113849.52348 -14052067.55948  21043443.4754   21043445.6174   21043443.661
        53.0004         49.0004
  -8912101.25447  -6929521.49047  23084157.4474   23084161.8644   23084157.658
        47.0004         43.0004
  -1752885.56747  -1292711.42446  24522901.9364   24522909.2084   24522900.930
        42.0004         38.0004
 15  5  1  0 37  0.0000000  0  9G11G01G04G32G22G19G14G27G03
 -17567557.70848 -13630720.15048  21098586.9004   21098588.4954   21098587.090
        52.0004         48.0004
 -13257334.90648 -10240540.55247  22337962.6664   22337967.2814   22337962.204
        49.0004         45.0004
 -22953102.98249 -17820841.27348  20438449.9234   20438452.0534   20438450.123
        54.0004         50.0004
 -20893672.31248 -16203588.59148  20935558.4494   20935561.4224   20935559.487
        53.0004         48.0004
 -12205006.22548  -9457447.76347  21894951.5194   21894952.5974   21894952.251
        51.0004         47.0004
 -16140411.54448 -12514735.18848  21660096.9264   21660098.3884   21660097.374
        53.0004         48.0004
 -18100849.96248 -14041938.02048  21045917.0404   21045919.1314   21045917.668
        53.0004         49.0004
  -8806971.02548  -6847601.87347  23104162.7634   23104166.9904   23104162.859
        48.0004         43.0004
  -1843808.80347  -1363560.64346  24505600.5314   24505606.1434   24505597.642
        42.0004         37.0004
 15  5  1  0 37 30.0000000  0  9G11G01G04G32G22G19G14G27G03
 -17625325.40848 -13675733.92948  21087594.3724   21087595.9674   21087594.352
        52.0004         48.0004
 -13340464.70748 -10305317.00547  22322143.1994   22322147.8834   22322142.794
        50.0004         45.0004
 -22994395.37949 -17853017.15448  20430592.0024   20430594.6624   20430592.249
        55.0004         50.0004
 -20941386.43748 -16240768.40848  20926478.3434   20926481.9814   20926478.886
        53.0004         48.0004
 -12138717.58348  -9405794.30647  21907566.4814   21907566.9584   21907568.392
        52.0004         47.0004
 -16072208.12248 -12461589.67248  21673075.2564   21673076.9974   21673076.215
        53.0004         48.0004
 -18087294.26148 -14031375.11848  21048496.7764   21048499.0104   21048497.178
        53.0004         49.0004
  -8701648.00948  -6765532.03347  23124206.0934   23124210.2214   23124207.528
        48.0004         43.0004
  -1934636.98247  -1434335.78846  24488315.3984   24488322.1844   24488316.817
        42.0004         37.0004
 15  5  1  0 38  0.0000000  0  9G11G01G04G32G22G19G14G27G03
 -17682628.15848 -13720385.40648  21076689.3624   21076690.9254   21076689.777
        52.0004         48.0004
 -13423404.02548 -10369945.03247  22306359.4804   22306365.2124   22306359.816
        49.0004         45.0004
 -23035275.16749 -17884871.52348  20422813.3644   20422815.3104   20422813.211
        55.0004         50.0004
 -20988744.28548 -16277670.61048  20917466.7474   20917469.9714   20917467.230
        53.0004         48.0004
 -12072256.31748  -9354006.32347  21920213.8354   21920214.2944   21920214.573
        52.0004         47.0004
 -16003546.16048 -12408086.85948  21686141.9804   21686142.7374   21686142.861
        53.0004         48.0004
 -18073184.84848 -14020380.76248  21051181.8824   21051184.6044   21051182.138
        53.0004         49.0004
  -8596136.54147  -6683315.33847  23144283.1804   23144289.7914   23144282.786
        47.0004         43.0004
  -2025371.08047  -1505037.60646  24471050.8954   24471056.5704   24471050.931
        42.0004         37.0004
 15  5  1  0 38 30.0000000  0  9G11G01G04G32G22G19G14G27G03
 -17739462.83048 -13764672.15248  21065874.1304   21065875.8104   21065874.614
        52.0004         48.0004
 -13506150.02348 -10434422.42147  22290613.6404   22290619.6884   22290612.901
        50.0004         45.0004
 -23075740.02749 -17916402.57248  20415112.8724   20415115.0954   20415112.706
        55.0004         50.0004
 -21035744.77348 -16314294.34548  20908522.5704   20908526.0894   20908523.788
        53.0004         48.0004
 -12005622.36548  -9302083.77147  21932892.8154   21932893.9344   21932892.891
        51.0004         47.0004
 -15934426.89548 -12354227.70848  21699294.5014   21699295.8814   21699295.470
        53.0004         48.0004
 -18058521.66048 -14008954.89048  21053971.7724   21053974.0554   21053972.372
        53.0004         49.0004
  -8490438.39847  -6600953.19447  23164396.7194   23164402.1654   23164396.965
        47.0004         43.0004
  -2116009.49147  -1575664.85646  24453802.0134   24453808.9284   24453801.702
        42.0004         37.0004
 15  5  1  0 39  0.0000000  0  9G11G01G04G32G22G19G14G27G03
 -17795828.27548 -13808593.25548  21055148.4854   21055149.8704   21055148.312
        53.0004         48.0004
 -13588701.82648 -10498748.48147  22274905.7324   22274910.8394   22274904.122
        50.0004         45.0004
 -23115788.75549 -17947609.37248  20407491.7564   20407493.8274   20407491.617
        55.0004         50.0004
 -21082388.62048 -16350640.17248  20899646.9694   20899649.7104   20899647.683
        53.0004         48.0004
 -11938817.49948  -9250028.05747  21945605.6634   21945606.3204   21945606.693
        51.0004         47.0004
 -15864853.45948 -12300014.65348  21712534.0764   21712534.7104   21712534.536
        53.0004         48.0004
 -18043306.25448 -13997098.71448  21056867.4614   21056869.2984   21056867.617
        53.0004         48.0004
  -8384557.34947  -6518448.52647  23184545.2634   23184551.6994   23184545.354
        47.0004         42.0004
  -2206552.60047  -1646217.87246  24436572.0594   24436578.4534   24436572.417
        42.0004         37.0004
 15  5  1  0 39 30.0000000  0  9G11G01G04G32G22G19G14G27G03
 -17851721.69648 -13852146.56348  21044512.5304   21044513.7974   21044513.305
        53.0004         48.0004
 -13671056.98348 -10562921.31047  22259233.1994   22259239.0664   22259233.667
        50.0004         45.0004
 -23155419.63349 -17978490.56848  20399950.1354   20399952.6344   20399950.245
        55.0004         50.0004
 -21128675.06748 -16386707.51048  20890838.6994   20890842.5094   20890839.483
        53.0004         48.0004
 -11871842.37848  -9197839.67647  21958351.0004   21958351.3444   21958352.129
        51.0004         47.0004
 -15794827.50548 -12245448.99548  21725858.7294   21725860.2914   21725859.858
        53.0004         48.0004
 -18027538.89848 -13984812.44248  21059867.8044   21059869.5854   21059868.100
        53.0004         49.0004
  -8278495.56947  -6435803.03447  23204728.2674   23204734.4394   23204728.615
        47.0004         42.0004
  -2296999.22247  -1716695.70746  24419360.0704   24419367.5964   24419362.084
        42.0004         38.0004
 15  5  1  0 40  0.0000000  0  9G11G01G04G32G22G19G14G27G03
 -17907140.68748 -13895330.18148  21033965.8924   21033967.8294   21033965.917
        53.0004         48.0004
 -13753213.42048 -10626939.29747  22243599.7954   22243605.3574   22243600.186
        50.0004         45.0004
 -23194630.70649 -18009044.65048  20392488.6464   20392490.8114   20392488.860
        55.0004         50.0004
 -21174603.76748 -16422496.09148  20882098.9284   20882102.4304   20882098.815
        53.0004         48.0004
 -11804697.42948  -9145518.94647  21971127.8124   21971128.5414   21971129.566
        51.0004         46.0004
 -15724350.77248 -12190532.07348  21739270.9564   21739272.0044   21739271.459
        53.0004         48.0004
 -18011220.32748 -13972096.66148  21062972.7354   21062975.1454   21062972.925
        53.0004         48.0004
  -8172255.59147  -6353018.67747  23224946.3424   23224950.9994   23224946.351
        47.0004         42.0004
  -2387348.65947  -1787097.80546  24402166.5774   24402174.3854   24402167.772
        42.0004         38.0004
 15  5  1  0 40 30.0000000  0  9G11G01G04G32G22G19G14G27G03
 -17962083.91948 -13938143.06148  21023510.2774   21023512.7044   21023510.666
        53.0004         48.0004
 -13835169.68148 -10690801.30447  22228003.5904   22228009.3404   22228004.227
        50.0004         45.0004
 -23233420.73649 -18039270.64248  20385106.8544   20385109.4074   20385107.220
        55.0004         50.0004
 -21220174.91948 -16458006.06648  20873427.4124   20873430.9724   20873427.852
        53.0004         48.0004
 -11737384.12548  -9093067.02947  21983936.9694   21983938.2304   21983938.049
        51.0004         47.0004
 -15653426.02648 -12135266.06348  21752766.9394   21752768.7654   21752768.613
        53.0004         48.0004
 -17994351.67348 -13958952.24448  21066182.7314   21066185.5124   21066183.068
        53.0004         49.0004
  -8065840.66047  -6270097.97647  23245196.3344   23245201.3524   23245197.065
        47.0004         43.0004
  -2477600.69047  -1857423.98646  24384993.8294   24385000.1244   24384994.433
        43.0004         38.0004
 15  5  1  0 41  0.0000000  0  9G11G01G04G32G22G19G14G27G03
 -18016548.89448 -13980583.29348  21013146.8304   21013148.1024   21013147.127
        53.0004         48.0004
 -13916923.33448 -10754505.43347  22212447.2024   22212451.6594   22212445.980
        50.0004         45.0004
 -23271787.55949 -18069166.86048  20377806.0554   20377808.6364   20377805.726
        55.0004         50.0004
 -21265387.69648 -16493236.78348  20864823.3674   20864826.7644   20864824.120
        53.0004         48.0004
 -11669902.47148  -9040483.94247  21996779.2894   21996779.2884   21996780.943
        51.0004         47.0004
 -15582054.83248 -12079652.14648  21766348.1724   21766349.8144   21766348.641
        53.0004         48.0004
 -17976933.38248 -13945379.53948  21069497.2774   21069499.8784   21069497.594
        53.0004         49.0004
  -7959252.89047  -6187042.61847  23265479.3464   23265484.6344   23265479.837
        47.0004         42.0004
  -2567754.18347  -1927673.38346  24367838.0094   24367844.1874   24367837.119
        43.0004         38.0004
 15  5  1  0 41 30.0000000  0  9G11G01G04G32G22G19G14G27G03
 -18070533.91648 -14022649.52848  21002873.6134   21002875.2754   21002873.669
        53.0004         48.0004
 -13998473.40348 -10818050.92347  22196928.4584   22196933.9134   22196929.071
        50.0004         45.0004
 -23309730.69949 -18098732.93148  20370585.5744   20370588.0164   20370585.369
        55.0004         50.0004
 -21310243.09948 -16528189.02448  20856287.2274   20856290.8534   20856288.029
        53.0004         48.0004
 -11602254.30648  -8987771.10747  22009651.9764   22009651.9364   22009652.550
        51.0004         47.0004
 -15510240.60548 -12023693.03348  21780014.3504   21780016.2694   21780015.795
        53.0004         48.0004
 -17958967.24948 -13931379.94648  21072916.5474   21072918.8004   21072917.253
        53.0004         49.0004
  -7852496.07447  -6103855.51647  23285792.9924   23285799.9714   23285793.336
        47.0004         43.0004
  -2657809.47047  -1997846.27746  24350699.8864   24350708.2314   24350698.698
        43.0004         38.0004
 15  5  1  0 42  0.0000000  0  9G11G01G04G32G22G19G14G27G03
 -18124037.71248 -14064340.78548  20992692.1124   20992693.5124   20992692.297
        53.0004         48.0004
 -14079818.63548 -10881436.79647  22181448.5104   22181454.0584   22181448.209
        50.0004         45.0004
 -23347248.95549 -18127967.93948  20363446.0454   20363448.6534   20363446.137
        55.0004         50.0004
 -21354741.47548 -16562863.06448  20847819.9564   20847822.7714   20847820.858
        53.0004         49.0004
 -11534441.01248  -8934929.60147  22022556.6864   22022557.1964   22022557.442
        51.0004         47.0004
 -15437986.31648 -11967391.01748  21793763.9934   21793765.2034   21793765.348
        53.0004         48.0004
 -17940454.71248 -13916954.57548  21076439.0374   21076441.6844   21076438.887
        53.0004         48.0004
  -7745573.51747  -6020539.28347  23306140.1014   23306146.4914   23306140.541
        47.0004         42.0004
  -2747766.63447  -2067942.71746  24333582.6454   24333588.5144   24333583.377
        43.0004         38.0004
 15  5  1  0 42 30.0000000  0  9G11G01G04G32G22G19G14G27G03
 -18177057.04548 -14105654.53748  20982602.6484   20982604.1754   20982602.641
        53.0004         48.0004
 -14160955.80848 -10944660.53547  22166008.1884   22166013.8174   22166008.015
        50.0004         45.0004
 -23384339.52349 -18156869.66548  20356387.9584   20356390.5314   20356387.961
        55.0004         50.0004
 -21398881.38048 -16597257.76848  20839420.0894   20839423.6654   20839420.692
        53.0004         49.0004
 -11466462.25048  -8881959.14147  22035492.4144   22035493.0744   22035493.994
        51.0004         47.0004
 -15365292.79948 -11910746.73948  21807596.7904   21807598.4584   21807597.849
        53.0004         48.0004
 -17921395.53448 -13902103.25748  21080065.6224   21080068.3654   21080066.205
        53.0004         48.0004
  -7638486.73447  -5937095.08747  23326518.7244   23326524.5514   23326518.769
        47.0004         42.0004
  -2837623.83047  -2137961.22046  24316483.7314   24316488.3444   24316483.824
        43.0004         38.0004
 15  5  1  0 43  0.0000000  0  9G11G01G04G32G22G19G14G27G03
 -18229589.24548 -14146588.71348  20972606.4444   20972607.6634   20972606.775
        53.0004         48.0004
 -14241882.52748 -11007720.29447  22150608.4494   22150613.3414   22150607.967
        50.0004         45.0004
 -23421000.42749 -18185436.60148  20349411.4594   20349414.1754   20349411.258
        55.0004         50.0004
 -21442662.08048 -16631372.58648  20831088.7294   20831092.3784   20831089.604
        53.0004         49.0004
 -11398318.15448  -8828859.85947  22048459.5514   22048460.6404   22048460.309
        51.0004         46.0004
 -15292161.70748 -11853761.48248  21821512.9284   21821514.9934   21821513.561
        53.0004         48.0004
 -17901789.91748 -13886826.13848  21083796.7604   21083798.9144   21083796.988
        53.0004         48.0004
  -7531237.93847  -5853524.65147  23346927.0484   23346933.8224   23346927.694
        47.0004         43.0004
  -2927379.84047  -2207900.88946  24299400.9734   24299408.7884   24299401.085
        42.0004         38.0004
 15  5  1  0 43 30.0000000  0  9G11G01G04G32G22G19G14G27G03
 -18281635.38848 -14187144.13748  20962702.2424   20962703.4854   20962702.977
        53.0004         48.0004
 -14322599.69848 -11070616.77147  22135248.8274   22135253.7074   22135248.038
        50.0004         45.0004
 -23457232.77749 -18213669.59148  20342516.8914   20342519.3294   20342516.708
        55.0004         50.0004
 -21486086.40048 -16665209.70448  20822825.9364   20822829.0054   20822826.296
        53.0004         49.0004
 -11330012.65348  -8775634.80847  22061457.5844   22061458.5644   22061458.155
        51.0004         46.0004
 -15218598.15448 -11796439.25848  21835511.8724   21835513.7684   21835512.411
        53.0004         48.0004
 -17881641.76648 -13871126.27548  21087630.7144   21087632.6584   21087630.899
        53.0004         48.0004
  -7423832.77247  -5769832.36247  23367366.3014   23367373.0784   23367366.730
        47.0004         43.0004
  -3017037.01847  -2277763.61246  24282342.3284   24282348.1014   24282342.401
        42.0004         38.0004
 15  5  1  0 44  0.0000000  0  9G11G01G04G32G22G19G14G27G03
 -18333190.64448 -14227317.05648  20952891.6074   20952893.1814   20952891.854
        53.0004         48.0004
 -14403102.84448 -11133346.46647  22119929.7954   22119935.2254   22119929.425
        50.0004         46.0004
 -23493032.36149 -18241565.35548  20335704.4444   20335707.0884   20335704.193
        55.0004         50.0004
 -21529151.60048 -16698766.98348  20814630.3204   20814633.3014   20814631.279
        53.0004         49.0004
 -11261543.76048  -8722282.43347  22074487.1124   22074488.0204   22074488.678
        51.0004         46.0004
 -15144601.94248 -11738779.90048  21849593.2144   21849594.8074   21849594.380
        53.0004         48.0004
 -17860949.75148 -13855002.60748  21091568.7394   21091571.1524   21091569.408
        53.0004         48.0004
  -7316271.44148  -5686018.37047  23387835.0524   23387840.9434   23387834.656
        48.0004         43.0004
  -3106592.29347  -2347546.84146  24265300.7144   24265304.2624   24265302.070
        43.0004         38.0004
 15  5  1  0 44 30.0000000  0  9G11G01G04G32G22G19G14G27G03
 -18384254.16648 -14267106.80548  20943174.2654   20943175.9604   20943174.924
        53.0004         48.0004
 -14483391.29848 -11195908.88047  22104651.2074   22104656.9434   22104650.492
        50.0004         46.0004
 -23528399.12349 -18269123.86348  20328974.2924   20328977.0184   20328974.020
        55.0004         50.0004
 -21571858.75448 -16732045.27148  20806503.6664   20806506.4874   20806504.244
        53.0004         49.0004
 -11192913.61848  -8668804.41247  22087546.7254   22087547.5014   22087547.600
        51.0004         46.0004
 -15070176.76448 -11680786.27348  21863755.8054   21863757.4184   21863757.393
        53.0004         48.0004
 -17839715.78348 -13838456.64948  21095609.1074   21095611.6374   21095609.365
        53.0004         48.0004
  -7208557.90448  -5602085.78247  23408331.3034   23408337.5424   23408332.595
        48.0004         43.0004
  -3196046.21647  -2417251.11846  24248276.9714   24248283.6074   24248277.872
        43.0004         38.0004
 15  5  1  0 45  0.0000000  0  9G11G01G04G32G22G19G14G27G03
 -18434823.25648 -14306511.27848  20933551.2804   20933552.7574   20933551.505
        53.0004         48.0004
 -14563462.33848 -11258301.87347  22089414.3304   22089419.2074   22089414.173
        50.0004         45.0004
 -23563330.58249 -18296343.17648  20322326.8774   20322329.2774   20322326.889
        55.0004         50.0004
 -21614207.06148 -16765043.93648  20798445.4454   20798448.5524   20798445.809
        53.0004         49.0004
 -11124122.63048  -8615201.05747  22100637.7954   22100638.1444   22100638.535
        51.0004         46.0004
 -14995324.17148 -11622459.59648  21877999.7444   21878001.6804   21878000.301
        53.0004         48.0004
 -17817940.10148 -13821488.57148  21099752.7134   21099754.9584   21099752.944
        53.0004         48.0004
  -7100694.16347  -5518036.16047  23428857.1434   23428863.2054   23428857.517
        47.0004         42.0004
  -3285397.53147  -2486875.45746  24231274.7294   24231279.8394   24231275.225
        42.0004         38.0004
 15  5  1  0 45 30.0000000  0  9G11G01G04G32G22G19G14G27G03
 -18484898.03548 -14345530.57248  20924022.1134   20924023.8334   20924022.689
        53.0004         48.0004
 -14643315.95948 -11320525.45047  22074218.6474   22074223.4144   22074218.917
        50.0004         45.0004
 -23597827.10049 -18323223.56748  20315762.2974   20315765.0654   20315761.802
        54.0004         50.0004
 -21656198.28849 -16797764.35548  20790454.1154   20790457.6304   20790455.256
        54.0004         49.0004
 -11055173.18448  -8561474.23947  22113757.9344   22113759.2424   22113758.913
        51.0004         46.0004
 -14920048.16248 -11563802.98848  21892324.1824   21892325.8014   21892325.849
        53.0004         48.0004
 -17795625.90248 -13804100.87548  21103999.0064   21104001.6894   21103999.593
        53.0004         48.0004
  -6992684.89547  -5433873.12947  23449411.0194   23449416.9334   23449411.305
        47.0004         42.0004
  -3374647.56647  -2556420.84946  24214289.4554   24214297.7254   24214288.327
        42.0004         37.0004
 15  5  1  0 46  0.0000000  0  9G11G01G04G32G22G19G14G27G03
 -18534474.47148 -14384161.55448  20914588.7244   20914589.9504   20914589.499
        53.0004         48.0004
 -14722948.24848 -11382576.56347  22059064.7954   22059070.1624   22059064.090
        50.0004         45.0004
 -23631885.37049 -18349762.47848  20309281.6004   20309283.7634   20309281.659
        54.0004         50.0004
 -21697830.37648 -16830204.92848  20782531.9924   20782535.2664   20782532.570
        53.0004         49.0004
 -10986064.02248  -8507622.95747  22126909.1564   22126909.7014   22126910.427
        51.0004         46.0004
 -14844349.27548 -11504816.86648  21906729.2914   21906731.6454   21906730.056
        52.0004         48.0004
 -17772772.10948 -13786292.71948  21108348.6214   21108350.2594   21108349.150
        53.0004         48.0004
  -6884530.85747  -5349597.28847  23469992.0214   23469997.9184   23469992.821
        47.0004         42.0004
  -3463793.74847  -2625885.30246  24197326.5274   24197332.2324   24197325.772
        42.0004         37.0004
 15  5  1  0 46 30.0000000  0  9G11G01G04G32G22G19G14G27G03
 -18583551.80748 -14422403.62248  20905249.2724   20905251.1474   20905249.812
        53.0004         48.0004
 -14802358.43648 -11444454.59147  22043953.2994   22043959.0654   22043953.791
        50.0004         46.0004
 -23665504.72249 -18375959.37448  20302883.9044   20302886.3204   20302883.674
        54.0004         50.0004
 -21739104.29448 -16862366.40348  20774677.7644   20774680.9054   20774678.238
        53.0004         49.0004
 -10916797.18948  -8453648.81747  22140089.6814   22140091.0784   22140090.680
        51.0004         46.0004
 -14768230.90448 -11445503.87348  21921214.3394   21921215.6784   21921215.824
        52.0004         48.0004
 -17749380.95548 -13768065.83248  21112799.1264   21112801.4744   21112799.910
        53.0004         48.0004
  -6776235.99047  -5265211.72347  23490598.9804   23490605.9884   23490597.788
        47.0004         42.0004
  -3552836.64847  -2695269.30246  24180381.6774   24180388.6814   24180382.591
        43.0004         38.0004
 15  5  1  0 47  0.0000000  0  9G11G01G04G32G22G19G14G27G03
 -18632127.72448 -14460254.97548  20896005.4724   20896006.8874   20896005.886
        53.0004         48.0004
 -14881543.94448 -11506157.54747  22028885.0234   22028890.2374   22028883.875
        50.0004         46.0004
 -23698683.34649 -18401812.83848  20296570.0644   20296572.5394   20296570.058
        54.0004         50.0004
 -21780019.44549 -16894248.32248  20766892.0594   20766895.5094   20766892.877
        54.0004         49.0004
 -10847372.82848  -8399551.92147  22153301.2764   22153301.4734   22153301.993
        51.0004         46.0004
 -14691695.19948 -11385865.67747  21935777.9154   21935780.0204   21935778.941
        52.0004         47.0004
 -17725453.08248 -13749420.72248  21117352.6254   21117354.4654   21117352.816
        53.0004         48.0004
  -6667802.45347  -5180718.10847  23511234.0454   23511239.0564   23511233.743
        47.0004         42.0004
  -3641775.16247  -2764571.98046  24163458.1274   24163463.9804   24163457.979
        43.0004         39.0004
 15  5  1  0 47 30.0000000  0  9G11G01G04G32G22G19G14G27G03
 -18680199.80248 -14497713.72748  20886858.1024   20886859.1424   20886858.762
        53.0004         48.0004
 -14960503.02548 -11567684.06747  22013859.3854   22013865.4694   22013860.040
        50.0004         46.0004
 -23731419.52049 -18427321.54048  20290340.5694   20290343.2364   20290340.438
        55.0004         50.0004
 -21820575.84349 -16925850.69848  20759174.4644   20759177.4094   20759175.218
        54.0004         49.0004
 -10777791.89448  -8345333.00947  22166541.3034   22166542.5334   22166542.451
        50.0004         46.0004
 -14614744.43048 -11325904.05347  21950421.5714   21950423.6754   21950422.587
        52.0004         47.0004
 -17700989.63748 -13730358.27648  21122008.1634   21122009.9244   21122008.680
        53.0004         48.0004
  -6559233.15947  -5096118.70747  23531895.1454   23531899.8134   23531895.569
        47.0004         42.0004
  -3730608.87347  -2833792.97346  24146551.7474   24146556.4324   24146552.581
        43.0004         38.0004
 15  5  1  0 48  0.0000000  0  9G11G01G04G32G22G19G14G27G03
 -18727767.64848 -14534779.57448  20877805.7424   20877807.3454   20877806.077
        53.0004         48.0004
 -15039234.92448 -11629033.57547  21998877.8634   21998882.4274   21998877.340
        51.0004         46.0004
 -23763713.36749 -18452485.57248  20284195.6274   20284198.0774   20284195.438
        55.0004         50.0004
 -21860774.82249 -16957174.55848  20751524.8824   20751527.3814   20751525.036
        54.0004         49.0004
 -10708056.47848  -8290993.73347  22179812.4904   22179812.6104   22179813.107
        50.0004         46.0004
 -14537382.03348 -11265621.69547  21965143.4284   21965144.9324   21965144.550
        52.0004         47.0004
 -17675993.15048 -13710880.48348  21126764.6214   21126766.7184   21126765.182
        53.0004         48.0004
  -6450532.13547  -5011416.66247  23552580.2314   23552584.8884   23552579.824
        47.0004         42.0004
  -3819338.44247  -2902932.82546  24129667.5204   24129673.2184   24129668.201
        43.0004         38.0004
 15  5  1  0 48 30.0000000  0  9G11G01G04G32G22G19G14G27G03
 -18774827.60848 -14571449.66748  20868850.5494   20868851.8324   20868850.936
        53.0004         49.0004
 -15117735.93948 -11690203.16947  21983939.1344   21983944.0044   21983938.922
        50.0004         46.0004
 -23795561.37149 -18477302.19548  20278135.0844   20278137.0874   20278135.164
        55.0004         50.0004
 -21900614.32749 -16988218.31048  20743943.5704   20743946.5944   20743944.317
        54.0004         49.0004
 -10638165.62548  -8236533.34747  22193112.2414   22193111.6524   22193113.826
        50.0004         46.0004
 -14459608.93548 -11205019.30647  21979943.4374   21979944.5504   21979944.269
        52.0004         47.0004
 -17650462.68748 -13690986.60748  21131622.6884   21131624.7614   21131622.887
        53.0004         48.0004
  -6341700.31647  -4926612.68047  23573290.1004   23573296.0234   23573289.263
        47.0004         42.0004
  -3907961.60547  -2971989.74846  24112802.8744   24112809.8264   24112803.365
        43.0004         38.0004
 15  5  1  0 49  0.0000000  0  9G11G01G04G32G22G19G14G27G03
 -18821379.40248 -14607723.78948  20859992.2904   20859993.6244   20859992.864
        53.0004         49.0004
 -15196005.70048 -11751192.56647  21969044.7924   21969050.1704   21969043.564
        51.0004         46.0004
 -23826963.71749 -18501771.55048  20272159.3454   20272161.2024   20272159.204
        55.0004         50.0004
 -21940095.96449 -17018983.21048  20736430.2974   20736433.6234   20736430.922
        54.0004         49.0004
 -10568121.58148  -8181953.58547  22206440.5954   22206440.2004   22206441.111
        50.0004         46.0004
 -14381429.13348 -11144100.01147  21994820.5604   21994822.0654   21994821.883
        52.0004         47.0004
 -17624401.16948 -13670678.91648  21136582.1364   21136584.9494   21136582.733
        53.0004         48.0004
  -6232742.08647  -4841710.21346  23594022.7944   23594029.1864   23594023.135
        46.0004         41.0004
  -3996479.30747  -3040964.48946  24095958.5284   24095965.7454   24095958.892
        43.0004         38.0004
 15  5  1  0 49 30.0000000  0  9G11G01G04G32G22G19G14G27G03
 -18867421.75048 -14643600.93148  20851230.5224   20851232.1304   20851230.858
        53.0004         49.0004
 -15274042.85848 -11812000.70747  21954195.2094   21954198.9294   21954194.975
        51.0004         46.0004
 -23857919.70049 -18525893.09248  20266269.0444   20266271.1384   20266268.740
        55.0004         50.0004
 -21979220.27949 -17049469.67248  20728984.8574   20728988.5534   20728985.652
        54.0004         49.0004
 -10497925.59648  -8127255.43647  22219799.1964   22219798.8614   22219800.006
        50.0004         46.0004
 -14302845.64048 -11082866.12547  22009774.3164   22009775.6534   22009775.133
        52.0004         47.0004
 -17597810.63348 -13649959.00848  21141642.1394   21141644.0454   21141642.756
        53.0004         48.0004
  -6123660.78947  -4756711.85946  23614781.6834   23614786.5784   23614781.970
        46.0004         40.0004
  -4084891.69047  -3109857.18746  24079133.5314   24079141.7684   24079133.273
        43.0004         38.0004
 15  5  1  0 50  0.0000000  0  9G11G01G04G32G22G19G14G27G03
 -18912950.31448 -14679077.73748  20842566.8404   20842568.3434   20842568.067
        53.0004         49.0004
 -15351842.83248 -11872624.03847  21939390.1814   21939394.5064   21939390.208
        51.0004         46.0004
 -23888425.04549 -18549663.48948  20260463.6834   20260466.3024   20260463.729
        55.0004         50.0004
 -22017984.68849 -17079675.69248  20721608.9274   20721611.8334   20721609.623
        54.0004         49.0004
 -10427576.16548  -8072437.69547  22233186.5854   22233186.5214   22233188.081
        50.0004         46.0004
 -14223858.42348 -11021317.66747  22024805.0804   22024807.0104   22024806.301
        52.0004         47.0004
 -17570689.23348 -13628825.44248  21146803.0084   21146805.4574   21146803.590
        53.0004         48.0004
  -6014456.57847  -4671617.71146  23635561.9174   23635567.3994   23635562.035
        45.0004         40.0004
  -4173195.59547  -3178665.35046  24062330.9384   24062337.3254   24062329.747
        43.0004         39.0004
 15  5  1  0 50 30.0000000  0  9G11G01G04G32G22G19G14G27G03
 -18957963.23448 -14714152.72948  20834001.3254   20834002.8894   20834001.897
        53.0004         49.0004
 -15429403.70948 -11933061.06447  21924630.9754   21924635.7254   21924631.016
        51.0004         46.0004
 -23918478.22749 -18573081.54548  20254744.7194   20254747.0484   20254744.621
        55.0004         50.0004
 -22056389.15749 -17109601.23848  20714300.5284   20714303.5194   20714300.926
        54.0004         49.0004
 -10357073.94748  -8017500.90147  22246601.8334   22246603.2694   22246603.460
        50.0004         45.0004
 -14144469.88948 -10959456.49447  22039912.1264   22039913.6334   22039912.861
        52.0004         47.0004
 -17543038.41848 -13607279.34648  21152064.8824   21152066.8104   21152065.640
        53.0004         48.0004
  -5905132.31747  -4586430.00346  23656366.0824   23656371.4564   23656365.771
        45.0004         41.0004
  -4261390.48747  -3247388.56746  24045549.5134   24045554.2024   24045549.733
        44.0004         39.0004
 15  5  1  0 51  0.0000000  0  9G11G01G04G32G22G19G14G27G03
 -19002461.45548 -14748826.66048  20825533.1614   20825534.7344   20825533.478
        53.0004         49.0004
 -15506726.40348 -11993312.48247  21909917.1204   21909921.5624   21909915.870
        51.0004         46.0004
 -23948080.88849 -18596148.55848  20249111.7644   20249113.6394   20249111.813
        55.0004         50.0004
 -22094436.52449 -17139248.52248  20707059.9524   20707063.2684   20707060.287
        54.0004         49.0004
 -10286422.80948  -7962448.07847  22260046.2114   22260047.0004   22260047.108
        50.0004         46.0004
 -14064685.61348 -10897286.95247  22055094.6304   22055095.9584   22055095.676
        52.0004         47.0004
 -17514862.59248 -13585324.14048  21157426.8994   21157429.0464   21157427.223
        53.0004         48.0004
  -5795693.58047  -4501153.11546  23677192.0934   23677197.5554   23677193.218
        45.0004         41.0004
  -4349478.73847  -3316028.68246  24028787.2834   24028790.3164   24028787.716
        44.0004         39.0004
 15  5  1  0 51 30.0000000  0  9G11G01G04G32G22G19G14G27G03
 -19046443.05448 -14783098.03648  20817164.4694   20817165.6694   20817164.549
        53.0004         49.0004
 -15583808.86548 -12053376.70947  21895248.5834   21895253.8794   21895248.850
        51.0004         47.0004
 -23977231.46549 -18618863.28448  20243564.2144   20243567.1584   20243564.147
        55.0004         50.0004
 -22132126.74249 -17168617.51148  20699888.0084   20699891.0734   20699888.718
        54.0004         49.0004
 -10215623.24248  -7907279.59747  22273519.5144   22273519.4934   22273519.755
        50.0004         46.0004
 -13984507.54448 -10834810.55247  22070352.5424   22070353.3274   22070353.224
        52.0004         47.0004
 -17486162.65648 -13562960.54648  21162888.0754   21162890.1494   21162888.208
        53.0004         48.0004
  -5686143.10447  -4415789.14146  23698037.5524   23698043.9754   23698037.736
        46.0004         41.0004
  -4437459.73747  -3384585.20946  24012042.5844   24012047.7344   24012041.388
        44.0004         39.0004
 15  5  1  0 52  0.0000000  0  9G11G01G04G32G22G19G14G27G03
 -19089904.55848 -14816964.13948  20808893.5274   20808894.9164   20808893.881
        53.0004         49.0004
 -15660647.39848 -12113250.86347  21880626.8644   21880631.8024   21880626.863
        51.0004         47.0004
 -24005926.92949 -18641223.38248  20238103.8064   20238106.5774   20238103.890
        55.0004         50.0004
 -22169457.95749 -17197706.74448  20692783.7614   20692787.6004   20692784.727
        54.0004         49.0004
 -10144674.18748  -7851994.63147  22287019.7384   22287021.5094   22287020.261
        50.0004         45.0004
 -13903936.53648 -10772027.97147  22085684.2224   22085685.5154   22085685.548
        52.0004         47.0004
 -17456938.58148 -13540188.53548  21168449.2824   21168451.4404   21168449.173
        53.0004         48.0004
  -5576481.86747  -4330338.88246  23718905.2264   23718912.7784   23718904.659
        46.0004         41.0004
  -4525331.16447  -3453056.37946  23995322.9274   23995328.2714   23995321.452
        44.0004         39.0004
 15  5  1  0 52 30.0000000  0  9G11G01G04G32G22G19G14G27G03
 -19132845.49748 -14850424.60348  20800722.3204   20800724.0164   20800722.429
        53.0004         49.0004
 -15737241.36148 -12172934.45347  21866050.7384   21866056.3694   21866051.072
        51.0004         46.0004
 -24034167.20949 -18663228.79548  20232729.7444   20232732.4604   20232729.601
        55.0004         50.0004
 -22206431.57549 -17226517.34548  20685747.9624   20685751.3814   20685748.884
        54.0004         49.0004
 -10073577.92348  -7796594.96347  22300548.7264   22300551.0494   22300549.419
        50.0004         46.0004
 -13822976.63248 -10708942.35247  22101090.3154   22101092.1634   22101092.106
        52.0004         47.0004
 -17427192.65748 -13517009.88248  21174110.2004   21174111.8334   21174110.160
        53.0004         48.0004
  -5466714.07247  -4244805.58046  23739793.4874   23739800.3074   23739791.998
        46.0004         41.0004
  -4613093.95547  -3521442.92646  23978620.3954   23978627.5684   23978621.670
        44.0004         39.0004
 15  5  1  0 53  0.0000000  0  9G11G01G04G32G22G19G14G27G03
 -19175262.05548 -14883476.46248  20792650.5074   20792652.1894   20792651.057
        53.0004         49.0004
 -15813586.53248 -12232424.17447  21851523.6394   21851528.6654   21851523.347
        51.0004         47.0004
 -24061948.42349 -18684876.49048  20227443.5464   20227445.4044   20227443.852
        55.0004         50.0004
 -22243045.43649 -17255047.60848  20678780.4224   20678783.8934   20678780.966
        54.0004         49.0004
 -10002332.96048  -7741079.41547  22314107.0704   22314108.4144   22314108.064
        50.0004         46.0004
 -13741628.01848 -10645553.84347  22116571.0854   22116572.1594   22116571.577
        52.0004         47.0004
 -17396923.81348 -13493423.75548  21179869.3704   21179871.8084   21179870.103
        53.0004         48.0004
  -5356840.10347  -4159189.54046  23760701.4684   23760708.9794   23760701.713
        46.0004         41.0004
  -4700745.19747  -3589742.51846  23961941.9854   23961946.9664   23961941.787
        44.0004         39.0004
 15  5  1  0 53 30.0000000  0  9G11G01G04G32G22G19G14G27G03
 -19217153.89648 -14916119.44848  20784678.6014   20784679.9674   20784679.014
        53.0004         48.0004
 -15889682.61348 -12291719.79447  21837042.9134   21837047.7414   21837042.557
        51.0004         47.0004
 -24089271.05849 -18706166.86048  20222244.3874   20222246.0224   20222244.540
        55.0004         50.0004
 -22279301.12849 -17283298.77348  20671881.3794   20671884.6824   20671882.171
        54.0004         49.0004
  -9930941.59848  -7685449.79847  22327692.6594   22327692.8674   22327692.449
        50.0004         45.0004
 -13659894.95148 -10581865.75747  22132124.3384   22132125.9924   22132125.354
        52.0004         47.0004
 -17366135.21748 -13469432.62848  21185728.8204   21185730.4594   21185729.894
        53.0004         48.0004
  -5246864.43547  -4073494.27546  23781629.9364   23781634.8854   23781630.201
        45.0004         41.0004
  -4788286.16347  -3657956.18346  23945282.1604   23945288.2054   23945282.084
        44.0004         39.0004
 15  5  1  0 54  0.0000000  0  9G11G01G04G32G22G19G14G27G03
 -19258520.27248 -14948352.99048  20776806.7984   20776807.9004   20776807.110
        53.0004         48.0004
 -15965528.53648 -12350820.48547  21822610.0814   21822614.7294   21822609.391
        51.0004         47.0004
 -24116134.62449 -18727099.50748  20217132.0084   20217134.1974   20217131.950
        55.0004         50.0004
 -22315199.59049 -17311271.58848  20665050.0284   20665053.6274   20665050.509
        54.0004         49.0004
  -9859405.53248  -7629707.40647  22341305.2544   22341305.2174   22341305.952
        50.0004         45.0004
 -13577780.97948 -10517880.86847  22147749.4384   22147751.5504   22147751.031
        52.0004         47.0004
 -17334829.20448 -13445038.32048  21191686.3344   21191688.0314   21191686.265
        53.0004         49.0004
  -5136790.77247  -3987722.61246  23802575.8004   23802581.6884   23802576.710
        45.0004         41.0004
  -4875717.12047  -3726084.11746  23928644.6944   23928652.0564   23928645.314
        44.0004         39.0004
 15  5  1  0 54 30.0000000  0  9G11G01G04G32G22G19G14G27G03
 -19299359.08848 -14980175.44748  20769035.6734   20769037.3764   20769035.694
        53.0004         49.0004
 -16041122.02848 -12409724.47247  21808224.5374   21808229.7154   21808224.890
        51.0004         47.0004
 -24142537.51449 -18747673.19048  20212107.9104   20212110.2584   20212107.797
        55.0004         50.0004
 -22350740.56649 -17338965.83448  20658287.1834   20658290.5414   20658287.846
        54.0004         49.0004
  -9787725.27548  -7573852.68247  22354945.9144   22354946.5224   22354946.867
        50.0004         45.0004
 -13495288.28148 -10453600.86347  22163447.5294   22163449.0314   22163448.572
        52.0004         47.0004
 -17303007.13748 -13420241.89948  21197741.6634   21197743.5604   21197742.425
        53.0004         49.0004
  -5026621.53747  -3901876.52146  23823540.7904   23823546.1074   23823541.506
        45.0004         41.0004
  -4963037.36347  -3794125.81446  23912028.1874   23912034.2724   23912028.213
        44.0004         39.0004
 15  5  1  0 55  0.0000000  0  9G11G01G04G32G22G19G14G27G03
 -19339667.69948 -15011584.74848  20761364.8604   20761366.9254   20761365.272
        53.0004         49.0004
 -16116459.95048 -12468429.33347  21793887.9544   21793892.7904   21793887.777
        51.0004         47.0004
 -24168477.07549 -18767885.82848  20207171.7874   20207174.0914   20207171.901
        55.0004         50.0004
 -22385922.99849 -17366380.70048  20651591.8834   20651594.9634   20651592.870
        54.0004         49.0004
  -9715900.65448  -7517885.46747  22368612.8684   22368614.1364   22368614.105
        50.0004         46.0004
 -13412418.11648 -10389026.72547  22179218.0564   22179218.6034   22179218.642
        52.0004         47.0004
 -17270668.75448 -13395043.14548  21203895.1364   21203897.0884   21203895.341
        53.0004         48.0004
  -4916358.41947  -3815957.24746  23844523.6234   23844528.8854   23844524.465
        46.0004         41.0004
  -5050245.25247  -3862079.91546  23895434.1954   23895439.0394   23895434.904
        44.0004         40.0004
 15  5  1  0 55 30.0000000  0  9G11G01G04G32G22G19G14G27G03
 -19379444.46248 -15042579.62748  20753796.0094   20753797.4024   20753796.533
        53.0004         49.0004
 -16191540.41648 -12526933.56947  21779600.7124   21779605.8014   21779601.201
        51.0004         47.0004
 -24193952.15849 -18787736.53948  20202323.8724   20202326.3394   20202323.926
        55.0004         50.0004
 -22420746.98249 -17393516.26248  20644965.1134   20644968.3354   20644965.902
        54.0004         49.0004
  -9643932.20348  -7461806.16547  22382308.2724   22382309.9584   22382309.599
        50.0004         46.0004
 -13329173.29848 -10324160.65847  22195059.1934   22195059.9444   22195060.748
        52.0004         47.0004
 -17237815.68148 -13369443.33648  21210146.6014   21210149.1384   21210146.615
        53.0004         48.0004
  -4806004.23047  -3729967.00246  23865523.7094   23865528.9184   23865524.141
        46.0004         41.0004
  -5137340.26447  -3929946.05946  23878859.4964   23878865.0834   23878858.563
        44.0004         40.0004
 15  5  1  0 56  0.0000000  0  9G11G01G04G32G22G19G14G27G03
 -19418689.70049 -15073160.32948  20746328.2934   20746329.3344   20746328.402
        54.0004         49.0004
 -16266363.76548 -12585237.45247  21765362.6874   21765367.3504   21765362.779
        51.0004         47.0004
 -24218963.80849 -18807226.12648  20197564.1734   20197567.2034   20197564.467
        55.0004         50.0004
 -22455214.94849 -17420374.40648  20638406.1414   20638409.5104   20638406.908
        54.0004         49.0004
  -9571822.89748  -7405617.10447  22396030.4244   22396031.4034   22396030.443
        50.0004         45.0004
 -13245558.92748 -10259006.62147  22210969.6354   22210970.5254   22210970.160
        52.0004         47.0004
 -17204451.69448 -13343445.41548  21216495.2674   21216497.6994   21216495.858
        53.0004         48.0004
  -4695564.05147  -3643909.75746  23886538.6414   23886544.9114   23886537.981
        46.0004         41.0004
  -5224324.29347  -3997725.75946  23862305.0404   23862313.3614   23862304.953
        44.0004         39.0004
 15  5  1  0 56 30.0000000  0  9G11G01G04G32G22G19G14G27G03
 -19457397.71849 -15103322.42148  20738962.0654   20738963.6474   20738962.407
        54.0004         49.0004
 -16340923.68048 -12643336.06847  21751174.0804   21751178.9014   21751173.588
        51.0004         47.0004
 -24243506.29049 -18826350.12848  20192894.0414   20192896.6774   20192894.006
        55.0004         51.0004
 -22489322.53049 -17446951.73048  20631915.4214   20631919.1084   20631916.011
        54.0004         49.0004
  -9499569.27048  -7349315.59047  22409779.6884   22409780.6524   22409781.315
        50.0004         45.0004
 -13161573.01448 -10193563.07347  22226951.9534   22226953.0074   22226953.101
        52.0004         47.0004
 -17170574.25548 -13317047.39948  21222942.0414   21222944.6364   21222942.631
        53.0004         48.0004
  -4585036.31447  -3557784.29346  23907570.3964   23907577.4264   23907570.749
        45.0004         41.0004
  -5311192.47947  -4065415.20546  23845775.6554   23845782.4244   23845776.669
        44.0004         40.0004
 15  5  1  0 57  0.0000000  0  9G11G01G04G32G22G19G14G27G03
 -19495571.43449 -15133068.16648  20731697.6414   20731699.2904   20731697.804
        54.0004         49.0004
 -16415222.67548 -12701231.35447  21737035.3874   21737040.3134   21737035.933
        51.0004         47.0004
 -24267582.88349 -18845111.10948  20188312.4784   20188314.6114   20188312.741
        55.0004         50.0004
 -22523074.29549 -17473251.79748  20625492.4944   20625496.5484   20625493.223
        54.0004         49.0004
  -9427176.80248  -7292905.89147  22423556.0764   22423556.6394   22423556.573
        50.0004         45.0004
 -13077222.77848 -10127835.63347  22243003.0964   22243004.7014   22243003.029
        51.0004         47.0004
 -17136189.05448 -13290253.73448  21229485.5254   21229487.8644   21229485.188
        53.0004         48.0004
  -4474428.25947  -3471596.24146  23928619.8214   23928626.6504   23928619.178
        45.0004         41.0004
  -5397948.79347  -4133017.45346  23829267.7134   23829272.3804   23829267.825
        44.0004         40.0004
 15  5  1  0 57 30.0000000  0  9G11G01G04G32G22G19G14G27G03
 -19533205.93149 -15162393.74848  20724536.0904   20724537.5454   20724536.726
        54.0004         49.0004
 -16489255.62048 -12758919.34047  21722948.0344   21722952.9104   21722947.987
        52.0004         47.0004
 -24291189.13049 -18863505.58548  20183820.1384   20183822.7954   20183820.023
        55.0004         50.0004
 -22556467.23049 -17499272.24748  20619138.2234   20619141.7384   20619139.242
        54.0004         49.0004
  -9354643.00148  -7236386.05447  22437357.8384   22437359.3624   22437359.276
        50.0004         45.0004
 -12992507.63048 -10061823.85647  22259123.8154   22259125.3714   22259125.575
        52.0004         47.0004
 -17101294.63748 -13263063.27148  21236125.4854   21236127.7284   21236125.893
        53.0004         48.0004
  -4363739.53147  -3385345.33046  23949682.3014   23949689.0664   23949683.323
        45.0004         40.0004
  -5484589.67647  -4200529.75746  23812779.7884   23812785.3804   23812779.345
        44.0004         39.0004
 15  5  1  0 58  0.0000000  0  9G11G01G04G32G22G19G14G27G03
 -19570301.42249 -15191299.32048  20717477.2424   20717478.7974   20717477.602
        54.0004         49.0004
 -16563022.43148 -12816399.95747  21708910.2074   21708914.9434   21708909.840
        52.0004         47.0004
 -24314325.65449 -18881534.03848  20179417.5394   20179420.0034   20179417.647
        55.0004         50.0004
 -22589503.37549 -17525014.68248  20612851.5254   20612854.8164   20612852.459
        54.0004         49.0004
  -9281970.58148  -7179758.21147  22451187.1264   22451188.0684   22451187.715
        49.0004         45.0004
 -12907432.07048  -9995531.23447  22275312.6004   22275313.7794   22275313.897
        51.0004         47.0004
 -17065894.14748 -13235478.47048  21242862.2934   21242864.5124   21242862.587
        53.0004         48.0004
  -4252974.79947  -3299035.19046  23970759.7904   23970766.7254   23970760.585
        45.0004         40.0004
  -5571116.47447  -4267953.16446  23796314.7904   23796319.9284   23796313.317
        44.0004         40.0004
 15  5  1  0 58 30.0000000  0  9G11G01G04G32G22G19G14G27G03
 -19606855.72149 -15219783.18948  20710520.9284   20710522.2714   20710521.172
        54.0004         49.0004
 -16636520.12548 -12873670.87547  21694923.9654   21694928.5864   21694923.863
        51.0004         47.0004
 -24336990.17749 -18899194.69648  20175104.6784   20175107.1304   20175104.479
        55.0004         50.0004
 -22622181.73249 -17550478.32548  20606633.3644   20606636.8354   20606633.925
        54.0004         49.0004
  -9209159.20448  -7123022.08947  22465043.0964   22465044.3204   22465043.612
        50.0004         45.0004
 -12821997.93748  -9928959.19847  22291570.4634   22291572.2154   22291571.869
        51.0004         47.0004
 -17029988.26748 -13207499.85348  21249695.4104   21249696.6154   21249695.480
        53.0004         48.0004
  -4142135.79647  -3212667.19246  23991853.2794   23991858.3604   23991852.515
        45.0004         40.0004
  -5657527.72747  -4335286.52946  23779871.5654   23779876.4634   23779869.926
        45.0004         40.0004
 15  5  1  0 59  0.0000000  0  9G11G01G04G32G22G19G14G27G03
 -19642867.97949 -15247844.68548  20703667.7734   20703669.5984   20703668.019
        54.0004         49.0004
 -16709747.67448 -12930731.27947  21680989.2544   21680994.3014   21680989.224
        51.0004         47.0004
 -24359182.41749 -18916487.33648  20170881.2404   20170883.7824   20170880.921
        55.0004         50.0004
 -22654503.38749 -17575664.01448  20600482.3204   20600486.3244   20600482.906
        54.0004         49.0004
  -9136210.56948  -7066179.02047  22478924.4594   22478926.2364   22478925.702
        50.0004         45.0004
 -12736208.76848  -9862110.52647  22307895.3594   22307897.5434   22307896.747
        51.0004         47.0004
 -16993579.48748 -13179129.36748  21256623.6194   21256625.6254   21256623.973
        53.0004         48.0004
  -4031226.24847  -3126244.22146  24012958.2374   24012964.0934   24012958.970
        44.0004         40.0004
  -5743823.88647  -4402530.24346  23763448.5704   23763455.1964   23763448.419
        45.0004         40.0004
 15  5  1  0 59 30.0000000  0  9G11G01G04G32G22G19G14G27G03
 -19678335.22449 -15275481.49948  20696918.7794   20696920.4534   20696919.375
        54.0004         49.0004
 -16782701.71348 -12987578.55747  21667106.7194   21667111.6214   21667106.525
        51.0004         47.0004
 -24380899.63249 -18933409.84048  20166749.2634   20166751.0014   20166749.048
        55.0004         50.0004
 -22686467.02649 -17600570.73948  20594400.3474   20594403.2904   20594401.065
        54.0004         49.0004
  -9063123.76648  -7009228.28847  22492832.1754   22492833.2864   22492833.206
        50.0004         45.0004
 -12650065.83248  -9794986.18847  22324288.0194   22324290.1134   22324289.467
        51.0004         47.0004
 -16956667.84448 -13150367.04348  21263647.2314   21263649.9084   21263647.713
        53.0004         48.0004
  -3920247.54347  -3039767.35346  24034077.5454   24034082.5884   24034079.348
        45.0004         40.0004
  -5830003.11347  -4469682.81246  23747049.4334   23747055.3874   23747049.505
        45.0004         40.0004
 15  5  1  1  0  0.0000000  0  9G11G01G04G32G22G19G14G27G03
 -19713258.70449 -15302694.59748  20690273.1224   20690274.9934   20690273.195
        54.0004         49.0004
 -16855382.75648 -13044213.12947  21653276.2274   21653280.4764   21653275.081
        52.0004         47.0004
 -24402143.33149 -18949963.36848  20162705.9014   20162708.8544   20162706.130
        55.0004         50.0004
 -22718075.36849 -17625200.58948  20588385.2024   20588388.1064   20588385.907
        54.0004         49.0004
  -8989902.09848  -6952172.45647  22506767.0524   22506766.7994   22506768.040
        50.0004         45.0004
 -12563574.29048  -9727590.20947  22340747.5114   22340748.7594   22340748.518
        51.0004         47.0004
 -16919257.57648 -13121216.17748  21270766.4124   21270768.4344   21270766.947
        53.0004         48.0004
  -3809204.99047  -2953240.71846  24055207.6734   24055213.2224   24055207.671
        45.0004         40.0004
  -5916067.46147  -4536745.87346  23730672.2124   23730678.7034   23730671.596
        45.0004         40.0004
 15  5  1  1  0 30.0000000  0  9G11G01G04G32G22G19G14G27G03
 -19747634.40149 -15329480.84648  20683731.3124   20683733.2734   20683731.980
        54.0004         49.0004
 -16927786.73248 -13100631.79647  21639497.7034   21639502.5204   21639498.619
        52.0004         47.0004
 -24422910.16849 -18966145.30148  20158754.0374   20158756.8264   20158754.329
        55.0004         50.0004
 -22749326.41849 -17649552.04348  20582438.1594   20582441.7754   20582438.992
        54.0004         49.0004
  -8916544.47048  -6895010.67947  22520726.3824   22520726.7894   22520727.324
        49.0004         44.0004
 -12476734.58548  -9659922.92147  22357272.0084   22357273.7204   22357273.964
        51.0004         46.0004
 -16881348.40548 -13091676.56048  21277979.9454   21277982.1484   21277980.963
        53.0004         48.0004
  -3698099.24047  -2866664.84146  24076349.6924   24076356.9244   24076349.376
        45.0004         40.0004
  -6002014.33547  -4603717.38346  23714317.3434   23714323.6764   23714318.036
        45.0004         41.0004
 15  5  1  1  1  0.0000000  0  9G11G01G04G32G22G19G14G27G03
 -19781459.94849 -15355838.40748  20677294.8364   20677296.0224   20677295.401
        54.0004         49.0004
 -16999910.53048 -13156832.14747  21625773.0984   21625777.8274   21625772.892
        52.0004         47.0004
 -24443197.76049 -18981953.80748  20154893.7334   20154896.3394   20154894.118
        55.0004         50.0004
 -22780219.09849 -17673624.22748  20576559.3724   20576562.8174   20576560.371
        54.0004         49.0004
  -8843050.50548  -6837742.67147  22534712.1174   22534711.4254   22534713.428
        49.0004         45.0004
 -12389548.57448  -9591985.79247  22373863.0654   22373864.7694   22373864.062
        51.0004         46.0004
 -16842940.47448 -13061748.30048  21285288.7384   21285291.3014   21285289.385
        53.0004         48.0004
  -3586931.91747  -2780040.98546  24097504.2004   24097511.0484   24097503.114
        44.0004         40.0004
  -6087842.12647  -4670596.11346  23697984.5524   23697990.5914   23697983.987
        45.0004         40.0004
 15  5  1  1  1 30.0000000  0  9G11G01G04G32G22G19G14G27G03
 -19814737.48449 -15381768.94548  20670962.8074   20670963.5874   20670963.242
        54.0004         49.0004
 -17071755.91048 -13212815.54947  21612101.4764   21612106.3894   21612101.668
        52.0004         47.0004
 -24463008.71149 -18997390.90748  20151123.7074   20151126.4334   20151123.402
        55.0004         50.0004
 -22810757.44349 -17697420.31848  20570748.3104   20570751.8514   20570748.915
        54.0004         49.0004
  -8769424.67648  -6780371.89747  22548721.5644   22548723.1284   22548722.191
        49.0004         44.0004
 -12302022.56948  -9523783.74347  22390519.7714   22390519.9124   22390521.226
        51.0004         46.0004
 -16804039.07848 -13031435.51348  21292691.9414   21292693.9734   21292692.253
        53.0004         48.0004
  -3475709.45547  -2693374.17446  24118669.4734   24118675.9884   24118669.050
        44.0004         40.0004
  -6173554.12047  -4737384.61246  23681675.4134   23681681.2134   23681674.791
        45.0004         41.0004
 15  5  1  1  2  0.0000000  0  9G11G01G04G32G22G19G14G27G03
 -19847461.58149 -15407268.22948  20664735.1924   20664736.6524   20664735.490
        54.0004         49.0004
 -17143316.75448 -13268577.22647  21598483.4744   21598488.7784   21598483.235
        52.0004         47.0004
 -24482337.64949 -19012452.40948  20147445.7584   20147448.1704   20147445.923
        55.0004         50.0004
 -22840937.33249 -17720937.10348  20565005.8004   20565008.6464   20565006.407
        54.0004         49.0004
  -8695663.56048  -6722895.71947  22562757.9374   22562759.0534   22562759.112
        49.0004         44.0004
 -12214155.10648  -9455315.61447  22407238.8514   22407240.8924   22407240.861
        51.0004         46.0004
 -16764641.96848 -13000736.45848  21300188.4984   21300190.6784   21300188.931
        53.0004         48.0004
  -3364430.59947  -2606663.43746  24139846.0284   24139851.6834   24139846.721
        44.0004         40.0004
  -6259145.78147  -4804079.35346  23665386.7734   23665392.7694   23665387.630
        45.0004         40.0004
 15  5  1  1  2 30.0000000  0  9G11G01G04G32G22G19G14G27G03
 -19879633.56249 -15432337.30548  20658613.1964   20658614.2094   20658612.947
        54.0004         49.0004
 -17214593.83548 -13324117.81247  21584919.5254   21584924.9464   21584919.526
        52.0004         47.0004
 -24501186.40349 -19027139.74348  20143858.8944   20143861.5544   20143859.204
        55.0004         51.0004
 -22870761.74149 -17744176.88248  20559330.0614   20559333.2344   20559330.772
        54.0004         49.0004
  -8621770.45448  -6665316.70847  22576818.6204   22576819.5814   22576820.024
        49.0004         44.0004
 -12125951.99148  -9386585.94447  22424022.9174   22424025.3594   22424024.198
        51.0004         46.0004
 -16724753.68348 -12969654.67148  21307779.2234   21307780.6624   21307779.608
        52.0004         48.0004
  -3253100.84447  -2519913.02546  24161032.3514   24161036.7884   24161032.885
        45.0004         40.0004
  -6344619.36347  -4870682.07146  23649122.0384   23649126.5834   23649120.554
        45.0004         40.0004
 15  5  1  1  3  0.0000000  0  9G11G01G04G32G22G19G14G27G03
 -19911251.07949 -15456974.32448  20652596.2694   20652598.2034   20652596.352
        54.0004         49.0004
 -17285583.97348 -13379434.80447  21571410.9444   21571415.8714   21571410.531
        52.0004         47.0004
 -24519552.46149 -19041450.95048  20140364.1094   20140366.6154   20140364.023
        55.0004         51.0004
 -22900229.67749 -17767138.88148  20553722.6014   20553725.7994   20553723.627
        54.0004         49.0004
  -8547744.93548  -6607634.50947  22590905.0634   22590905.9924   22590906.111
        48.0004         44.0004
 -12037414.40648  -9317595.64747  22440871.7634   22440873.2594   22440872.925
        50.0004         46.0004
 -16684374.58048 -12938190.42948  21315463.1354   21315464.8304   21315464.125
        52.0004         48.0004
  -3141721.73247  -2433124.15146  24182226.8514   24182232.2634   24182227.669
        45.0004         41.0004
  -6429973.18747  -4937191.46446  23632880.1724   23632884.7704   23632880.371
        45.0004         41.0004
 15  5  1  1  3 30.0000000  0  9G11G01G04G32G22G19G14G27G03
 -19942313.63149 -15481178.90148  20646685.5264   20646687.0404   20646686.335
        54.0004         49.0004
 -17356286.41548 -13434527.60847  21557955.9784   21557961.5424   21557955.266
        52.0004         47.0004
 -24537435.90149 -19055386.09348  20136960.9644   20136963.2404   20136961.075
        55.0004         50.0004
 -22929342.50349 -17789824.18348  20548182.3584   20548185.7894   20548182.494
        54.0004         49.0004
  -8473589.20948  -6549850.83147  22605016.8904   22605018.1524   22605017.458
        49.0004         44.0004
 -11948546.05648  -9248347.61247  22457783.5454   22457784.8834   22457784.726
        50.0004         46.0004
 -16643507.58748 -12906346.01348  21323239.7464   21323241.8354   21323240.026
        52.0004         48.0004
  -3030297.22847  -2346299.90046  24203429.6004   24203435.7834   24203429.431
        45.0004         40.0004
  -6515208.07047  -5003608.19446  23616659.8154   23616665.7284   23616658.811
        45.0004         40.0004
 15  5  1  1  4  0.0000000  0  9G11G01G04G32G22G19G14G27G03
 -19972817.55249 -15504948.17948  20640880.8394   20640881.9004   20640881.478
        54.0004         49.0004
 -17426696.72748 -13489392.78147  21544557.9254   21544562.3774   21544557.271
        52.0004         47.0004
 -24554833.16749 -19068942.39648  20133650.2424   20133652.6274   20133650.104
        55.0004         50.0004
 -22958098.06749 -17812231.09948  20542710.5554   20542713.6904   20542711.415
        54.0004         49.0004
  -8399301.38948  -6491964.22947  22619154.0684   22619154.2724   22619155.273
        49.0004         45.0004
 -11859347.99448  -9178842.65747  22474756.3954   22474758.9934   22474757.600
        50.0004         46.0004
 -16602151.91148 -12874120.81448  21331109.4524   21331111.2424   21331110.357
        52.0004         48.0004
  -2918827.67447  -2259440.52746  24224640.8264   24224647.0354   24224640.405
        45.0004         40.0004
  -6600321.09447  -5069929.96846  23600463.6434   23600468.6314   23600463.690
        45.0004         41.0004
 15  5  1  1  4 30.0000000  0  9G11G01G04G32G22G19G14G27G03
 -20002764.97549 -15528283.82648  20635182.0774   20635182.8144   20635182.098
        54.0004         49.0004
 -17496816.55648 -13544031.60448  21531215.0244   21531219.3374   21531214.836
        52.0004         48.0004
 -24571746.74249 -19082121.80048  20130432.0744   20130434.2004   20130431.954
        55.0004         50.0004
 -22986499.98449 -17834362.45048  20537305.7784   20537308.7494   20537306.275
        54.0004         49.0004
  -8324885.94448  -6433978.19247  22633314.6944   22633316.2064   22633315.703
        49.0004         45.0004
 -11769826.18448  -9109085.43547  22491792.0854   22491794.0574   22491792.865
        50.0004         46.0004
 -16560313.01348 -12841519.07148  21339071.6454   21339073.3024   21339071.643
        52.0004         48.0004
  -2807319.40847  -2172551.02146  24245860.4184   24245866.0614   24245860.709
        44.0004         40.0004
  -6685315.43847  -5136159.25346  23584287.5744   23584294.9874   23584286.539
        45.0004         41.0004
 15  5  1  1  5  0.0000000  0  9G11G01G04G32G22G19G14G27G03
 -20032151.75549 -15551182.61448  20629590.0614   20629591.3314   20629590.382
        54.0004         49.0004
 -17566640.98048 -13598440.23548  21517927.5474   21517932.5714   21517927.353
        52.0004         48.0004
 -24588172.89949 -19094921.40248  20127306.2134   20127308.2634   20127305.936
        55.0004         50.0004
 -23014545.68849 -17856216.23848  20531968.6834   20531971.7914   20531969.133
        54.0004         49.0004
  -8250340.42848  -6375890.79947  22647500.3844   22647502.0224   22647501.109
        49.0004         45.0004
 -11679980.48848  -9039075.82347  22508889.0744   22508891.8734   22508890.637
        50.0004         46.0004
 -16517989.71448 -12808539.86648  21347125.2644   21347126.9954   21347125.512
        52.0004         48.0004
  -2695772.30147  -2085631.23646  24267086.7854   24267094.2314   24267085.726
        44.0004         40.0004
  -6770187.71147  -5202293.43046  23568137.8824   23568144.8764   23568137.263
        45.0004         41.0004
 15  5  1  1  5 30.0000000  0 10G11G01G04G32G31G22G19G14G27G03
 -20060974.71549 -15573642.05748  20624104.6614   20624106.6254   20624104.778
        54.0004         49.0004
 -17636166.18948 -13652615.72648  21504696.8764   21504702.6234   21504697.059
        52.0004         48.0004
 -24604108.48449 -19107338.74148  20124273.4934   20124275.8914   20124273.471
        55.0004         50.0004
 -23042233.46849 -17877791.12248  20526699.7124   20526703.0964   20526700.454
        54.0004         49.0004
                                                                  24003100.996

  -8175663.95648  -6317701.34447  22661711.3984   22661712.3294   22661711.536
        49.0004         44.0004
 -11589811.87748  -8968814.60447  22526047.1834   22526049.5214   22526048.439
        50.0004         46.0004
 -16475182.03748 -12775183.22648  21355271.2674   21355272.8514   21355272.214
        52.0004         48.0004
  -2584187.23147  -1998681.86046  24288320.0654   24288326.9944   24288319.034
        44.0004         39.0004
  -6854935.69347  -5268330.75946  23552011.5594   23552017.4424   23552011.196
        46.0004         41.0004
 15  5  1  1  6  0.0000000  0 10G11G01G04G32G31G22G19G14G27G03
 -20089238.85749 -15595666.05648  20618726.3324   20618728.1444   20618726.993
        54.0004         49.0004
 -17705396.43248 -13706561.35948  21491523.3824   21491528.1244   21491523.099
        52.0004         48.0004
 -24619558.84649 -19119377.97648  20121333.2984   20121336.1094   20121333.240
        55.0004         51.0004
 -23069569.74049 -17899092.10448  20521498.1074   20521501.4574   20521499.013
        54.0004         50.0004
  -1644995.91059  -1221071.47356  23985074.8805   23985077.3535   23985076.021
        55.0004         38.0004
  -8100863.40748  -6259415.23447  22675945.2934   22675945.9794   22675946.833
        49.0004         44.0004
 -11499329.08648  -8898308.55847  22543266.5294   22543267.8364   22543267.552
        51.0004         46.0004
 -16431897.69248 -12741455.15448  21363507.8234   21363510.0034   21363508.509
        52.0004         48.0004
  -2472573.20047  -1911709.90346  24309560.3364   24309566.5364   24309559.168
        44.0004         39.0004
  -6939565.12147  -5334275.70346  23535906.2114   23535912.3934   23535906.664
        46.0004         41.0004
 15  5  1  1  6 30.0000000  0 10G11G01G04G32G31G22G19G14G27G03
 -20116939.55849 -15617251.01148  20613455.7594   20613456.6724   20613456.172
        54.0004         49.0004
 -17774326.43748 -13760273.04648  21478406.6404   21478411.6284   21478406.505
        52.0004         48.0004
 -24634519.57449 -19131035.68448  20118486.2814   20118488.8884   20118485.954
        55.0004         50.0004
 -23096551.55549 -17920116.88548  20516363.6574   20516366.7684   20516365.070
        54.0004         50.0004
  -1739603.65548  -1294791.67346  23967072.7234   23967071.8354   23967073.791
        49.0004         39.0004
  -8025936.04948  -6201030.27047  22690203.1434   22690204.7154   22690204.359
        49.0004         44.0004
 -11408532.36748  -8827557.88847  22560543.9324   22560545.8744   22560545.166
        51.0004         46.0004
 -16388135.30948 -12707354.59548  21371835.6444   21371837.2644   21371836.122
        52.0004         48.0004
  -2360929.67547  -1824714.99646  24330806.4404   24330812.4184   24330807.193
        44.0004         39.0004
  -7024072.30447  -5400125.39346  23519825.4114   23519829.5434   23519825.575
        45.0004         41.0004
 15  5  1  1  7  0.0000000  0 10G11G01G04G32G31G22G19G14G27G03
 -20144074.98149 -15638395.48948  20608291.6394   20608292.8674   20608292.261
        54.0004         49.0004
 -17842953.69448 -13813748.81748  21465347.0894   21465352.3734   21465347.188
        53.0004         48.0004
 -24648989.17349 -19142310.69948  20115733.5584   20115735.3384   20115733.746
        55.0004         50.0004
 -23123178.42549 -17940865.09148  20511296.9274   20511299.7114   20511297.958
        54.0004         50.0004
  -1834084.42647  -1368413.01946  23949091.0344   23949093.2384   23949091.565
        46.0004         39.0004
  -7950882.29048  -6142546.84347  22704485.7224   22704486.2374   22704486.904
        49.0004         44.0004
 -11317423.36648  -8756563.89047  22577881.6484   22577883.0144   22577882.988
        50.0004         46.0004
 -16343896.16348 -12672882.52447  21380253.2444   21380256.1674   21380253.944
        52.0004         47.0004
  -2249258.84347  -1737698.80846  24352058.3304   24352061.8814   24352058.275
        44.0004         40.0004
  -7108456.24047  -5465879.05446  23503768.7714   23503773.8174   23503770.699
        45.0004         41.0004
 15  5  1  1  7 30.0000000  0 10G11G01G04G32G31G22G19G14G27G03
 -20170641.66249 -15659096.79648  20603236.0294   20603237.2774   20603236.004
        54.0004         49.0004
 -17911273.90548 -13866985.33448  21452346.2504   21452350.8304   21452346.107
        53.0004         48.0004
 -24662964.19849 -19153200.32648  20113073.3814   20113075.7124   20113073.013
        55.0004         50.0004
 -23149448.39749 -17961335.18148  20506298.1744   20506300.5504   20506298.048
        54.0004         50.0004
  -1928432.99147  -1441931.33146  23931137.7384   23931138.8294   23931137.269
        44.0004         39.0004
  -7875700.53448  -6083963.70447  22718792.1274   22718792.4284   22718793.090
        49.0004         44.0004
 -11226002.64548  -8685326.98047  22595279.0574   22595280.3264   22595280.615
        50.0004         46.0004
 -16299179.63448 -12638038.46747  21388762.9304   21388765.1954   21388763.110
        52.0004         47.0004
  -2137561.18247  -1650661.71346  24373313.1004   24373317.7154   24373313.827
        44.0004         40.0004
  -7192714.25647  -5531534.58246  23487734.5294   23487741.0964   23487734.135
        46.0004         41.0004
 15  5  1  1  8  0.0000000  0 10G11G01G04G32G31G22G19G14G27G03
 -20196641.92749 -15679356.73548  20598288.2734   20598289.5094   20598288.939
        54.0004         49.0004
 -17979288.53148 -13919983.72948  21439403.4914   21439408.0474   21439403.446
        52.0004         48.0004
 -24676447.29349 -19163706.63448  20110507.8104   20110510.0614   20110507.654
        55.0004         50.0004
 -23175365.03349 -17981529.94648  20501366.0334   20501369.5104   20501366.489
        54.0004         50.0004
  -2022649.26547  -1515346.57446  23913208.3724   23913210.7594   23913208.514
        45.0004         40.0004
  -7800394.89248  -6025284.00647  22733122.8194   22733122.6204   22733123.550
        49.0004         44.0004
 -11134276.59248  -8613852.15747  22612733.5544   22612735.6034   22612734.429
        51.0004         46.0004
 -16253991.39748 -12602826.85247  21397361.4114   21397364.0804   21397362.260
        52.0004         47.0004
  -2025842.80947  -1563608.45946  24394571.4764   24394577.0674   24394572.061
        44.0004         39.0004
  -7276849.26247  -5597094.28746  23471722.9404   23471728.3154   23471723.886
        46.0004         41.0004
 15  5  1  1  8 30.0000000  0 10G11G01G04G32G31G22G19G14G27G03
 -20222073.22449 -15699173.31948  20593448.6894   20593450.5314   20593449.174
        54.0004         49.0004
 -18046994.27848 -13972741.44148  21426519.7214   21426523.8604   21426519.781
        52.0004         48.0004
 -24689435.96649 -19173827.67248  20108036.2814   20108038.6894   20108036.252
        55.0004         50.0004
 -23200927.34849 -18001448.62448  20496501.4314   20496504.7494   20496502.271
        54.0004         50.0004
  -2116728.84247  -1588655.32546  23895306.4044   23895307.5164   23895306.253
        45.0004         41.0004
  -7724964.58348  -5966507.16947  22747475.3974   22747476.8054   22747476.051
        49.0004         44.0004
 -11042246.68048  -8542140.56347  22630246.2184   22630248.6164   22630247.820
        51.0004         46.0004
 -16208331.62848 -12567247.81747  21406051.1554   21406052.5644   21406051.297
        52.0004         47.0004
  -1914105.24747  -1476540.23946  24415834.5164   24415839.4254   24415833.980
        44.0004         39.0004
  -7360859.58447  -5662556.80246  23455737.3944   23455742.2904   23455736.258
        46.0004         41.0004
 15  5  1  1  9  0.0000000  0 10G11G01G04G32G31G22G19G14G27G03
 -20246934.64549 -15718545.84948  20588718.0254   20588719.8014   20588718.763
        54.0004         49.0004
 -18114389.39948 -14025257.11048  21413694.2204   21413699.4774   21413694.467
        52.0004         48.0004
 -24701929.46749 -19183562.86148  20105658.6574   20105661.2084   20105658.586
        55.0004         50.0004
 -23226135.75249 -18021091.52148  20491704.4864   20491707.5774   20491705.079
        54.0004         50.0004
  -2210668.47147  -1661855.02346  23877431.0634   23877431.9834   23877430.493
        46.0004         41.0004
  -7649410.79948  -5907634.10947  22761853.5514   22761854.4074   22761853.866
        49.0004         44.0004
 -10949915.95648  -8470194.56647  22647816.6384   22647818.4804   22647817.020
        51.0004         46.0004
 -16162202.41048 -12531302.95947  21414829.0904   21414830.7994   21414829.935
        52.0004         47.0004
  -1802351.32847  -1389459.27446  24437099.8914   24437105.1904   24437101.526
        43.0004         38.0004
  -7444744.98347  -5727921.99046  23439773.8744   23439779.6734   23439772.809
        46.0004         41.0004
 15  5  1  1  9 30.0000000  0 10G11G01G04G32G31G22G19G14G27G03
 -20271224.74949 -15737473.20048  20584096.2264   20584097.0204   20584096.621
        54.0004         49.0004
 -18181471.65748 -14077528.98748  21400928.9864   21400934.7274   21400929.055
        53.0004         48.0004
 -24713926.65049 -19192911.31848  20103375.9414   20103377.8214   20103376.093
        55.0004         50.0004
 -23250990.34449 -18040458.71948  20486974.8634   20486978.4444   20486975.652
        54.0004         50.0004
  -2304464.73047  -1734943.00546  23859581.1014   23859582.5084   23859581.227
        46.0004         41.0004
  -7573733.94348  -5848665.14147  22776253.5014   22776255.5884   22776254.768
        48.0004         44.0004
 -10857287.09048  -8398016.25447  22665442.7944   22665444.5704   22665444.767
        51.0004         46.0004
 -16115605.50648 -12494993.67147  21423696.4514   21423697.7734   21423696.657
        52.0004         47.0004
  -1690583.60847  -1302367.56246  24458369.6204   24458373.0304   24458370.539
        43.0004         38.0004
  -7528504.83747  -5793189.34946  23423834.9564   23423840.9694   23423834.786
        46.0004         41.0004
 15  5  1  1 10  0.0000000  0 10G11G01G04G32G31G22G19G14G27G03
 -20294943.90849 -15755955.64848  20579581.9364   20579583.3134   20579582.471
        54.0004         49.0004
 -18248240.68748 -14129556.79048  21388223.2854   21388228.1004   21388222.936
        53.0004         48.0004
 -24725428.26549 -19201873.61148  20101187.2934   20101189.4084   20101187.168
        55.0004         50.0004
 -23275492.93349 -18059551.63348  20482312.2214   20482315.4224   20482313.283
        54.0004         50.0004
  -2398116.18547  -1807918.14646  23841760.6474   23841761.9724   23841760.039
        46.0004         41.0004
  -7497936.06548  -5789601.86447  22790679.3094   22790679.5464   22790679.116
        48.0004         44.0004
 -10764364.29348  -8325608.90547  22683125.5464   22683127.7444   22683126.014
        50.0004         45.0004
 -16068544.50348 -12458322.75347  21432651.7344   21432653.6644   21432652.221
        52.0004         47.0004
  -1578806.41247  -1215268.45846  24479641.1494   24479644.2324   24479640.524
        43.0004         38.0004
  -7612140.23847  -5858359.72446  23407919.9734   23407924.3164   23407919.226
        46.0004         41.0004
 15  5  1  1 10 30.0000000  0 10G11G01G04G32G31G22G19G14G27G03
 -20318087.98149 -15773989.99048  20575177.7234   20575179.0694   20575177.451
        54.0004         49.0004
 -18314691.41248 -14181336.54748  21375577.8344   21375583.2644   21375578.052
        52.0004         48.0004
 -24736430.19049 -19210446.53948  20099093.6084   20099095.9804   20099093.527
        55.0004         50.0004
 -23299640.65749 -18078368.03648  20477717.1104   20477720.3414   20477717.681
        54.0004         50.0004
  -2491616.44147  -1880775.46447  23823967.1184   23823969.6064   23823966.148
        46.0004         42.0004
  -7422015.09148  -5730442.67547  22805125.0904   22805127.1394   22805125.623
        48.0004         44.0004
 -10671147.07248  -8252972.13847  22700863.4614   22700866.0884   22700864.777
        50.0004         45.0004
 -16021017.89648 -12421289.03247  21441695.7164   21441697.7854   21441695.861
        52.0004         47.0004
  -1467019.37647  -1128161.70546  24500911.8444   24500917.9154   24500913.086
        43.0004         39.0004
  -7695647.72447  -5923430.44046  23392028.2224   23392033.4984   23392028.606
        46.0004         41.0004
 15  5  1  1 11  0.0000000  0 10G11G01G04G32G31G22G19G14G27G03
 -20340657.73649 -15791576.80048  20570883.2394   20570884.4714   20570883.454
        54.0004         49.0004
 -18380823.54748 -14232868.06548  21362994.0284   21362998.4524   21362993.591
        53.0004         48.0004
 -24746933.28849 -19218630.76848  20097094.8494   20097097.4594   20097094.955
        55.0004         50.0004
 -23323435.52349 -18096909.48748  20473188.9494   20473192.4644   20473189.151
        54.0004         50.0004
  -2584964.08247  -1953513.87047  23806203.6574   23806206.7654   23806203.294
        46.0004         42.0004
  -7345973.35748  -5671189.40747  22819595.4384   22819597.4284   22819596.663
        48.0004         43.0004
 -10577640.64148  -8180110.01047  22718658.4054   22718659.5924   22718659.142
        50.0004         46.0004
 -15973029.35548 -12383895.36347  21450827.6434   21450829.5694   21450827.137
        52.0004         47.0004
  -1355226.92647  -1041050.73646  24522184.8484   24522192.0624   24522185.669
        43.0004         39.0004
  -7779028.56947  -5988402.47346  23376162.1324   23376167.4174   23376161.736
        46.0004         41.0004
 15  5  1  1 11 30.0000000  0 10G11G01G04G32G31G22G19G14G27G03
 -20362651.86649 -15808715.07648  20566697.6124   20566698.9604   20566698.195
        54.0004         49.0004
 -18446634.81148 -14284149.55748  21350469.9474   21350475.0454   21350469.744
        53.0004         48.0004
 -24756936.23749 -19226425.26448  20095191.4374   20095193.6854   20095191.821
        55.0004         50.0004
 -23346877.45549 -18115175.91648  20468727.9874   20468731.6574   20468728.656
        54.0004         50.0004
  -2678155.29847  -2026130.33746  23788468.8404   23788472.8324   23788470.018
        46.0004         41.0004
  -7269811.07948  -5611842.21847  22834089.4414   22834090.9114   22834089.873
        48.0004         43.0004
 -10483847.29348  -8107024.31647  22736506.3024   22736508.4404   22736507.659
        50.0004         46.0004
 -15924580.63648 -12346143.10147  21460046.7534   21460048.5984   21460047.130
        52.0004         47.0004
  -1243431.48447   -953937.42446  24543459.1234   24543465.2674   24543458.478
        43.0004         39.0004
  -7862282.01047  -6053275.22546  23360319.5524   23360324.5224   23360319.179
        46.0004         41.0004
 15  5  1  1 12  0.0000000  0 10G11G01G04G32G31G22G19G14G27G03
 -20384069.48749 -15825404.13148  20562621.3794   20562623.4294   20562621.696
        54.0004         49.0004
 -18512123.72648 -14335179.85248  21338008.2824   21338013.8424   21338008.002
        53.0004         48.0004
 -24766438.73949 -19233829.81448  20093383.3294   20093385.1264   20093383.123
        55.0004         50.0004
 -23369967.26449 -18133167.95848  20464333.9914   20464337.1534   20464334.604
        54.0004         50.0004
  -2771187.56247  -2098622.97347  23770767.1094   23770768.2024   23770767.683
        46.0004         42.0004
  -7193529.67048  -5552402.18947  22848604.6634   22848606.3184   22848606.451
        48.0004         43.0004
 -10389770.43048  -8033717.69147  22754409.4534   22754410.6074   22754410.346
        50.0004         46.0004
 -15875674.35348 -12308034.30547  21469353.4774   21469355.5264   21469353.966
        52.0004         47.0004
  -1131636.23047   -866824.25046  24564731.4064   24564739.7684   24564732.503
        43.0004         38.0004
  -7945408.17347  -6118048.80146  23344500.2194   23344507.1594   23344499.390
        46.0004         41.0004
 15  5  1  1 12 30.0000000  0 10G11G01G04G32G31G22G19G14G27G03
 -20404910.66349 -15841644.00648  20558656.2264   20558657.5354   20558656.738
        54.0004         49.0004
 -18577289.25948 -14385958.16648  21325607.9684   21325612.5504   21325608.051
        53.0004         48.0004
 -24775440.75049 -19240844.36348  20091670.0074   20091672.7404   20091670.086
        55.0004         50.0004
 -23392706.19349 -18150886.59348  20460006.7134   20460010.1894   20460007.264
        54.0004         50.0004
  -2864058.62347  -2170990.00047  23753094.4504   23753095.3824   23753094.776
        46.0004         42.0004
  -7117130.49848  -5492870.39047  22863143.1764   22863142.9324   22863144.259
        48.0004         43.0004
 -10295413.80348  -7960193.05947  22772363.6614   22772366.2504   22772365.871
        50.0004         45.0004
 -15826313.09048 -12269570.97847  21478746.5764   21478748.8364   21478747.283
        52.0004         47.0004
  -1019844.81847   -779714.08946  24586006.4574   24586011.9594   24586006.709
        42.0004         38.0004
  -8028407.52147  -6182723.56847  23328706.1514   23328710.4964   23328704.553
        46.0004         42.0004
 15  5  1  1 13  0.0000000  0 10G11G01G04G32G31G22G19G14G27G03
 -20425170.63649 -15857430.99048  20554800.2514   20554801.9054   20554800.790
        54.0004         49.0004
 -18642125.62648 -14436479.98648  21313269.6074   21313274.4904   21313270.046
        53.0004         48.0004
 -24783937.94549 -19247465.55448  20090053.2394   20090055.2994   20090053.546
        55.0004         51.0004
 -23415090.72849 -18168329.08348  20455747.3074   20455750.5184   20455747.848
        54.0004         50.0004
  -2956761.53747  -2243226.01046  23735452.1054   23735454.6944   23735452.728
        46.0004         41.0004
  -7040610.62548  -5433244.52247  22877705.8894   22877704.9864   22877705.807
        48.0004         43.0004
 -10200776.58248  -7886449.80047  22790373.7254   22790375.0024   22790374.821
        50.0004         45.0004
 -15776495.00648 -12230751.69247  21488226.6214   21488228.5274   21488227.158
        52.0004         47.0004
   -908056.12047   -692606.03446  24607279.9164   24607286.4314   24607281.863
        42.0004         38.0004
  -8111275.87747  -6247296.26547  23312936.7214   23312941.2934   23312934.484
        46.0004         42.0004
 15  5  1  1 13 30.0000000  0 10G11G01G04G32G31G22G19G14G27G03
 -20444852.28149 -15872767.33548  20551055.4754   20551056.7754   20551055.555
        54.0004         49.0004
 -18706634.38148 -14486746.52048  21300994.1724   21300998.4724   21300994.113
        53.0004         48.0004
 -24791932.66849 -19253695.21048  20088531.7764   20088534.1974   20088531.580
        55.0004         51.0004
 -23437124.66749 -18185498.38048  20451554.4694   20451558.1174   20451554.783
        54.0004         50.0004
  -3049296.35347  -2315331.03046  23717844.0074   23717845.8544   23717843.302
        46.0004         41.0004
  -6963974.14148  -5373527.82147  22892288.6504   22892289.5704   22892289.561
        48.0004         44.0004
 -10105864.90948  -7812492.68447  22808434.4874   22808434.9924   22808434.940
        50.0004         45.0004
 -15726225.94948 -12191581.00147  21497793.0574   21497794.4654   21497793.498
        52.0004         47.0004
   -796276.41447   -605505.00546  24628551.2434   24628555.9064   24628552.272
        42.0004         38.0004
  -8194016.30047  -6311769.28047  23297191.6814   23297196.0824   23297191.555
        46.0004         42.0004
 15  5  1  1 14  0.0000000  0 10G11G01G04G32G31G22G19G14G27G03
 -20463953.58849 -15887651.46948  20547420.2924   20547421.8534   20547421.156
        54.0004         49.0004
 -18770813.01848 -14536755.83748  21288781.5404   21288786.0654   21288781.126
        53.0004         48.0004
 -24799423.73149 -19259532.39848  20087106.5604   20087108.8314   20087106.689
        55.0004         51.0004
 -23458807.75249 -18202394.27848  20447428.5994   20447431.8214   20447429.400
        54.0004         50.0004
  -3141659.51747  -2387302.28646  23700268.6564   23700268.2534   23700267.697
        46.0004         41.0004
  -6887221.30948  -5313720.45447  22906894.4504   22906894.5104   22906895.081
        49.0004         44.0004
 -10010681.23248  -7738323.61347  22826546.8264   22826548.1084   22826548.021
        49.0004         45.0004
 -15675507.11448 -12152059.83347  21507444.1054   21507446.8234   21507444.565
        52.0004         47.0004
   -684507.86247   -518412.63346  24649819.1434   24649825.1754   24649820.395
        43.0004         38.0004
  -8276627.88247  -6376141.88447  23281472.4964   23281476.4344   23281470.697
        46.0004         42.0004
 15  5  1  1 14 30.0000000  0 10G11G01G04G32G31G22G19G14G27G03
 -20482472.00149 -15902081.39448  20543896.4094   20543898.2174   20543897.320
        54.0004         49.0004
 -18834657.85748 -14586505.04148  21276632.1504   21276636.9514   21276631.792
        53.0004         48.0004
 -24806408.75149 -19264975.27348  20085777.0074   20085779.4104   20085777.155
        55.0004         51.0004
 -23480138.58049 -18219015.69148  20443369.7614   20443372.4274   20443370.336
        54.0004         50.0004
  -3233846.02747  -2459135.89246  23682726.0674   23682727.5404   23682725.468
        46.0004         41.0004
  -6810351.09348  -5253821.61347  22921522.2914   22921522.3024   22921522.775
        49.0004         44.0004
  -9915226.74648  -7663943.51747  22844711.9714   22844712.6054   22844712.804
        49.0004         44.0004
 -15624338.46148 -12112188.16047  21517181.9134   21517183.0174   21517181.880
        52.0004         47.0004
   -572751.46247   -431329.73546  24671085.7964   24671090.5744   24671085.267
        43.0004         38.0004
  -8359108.49547  -6440412.44247  23265775.7064   23265780.9064   23265776.468
        46.0004         42.0004
 15  5  1  1 15  0.0000000  0 10G11G01G04G32G31G22G19G14G27G03
 -20500408.66249 -15916058.00848  20540483.2534   20540484.9254   20540483.453
        54.0004         49.0004
 -18898169.08548 -14635994.28248  21264545.9644   21264551.1484   21264545.476
        53.0004         48.0004
 -24812888.80049 -19270024.65548  20084543.8244   20084545.9644   20084543.605
        55.0004         50.0004
 -23501119.63149 -18235364.54848  20439376.6194   20439379.8824   20439377.630
        54.0004         50.0004
  -3325854.58847  -2530830.86046  23665215.3284   23665219.9934   23665215.485
        46.0004         41.0004
  -6733366.42048  -5193833.58147  22936170.9524   22936171.4534   22936171.813
        49.0004         44.0004
  -9819506.27048  -7589356.15747  22862926.4434   22862927.7674   22862927.091
        49.0004         44.0004
 -15572724.42648 -12071969.41747  21527002.8184   21527004.3594   21527003.141
        52.0004         47.0004
   -461011.98647   -344260.04146  24692347.6934   24692354.3444   24692348.154
        43.0004         38.0004
  -8441459.86747  -6504582.29346  23250103.8424   23250110.0334   23250101.138
        46.0004         41.0004
 15  5  1  1 15 30.0000000  0 10G11G01G04G32G31G22G19G14G27G03
 -20517760.61649 -15929579.01148  20537181.3144   20537182.9524   20537181.970
        54.0004         49.0004
 -18961342.10848 -14685219.99648  21252524.4614   21252529.6554   21252523.929
        53.0004         49.0004
 -24818860.73049 -19274678.11248  20083407.4764   20083409.7764   20083407.459
        55.0004         51.0004
 -23521748.58049 -18251439.04548  20435451.2674   20435454.2804   20435452.058
        54.0004         50.0004
  -3417679.59547  -2602382.81146  23647741.0464   23647745.4614   23647741.504
        45.0004         40.0004
  -6656265.20848  -5133754.75047  22950843.3444   22950844.3524   22950844.359
        48.0004         44.0004
  -9723520.55848  -7514562.13247  22881191.2114   22881193.8934   22881192.333
        49.0004         44.0004
 -15520664.63548 -12031403.35547  21536909.4194   21536911.4194   21536909.964
        52.0004         47.0004
   -349289.59147   -257203.67346  24713608.8094   24713615.1844   24713608.461
        43.0004         38.0004
  -8523678.91747  -6568649.03246  23234459.0414   23234462.3944   23234458.578
        46.0004         41.0004
 15  5  1  1 16  0.0000000  0 10G11G01G04G32G31G22G19G14G27G03
 -20534526.06849 -15942642.99648  20533991.0084   20533992.1794   20533991.124
        54.0004         49.0004
 -19024174.52848 -14734180.30948  21240568.0104   21240572.7364   21240568.230
        53.0004         49.0004
 -24824323.20949 -19278934.58948  20082368.1574   20082370.2614   20082368.326
        55.0004         51.0004
 -23542025.33849 -18267239.10348  20431592.7504   20431596.0384   20431593.394
        54.0004         50.0004
  -3509317.49847  -2673788.91846  23630305.6134   23630307.1164   23630305.338
        46.0004         41.0004
  -6579047.59848  -5073585.21947  22965536.0064   22965537.9584   22965537.642
        48.0004         43.0004
  -9627271.89748  -7439563.19547  22899507.4324   22899509.5794   22899508.449
        49.0004         44.0004
 -15468160.39848 -11990490.96247  21546900.9884   21546902.2594   21546901.157
        52.0004         47.0004
   -237586.50647   -170162.35546  24734866.0334   24734871.0964   24734865.677
        43.0004         38.0004
  -8605764.84947  -6632612.03447  23218838.4424   23218843.2934   23218838.078
        46.0004         42.0004
 15  5  1  1 16 30.0000000  0 10G11G01G04G32G31G22G19G14G27G03
 -20550702.89549 -15955248.31948  20530912.3644   20530914.3904   20530912.621
        54.0004         49.0004
 -19086662.88148 -14782872.50548  21228676.4164   21228682.2664   21228675.830
        53.0004         49.0004
 -24829273.96449 -19282792.31248  20081425.8684   20081428.4754   20081426.044
        55.0004         51.0004
 -23561948.63049 -18282763.73548  20427801.6344   20427804.3634   20427802.321
        54.0004         50.0004
  -3600763.50147  -2745045.47446  23612902.6244   23612904.8294   23612901.790
        46.0004         41.0004
  -6501713.03148  -5013324.54047  22980253.1154   22980253.8294   22980253.694
        48.0004         43.0004
  -9530761.81148  -7364360.55947  22917872.2144   22917875.5084   22917873.774
        49.0004         44.0004
 -15415212.55348 -11949232.90047  21556976.2524   21556977.9054   21556976.509
        51.0004         47.0004
   -125903.89047    -83136.99246  24756117.5484   24756123.4704   24756115.807
        43.0004         39.0004
  -8687715.71947  -6696469.80747  23203243.9884   23203248.6534   23203244.199
        47.0004         42.0004
 15  5  1  1 17  0.0000000  0 10G11G01G04G32G31G22G19G14G27G03
 -20566297.65249 -15967400.07448  20527945.0544   20527946.7944   20527945.505
        54.0004         49.0004
 -19148812.64848 -14831300.87148  21216850.3404   21216855.1934   21216850.188
        53.0004         49.0004
 -24833719.80049 -19286256.60148  20080580.2414   20080581.8444   20080580.011
        55.0004         51.0004
 -23581526.35749 -18298019.09848  20424076.1684   20424078.5364   20424076.965
        54.0004         50.0004
  -3692021.30447  -2816155.43246  23595536.5864   23595539.5634   23595537.252
        46.0004         41.0004
  -6424269.54847  -4952979.00347  22994989.9844   22994990.9184   22994990.551
        47.0004         43.0004
  -9434000.36148  -7288962.06247  22936285.2324   22936287.0594   22936286.724
        49.0004         44.0004
 -15361830.19048 -11907636.24947  21567135.1324   21567136.5324   21567135.367
        52.0004         47.0004
    -14251.84047      3864.56546  24777365.0374   24777370.9524   24777363.437
        43.0004         39.0004
  -8769538.60047  -6760227.84847  23187673.9224   23187678.7944   23187671.924
        47.0004         42.0004
 15  5  1  1 17 30.0000000  0 10G11G01G04G32G31G22G19G14G27G03
 -20581306.97349 -15979095.65148  20525088.5884   20525090.3594   20525088.837
        54.0004         49.0004
 -19210619.39548 -14879461.96548  21205089.0124   21205093.2044   21205088.896
        53.0004         49.0004
 -24837657.53349 -19289324.96348  20079830.6264   20079832.7604   20079830.760
        55.0004         51.0004
 -23600756.35149 -18313003.50148  20420416.5664   20420419.4034   20420417.452
        54.0004         49.0004
  -3783085.92647  -2887114.86646  23578208.6084   23578210.2974   23578207.835
        46.0004         41.0004
  -6346715.03448  -4892546.95747  23009748.9134   23009750.0164   23009750.137
        48.0004         43.0004
  -9336987.89348  -7213367.96247  22954746.2374   22954748.3174   22954747.544
        49.0004         44.0004
 -15308013.01948 -11865700.79247  21577376.3854   21577377.8814   21577376.579
        52.0004         47.0004
     97369.38547     90842.09146  24798605.4724   24798611.9254   24798607.557
        43.0004         39.0004
  -8851230.57947  -6823883.88347  23172126.9904   23172133.7984   23172127.359
        47.0004         42.0004
 15  5  1  1 18  0.0000000  0 10G11G01G04G32G31G22G19G14G27G03
 -20595726.30249 -15990331.48948  20522344.7584   20522346.4334   20522345.118
        54.0004         49.0004
 -19272077.29749 -14927351.22248  21193393.7164   21193398.5144   21193393.861
        54.0004         49.0004
 -24841082.45949 -19291993.73648  20079178.8694   20079181.0774   20079178.796
        55.0004         51.0004
 -23619635.02249 -18327714.14548  20416823.7784   20416827.2484   20416824.285
        54.0004         49.0004
  -3873950.00947  -2957917.99646  23560916.2074   23560919.7304   23560915.647
        46.0004         41.0004
  -6269046.44648  -4832026.01347  23024529.6414   23024530.7394   23024530.282
        48.0004         43.0004
  -9239723.69548  -7137577.69347  22973255.5324   22973256.3224   22973256.959
        49.0004         44.0004
 -15253759.34848 -11823425.21447  21587699.7684   21587702.4704   21587700.885
        52.0004         47.0004
    208961.01547    177796.56646  24819841.8234   24819847.1494   24819843.624
        43.0004         39.0004
  -8932787.40447  -6887434.58847  23156607.4684   23156613.5764   23156607.088
        47.0004         42.0004
 15  5  1  1 18 30.0000000  0 10G11G01G04G32G31G22G19G14G27G03
 -20609556.89549 -16001108.56548  20519712.8304   20519714.5214   20519713.302
        54.0004         49.0004
 -19333186.53448 -14974968.78848  21181764.7214   21181769.6574   21181764.635
        53.0004         49.0004
 -24843996.25249 -19294264.22148  20078624.3324   20078626.9884   20078624.372
        55.0004         51.0004
 -23638164.94449 -18342153.03948  20413297.6464   20413301.1844   20413297.655
        54.0004         50.0004
  -3964612.31347  -3028563.92846  23543665.4594   23543667.8174   23543665.844
        46.0004         41.0004
  -6191266.58748  -4771418.37647  23039329.9034   23039330.1524   23039330.843
        48.0004         43.0004
  -9142212.40848  -7061594.92147  22991810.6954   22991812.7734   22991812.783
        49.0004         44.0004
 -15199073.20448 -11780812.63847  21598106.5404   21598109.3494   21598107.080
        52.0004         47.0004
    320518.29647    264724.27346  24841068.9564   24841075.2564   24841070.761
        43.0004         38.0004
  -9014210.73247  -6950881.27247  23141113.1014   23141117.7784   23141114.033
        47.0004         42.0004
 15  5  1  1 19  0.0000000  0 10G11G01G04G32G31G22G19G14G27G03
 -20622797.99749 -16011426.30748  20517193.5304   20517194.8824   20517193.858
        54.0004         49.0004
 -19393945.22348 -15022313.21548  21170203.0724   21170207.8444   21170202.728
        53.0004         49.0004
 -24846398.18249 -19296135.86248  20078167.2514   20078169.7154   20078167.514
        55.0004         51.0004
 -23656346.51149 -18356320.48648  20409838.0634   20409841.0604   20409838.306
        54.0004         50.0004
  -4055069.79847  -3099050.22846  23526451.1394   23526453.3154   23526450.683
        46.0004         41.0004
  -6113376.18948  -4710724.58547  23054152.0184   23054152.3274   23054153.004
        48.0004         43.0004
  -9044457.35548  -6985422.18747  23010412.5344   23010415.8814   23010413.683
        49.0004         44.0004
 -15143956.70648 -11737864.71447  21608594.6004   21608597.3754   21608595.262
        52.0004         47.0004
    432038.42447    351623.03846  24862291.9934   24862297.2044   24862290.405
        43.0004         38.0004
  -9095500.26147  -7014223.70347  23125644.8834   23125648.8234   23125644.356
        47.0004         42.0004
 15  5  1  1 19 30.0000000  0 10G11G01G04G32G31G22G19G14G27G03
 -20635448.79349 -16021284.06248  20514785.9534   20514787.3514   20514786.396
        54.0004         49.0004
 -19454351.20949 -15069382.80648  21158707.7384   21158713.1694   21158707.773
        54.0004         49.0004
 -24848287.41049 -19297607.99048  20077807.5314   20077809.9484   20077807.162
        55.0004         51.0004
 -23674179.77049 -18370216.52748  20406444.1814   20406447.6024   20406444.766
        54.0004         50.0004
  -4145319.04447  -3169374.24446  23509277.9314   23509279.0804   23509277.597
        46.0004         41.0004
  -6035375.85248  -4649945.12047  23068993.5474   23068997.1354   23068994.913
        48.0004         43.0004
  -8946461.24048  -6909061.61047  23029061.3924   23029063.5194   23029061.707
        49.0004         44.0004
 -15088412.07448 -11694583.18447  21619164.6464   21619165.8854   21619164.834
        52.0004         47.0004
    543518.95347    438490.93146  24883505.2164   24883511.4684   24883505.161
        42.0004         38.0004
  -9176655.39347  -7077461.40547  23110201.1494   23110206.4524   23110201.737
        47.0004         42.0004
 15  5  1  1 20  0.0000000  0 10G11G01G04G32G31G22G19G14G27G03
 -20647508.36749 -16030681.13148  20512491.3954   20512492.6744   20512491.904
        54.0004         50.0004
 -19514402.33749 -15116175.87548  21147280.5954   21147285.5274   21147280.582
        54.0004         49.0004
 -24849663.02549 -19298679.89648  20077545.8694   20077548.0714   20077545.434
        55.0004         51.0004
 -23691664.97349 -18383841.35048  20403117.0974   20403119.6584   20403117.719
        54.0004         49.0004
  -4235356.42147  -3239533.19146  23492143.4324   23492145.5004   23492142.064
        46.0004         41.0004
  -5957265.58648  -4589079.99647  23083858.3164   23083860.2184   23083859.733
        48.0004         43.0004
  -8848226.64548  -6832515.19747  23047755.0244   23047756.3224   23047756.025
        49.0004         44.0004
 -15032440.66148 -11650969.10347  21629815.4364   21629817.0354   21629815.825
        51.0004         47.0004
    654957.56947    525326.15346  24904711.1804   24904718.2564   24904713.560
        42.0004         37.0004
  -9257675.48447  -7140593.89247  23094784.5754   23094789.6204   23094783.460
        47.0004         43.0004
 15  5  1  1 20 30.0000000  0 10G11G01G04G32G31G22G19G14G27G03
 -20658975.99349 -16039616.93948  20510309.2604   20510310.6534   20510309.944
        54.0004         50.0004
 -19574096.39449 -15162690.71548  21135921.3984   21135926.1794   21135921.072
        54.0004         49.0004
 -24850524.29449 -19299351.01948  20077382.3814   20077384.2254   20077382.633
        55.0004         51.0004
 -23708802.17549 -18397194.99848  20399855.8084   20399858.9214   20399856.416
        54.0004         50.0004
  -4325178.94147  -3309524.74246  23475051.6894   23475052.7724   23475050.410
        46.0004         41.0004
  -5879046.06247  -4528129.75947  23098743.8094   23098745.0224   23098745.307
        47.0004         42.0004
  -8749756.51348  -6755785.25447  23066492.8214   23066494.4534   23066494.080
        49.0004         44.0004
 -14976044.69048 -11607024.19947  21640546.8914   21640549.5064   21640546.991
        51.0004         47.0004
    766351.74447    612126.72246  24925910.1674   24925914.5784   24925910.419
        42.0004         37.0004
  -9338559.90347  -7203620.65947  23079391.9364   23079397.5524   23079390.564
        47.0004         42.0004
 15  5  1  1 21  0.0000000  0 10G11G01G04G32G31G22G19G14G27G03
 -20669850.32349 -16048090.44148  20508239.5364   20508241.2524   20508240.479
        54.0004         50.0004
 -19633430.81149 -15208925.31548  21124630.2764   21124634.9744   21124630.120
        54.0004         49.0004
 -24850870.00649 -19299620.40048  20077315.8954   20077318.9794   20077315.755
        55.0004         51.0004
 -23725591.14449 -18410277.29948  20396661.0374   20396664.3614   20396661.610
        54.0004         50.0004
  -4414782.82947  -3379345.93246  23458001.3074   23458002.4234   23458001.193
        46.0004         41.0004
  -5800717.39047  -4467094.42447  23113649.1844   23113649.2124   23113650.614
        47.0004         42.0004
  -8651052.98148  -6678873.44847  23085276.1244   23085276.3924   23085277.088
        49.0004         45.0004
 -14919225.84948 -11562749.78547  21651359.9154   21651361.5704   21651360.606
        51.0004         47.0004
    877699.53447    698891.14346  24947097.4414   24947102.7254   24947098.400
        42.0004         37.0004
  -9419307.61347  -7266540.91247  23064025.8634   23064031.3854   23064024.623
        47.0004         42.0004
 15  5  1  1 21 30.0000000  0 10G11G01G04G32G31G22G19G14G27G03
 -20680132.01549 -16056102.14748  20506283.3054   20506284.5554   20506283.887
        54.0004         50.0004
 -19692405.00149 -15254879.22448  21113407.5294   21113413.1044   21113408.498
        54.0004         49.0004
 -24850700.77449 -19299488.53048  20077348.4654   20077351.0254   20077348.510
        55.0004         51.0004
 -23742033.60849 -18423089.60148  20393532.2854   20393535.2304   20393532.942
        54.0004         50.0004
  -4504165.73747  -3448994.89346  23440991.6114   23440993.9104   23440990.388
        45.0004         40.0004
  -5722281.57947  -4405975.61647  23128574.5014   23128574.2264   23128574.927
        47.0004         42.0004
  -8552120.82948  -6601783.49447  23104101.9754   23104105.5424   23104103.927
        49.0004         45.0004
 -14861987.55148 -11518148.51647  21662251.7274   21662254.0844   21662252.653
        51.0004         47.0004
    988996.89347    785616.27646  24968277.4444   24968283.8864   24968276.730
        42.0004         37.0004
  -9499919.46647  -7329355.29947  23048686.7044   23048691.0524   23048686.564
        47.0004         42.0004
 15  5  1  1 22  0.0000000  0 10G11G01G04G32G31G22G19G14G27G03
 -20689820.22949 -16063651.41248  20504439.7244   20504440.9124   20504439.577
        54.0004         50.0004
 -19751016.78649 -15300550.74148  21102254.0914   21102259.6524   21102253.433
        54.0004         49.0004
 -24850015.71649 -19298954.72348  20077479.0824   20077481.2194   20077479.009
        55.0004         51.0004
 -23758129.64349 -18435631.95648  20390469.2494   20390472.2904   20390469.875
        54.0004         50.0004
  -4593324.05347  -3518468.90846  23424025.0344   23424026.9274   23424023.502
        45.0004         40.0004
  -5643738.97047  -4344773.63647  23143521.3044   23143522.6454   23143522.341
        47.0004         42.0004
  -8452962.18348  -6524517.05347  23122971.8554   23122972.9634   23122972.912
        49.0004         45.0004
 -14804331.37348 -11473221.63647  21673223.5134   21673225.0514   21673223.880
        51.0004         46.0004
   1100241.50847    872300.31146  24989445.9094   24989452.3734   24989446.009
        42.0004         38.0004
  -9580394.91947  -7392063.37847  23033372.6224   23033377.9614   23033371.319
        47.0004         43.0004
 15  5  1  1 22 30.0000000  0 10G11G01G04G32G31G22G19G14G27G03
 -20698911.74349 -16070735.71848  20502709.1204   20502711.1064   20502710.044
        54.0004         50.0004
 -19809261.55549 -15345936.27048  21091170.1794   21091176.0914   21091170.322
        54.0004         49.0004
 -24848811.79049 -19298016.59048  20077707.9954   20077710.5044   20077707.903
        55.0004         51.0004
 -23773877.03949 -18447902.64148  20387472.5944   20387475.8884   20387473.226
        54.0004         50.0004
  -4682252.45747  -3587763.70346  23407102.1994   23407103.6344   23407101.858
        45.0004         41.0004
  -5565087.59847  -4283486.91647  23158488.3784   23158488.6174   23158489.821
        47.0004         43.0004
  -8353577.41348  -6447074.39947  23141883.6944   23141885.7924   23141884.550
        49.0004         44.0004
 -14746257.02948 -11427968.92547  21684275.0554   21684276.4414   21684275.863
        51.0004         46.0004
   1211433.41047    958943.27446  25010605.2124   25010612.1904   25010605.419
        42.0004         38.0004
  -9660730.89547  -7454662.77647  23018084.6294   23018090.4524   23018084.252
        47.0004         43.0004
 15  5  1  1 23  0.0000000  0 10G11G01G04G32G31G22G19G14G27G03
 -20707409.11449 -16077357.04048  20501092.3004   20501094.1744   20501092.574
        54.0004         50.0004
 -19867140.55549 -15391036.77748  21080156.5004   21080161.5814   21080156.092
        54.0004         49.0004
 -24847091.60749 -19296676.19348  20078035.5734   20078037.4794   20078035.311
        55.0004         51.0004
 -23789279.26249 -18459904.37048  20384541.6854   20384544.9624   20384541.891
        54.0004         50.0004
  -4770950.51547  -3656879.01446  23390223.8894   23390225.4134   23390224.017
        46.0004         41.0004
  -5486330.92647  -4222118.13647  23173475.2774   23173475.1374   23173476.317
        47.0004         43.0004
  -8253972.62448  -6369460.30047  23160837.5384   23160840.0514   23160839.674
        49.0004         45.0004
 -14687769.66248 -11382394.34847  21695404.6044   21695405.6964   21695405.486
        51.0004         47.0004
   1322566.82947   1045540.65746  25031753.3504   25031758.9534   25031752.292
        42.0004         38.0004
  -9740930.05747  -7517155.56747  23002823.0544   23002829.0704   23002823.236
        47.0004         42.0004
 15  5  1  1 23 30.0000000  0 10G11G01G04G32G31G22G19G14G27G03
 -20715310.44949 -16083513.92948  20499589.0014   20499590.2644   20499589.544
        54.0004         50.0004
 -19924650.37349 -15435849.62548  21069212.7744   21069217.9574   21069212.181
        54.0004         49.0004
 -24844853.17949 -19294931.96748  20078461.6104   20078463.5774   20078461.601
        55.0004         51.0004
 -23804335.26749 -18471636.31348  20381676.5944   20381679.7704   20381677.319
        54.0004         50.0004
  -4859413.85947  -3725811.46646  23373389.1584   23373391.6724   23373388.619
        46.0004         41.0004
  -5407468.64948  -4160667.03747  23188482.5354   23188482.5844   23188482.755
        48.0004         43.0004
  -8154149.21248  -6291675.84047  23179834.3504   23179835.8494   23179835.335
        49.0004         45.0004
 -14628870.21448 -11336498.68147  21706611.9524   21706614.5114   21706613.138
        51.0004         47.0004
   1433640.54447   1132091.50846  25052890.1854   25052894.7324   25052890.094
        42.0004         38.0004
  -9820990.59547  -7579540.35847  22987588.5594   22987593.9484   22987586.342
        47.0004         42.0004
 15  5  1  1 24  0.0000000  0 10G11G01G04G32G31G22G19G14G27G03
 -20722616.43849 -16089206.90048  20498198.6264   20498199.5504   20498198.813
        54.0004         50.0004
 -19981790.42949 -15480374.32848  21058339.3784   21058344.6174   21058339.815
        54.0004         49.0004
 -24842097.31249 -19292784.53848  20078985.8114   20078988.0604   20078985.341
        55.0004         51.0004
 -23819046.68349 -18483099.73648  20378877.0394   20378880.4364   20378878.146
        54.0004         50.0004
  -4947640.61147  -3794559.57146  23356601.0094   23356602.5694   23356599.999
        45.0004         41.0004
  -5328502.52948  -4099135.03447  23203509.2344   23203508.8394   23203510.683
        48.0004         44.0004
  -8054111.73748  -6213724.60747  23198869.6914   23198871.6014   23198871.323
        49.0004         44.0004
 -14569561.98648 -11290284.47447  21717898.9834   21717900.2274   21717899.400
        51.0004         47.0004
   1544650.79747   1218592.92846  25074015.2284   25074019.2084   25074016.203
        42.0004         38.0004
  -9900913.44347  -7641817.84447  22972379.5264   22972383.8094   22972378.548
        47.0004         42.0004
 15  5  1  1 24 30.0000000  0 10G11G01G04G32G31G22G19G14G27G03
 -20729323.75849 -16094433.38048  20496922.4574   20496923.7104   20496922.877
        54.0004         50.0004
 -20038556.01549 -15524607.25648  21047537.1444   21047542.8394   21047536.335
        54.0004         49.0004
 -24838820.70749 -19290231.33848  20079609.1224   20079611.5854   20079609.165
        55.0004         51.0004
 -23833411.28649 -18494292.91848  20376143.6944   20376146.6664   20376144.631
        55.0004         50.0004
  -5035624.50347  -3863118.40246  23339858.1044   23339858.6154   23339857.833
        46.0004         41.0004
  -5249430.21448  -4037520.28147  23218556.4314   23218556.1064   23218556.741
        48.0004         43.0004
  -7953860.04648  -6135606.46247  23217947.2374   23217949.2154   23217947.810
        49.0004         44.0004
 -14509844.30548 -11243751.23447  21729262.4494   21729264.9084   21729263.029
        51.0004         46.0004
   1655597.56047   1305044.86446  25095127.7354   25095132.8534   25095128.823
        42.0004         38.0004
  -9980695.37847  -7703985.53547  22957196.6204   22957202.7664   22957195.514
        47.0004         42.0004
 15  5  1  1 25  0.0000000  0 10G11G01G04G32G31G22G19G14G27G03
 -20735433.43049 -16099194.17148  20495759.3694   20495761.0604   20495759.762
        54.0004         50.0004
 -20094946.67249 -15568548.01748  21036806.6694   21036811.5654   21036806.675
        54.0004         49.0004
 -24835024.49449 -19287273.24248  20080331.6914   20080333.3224   20080331.825
        55.0004         51.0004
 -23847430.78549 -18505217.18948  20373475.7214   20373478.9474   20373476.692
        55.0004         50.0004
  -5123363.87247  -3931486.68946  23323161.0224   23323163.2734   23323160.749
        46.0004         41.0004
  -5170253.83947  -3975824.46147  23233622.5234   23233623.4734   23233623.064
        47.0004         43.0004
  -7853398.64348  -6057324.86747  23237065.8604   23237065.3874   23237066.983
        48.0004         44.0004
 -14449721.12948 -11196902.02647  21740703.9384   21740705.9164   21740704.070
        51.0004         46.0004
   1766476.90847   1391444.28546  25116227.2404   25116232.6244   25116227.574
        42.0004         37.0004
 -10060337.45147  -7766044.24247  22942042.3244   22942047.0884   22942040.502
        47.0004         42.0004
 15  5  1  1 25 30.0000000  0 10G11G01G04G32G31G22G19G14G27G03
 -20740947.13849 -16103490.56748  20494710.4634   20494711.9614   20494710.559
        54.0004         50.0004
 -20150962.30249 -15612196.55548  21026147.4624   21026152.0524   21026147.293
        54.0004         49.0004
 -24830709.90149 -19283911.22948  20081152.5174   20081154.7864   20081152.405
        55.0004         51.0004
 -23861107.48249 -18515874.34348  20370873.1994   20370876.0344   20370874.362
        55.0004         50.0004
  -5210857.39847  -3999663.45046  23306512.8764   23306514.1964   23306512.244
        46.0004         41.0004
  -5090975.97147  -3914049.53747  23248707.7024   23248707.8234   23248708.818
        47.0004         42.0004
  -7752732.39348  -5978883.64347  23256220.0634   23256222.3874   23256221.881
        48.0004         43.0004
 -14389196.05148 -11149739.63647  21752220.9234   21752223.4784   21752221.038
        51.0004         46.0004
   1877284.38647   1477787.68046  25137313.0854   25137319.7794   25137314.053
        42.0004         37.0004
 -10139841.05047  -7827995.05147  22926912.0514   22926917.8624   22926911.125
        47.0004         42.0004
 15  5  1  1 26  0.0000000  0 10G11G01G04G32G31G22G19G14G27G03
 -20745860.57749 -16107319.22548  20493775.4354   20493776.7944   20493775.791
        54.0004         50.0004
 -20206597.32249 -15655548.51248  21015560.2814   21015564.8314   21015559.738
        54.0004         49.0004
 -24825872.85949 -19280142.10648  20082073.0764   20082075.9244   20082073.282
        55.0004         51.0004
 -23874438.13249 -18526261.85348  20368336.6584   20368339.5244   20368337.289
        55.0004         50.0004
  -5298098.37447  -4067643.41647  23289911.5304   23289912.8204   23289912.684
        46.0004         42.0004
  -5011593.40747  -3852193.04847  23263814.5614   23263816.0024   23263815.465
        47.0004         42.0004
  -7651860.40548  -5900282.12447  23275416.1014   23275417.6214   23275418.145
        48.0004         44.0004
 -14328267.84448 -11102263.10447  21763814.9854   21763817.1434   21763815.446
        51.0004         46.0004
   1988021.07447   1564075.91846  25158386.7014   25158391.5344   25158385.799
        42.0004         37.0004
 -10219202.19047  -7889834.85247  22911810.7224   22911816.4484   22911810.213
        47.0004         42.0004
 15  5  1  1 26 30.0000000  0 10G11G01G04G32G31G22G19G14G27G03
 -20750175.62949 -16110681.60448  20492954.2804   20492955.7614   20492954.427
        55.0004         50.0004
 -20261852.37349 -15698604.38648  21005045.1724   21005050.3354   21005045.584
        54.0004         49.0004
 -24820515.31649 -19275967.39648  20083092.6764   20083095.0234   20083092.667
        55.0004         51.0004
 -23887425.59149 -18536381.94348  20365865.4944   20365867.8744   20365866.135
        55.0004         50.0004
  -5385085.89947  -4135425.85647  23273359.3894   23273359.3094   23273359.299
        47.0004         42.0004
  -4932109.45747  -3790257.54947  23278940.1964   23278942.7014   23278940.682
        47.0004         43.0004
  -7550788.23048  -5821524.65047  23294650.4404   23294651.5874   23294652.370
        48.0004         44.0004
 -14266941.22048 -11054476.13047  21775484.2724   21775487.8114   21775484.873
        51.0004         46.0004
   2098681.91146   1650305.07146  25179441.9824   25179449.9884   25179441.353
        41.0004         37.0004
 -10298422.90147  -7951565.22047  22896735.4394   22896740.2814   22896735.902
        47.0004         43.0004
 15  5  1  1 27  0.0000000  0 10G11G01G04G32G31G22G19G14G27G03
 -20753889.92649 -16113575.86148  20492247.2104   20492248.5584   20492247.563
        54.0004         50.0004
 -20316723.21049 -15741360.87348  20994603.9014   20994609.1534   20994603.136
        54.0004         49.0004
 -24814634.72949 -19271385.12148  20084211.2504   20084213.7784   20084211.060
        55.0004         51.0004
 -23900067.98549 -18546233.14748  20363459.1904   20363462.1514   20363459.790
        55.0004         50.0004
  -5471814.63047  -4203006.65547  23256851.7414   23256855.4844   23256852.245
        46.0004         42.0004
  -4852522.39547  -3728241.68647  23294085.9324   23294085.6724   23294085.512
        47.0004         43.0004
  -7449516.57748  -5742611.70147  23313920.8954   23313922.3244   23313923.098
        48.0004         43.0004
 -14205216.02048 -11006378.58547  21787230.9514   21787234.2534   21787231.325
        51.0004         46.0004
   2209266.57046   1736474.87046  25200487.7964   25200492.8924   25200485.776
        41.0004         36.0004
 -10377500.48547  -8013184.05647  22881687.1784   22881692.2414   22881687.781
        47.0004         43.0004
 15  5  1  1 27 30.0000000  0 10G11G01G04G32G31G22G19G14G27G03
 -20757006.07849 -16116004.03448  20491654.1694   20491655.6524   20491654.340
        54.0004         50.0004
 -20371210.99349 -15783818.87448  20984235.0774   20984240.4584   20984235.024
        54.0004         49.0004
 -24808233.57249 -19266397.20948  20085429.9514   20085432.0504   20085430.045
        55.0004         51.0004
 -23912368.78349 -18555818.17248  20361118.2414   20361121.2144   20361119.077
        55.0004         50.0004
  -5558284.54047  -4270385.79246  23240397.4324   23240399.6234   23240398.270
        46.0004         41.0004
  -4772835.83647  -3666148.28947  23309248.1934   23309249.8944   23309249.975
        47.0004         43.0004
  -7348051.39248  -5663547.95047  23333229.5174   23333230.7524   23333231.508
        48.0004         43.0004
 -14143097.58748 -10957974.62047  21799051.8524   21799054.8294   21799053.073
        51.0004         46.0004
   2319769.57546   1822581.01546  25221515.7264   25221522.8234   25221514.358
        40.0004         36.0004
 -10456437.55348  -8074693.40647  22866666.3404   22866671.2014   22866666.680
        48.0004         43.0004
 15  5  1  1 28  0.0000000  0 10G11G01G04G32G31G22G19G14G27G03
 -20759520.67349 -16117963.46248  20491176.2514   20491177.4224   20491176.716
        54.0004         50.0004
 -20425310.77249 -15825974.53348  20973940.3144   20973945.1564   20973940.137
        54.0004         49.0004
 -24801308.66749 -19261001.17848  20086747.4484   20086750.0684   20086747.413
        55.0004         51.0004
 -23924325.27449 -18565134.91148  20358843.0474   20358846.3234   20358843.991
        55.0004         50.0004
  -5644489.18747  -4337558.22646  23223994.7914   23223996.3124   23223995.683
        46.0004         41.0004
  -4693047.38947  -3603975.49347  23324431.9424   23324432.9064   23324433.208
        47.0004         43.0004
  -7246392.60747  -5584333.36447  23352574.5454   23352576.0744   23352575.684
        47.0004         43.0004
 -14080584.91248 -10909263.45147  21810948.1234   21810950.6004   21810948.241
        51.0004         46.0004
   2430191.30346   1908623.84945  25242527.8634   25242532.0984   25242527.063
        40.0004         35.0004
 -10535230.66648  -8136090.59847  22851671.9594   22851678.3354   22851671.949
        48.0004         43.0004
 15  5  1  1 28 30.0000000  0 10G11G01G04G32G31G22G19G14G27G03
 -20761435.78349 -16119455.75748  20490811.5374   20490813.0924   20490812.200
        55.0004         50.0004
 -20479022.85149 -15867828.09748  20963719.1874   20963724.2134   20963719.043
        54.0004         50.0004
 -24793861.68049 -19255198.33448  20088164.5194   20088167.2544   20088164.679
        55.0004         51.0004
 -23935940.17649 -18574185.47048  20356632.9604   20356636.2394   20356633.569
        55.0004         50.0004
  -5730427.51047  -4404523.10247  23207640.2604   23207642.9814   23207639.546
        46.0004         42.0004
  -4613159.64947  -3541725.33047  23339633.8514   23339634.9114   23339634.361
        47.0004         42.0004
  -7144545.52148  -5504972.03447  23371954.3654   23371957.1384   23371955.872
        48.0004         43.0004
 -14017682.98248 -10860248.97847  21822917.6704   21822918.6674   21822918.120
        51.0004         46.0004
   2540527.03846   1994599.65645  25263524.2594   25263528.6954   25263523.030
        40.0004         35.0004
 -10613881.58448  -8197376.98147  22836705.5714   22836711.3454   22836706.600
        48.0004         43.0004
 15  5  1  1 29  0.0000000  0 10G11G01G04G32G31G22G19G14G27G03
 -20762747.65349 -16120477.99648  20490561.6304   20490563.5584   20490562.060
        55.0004         50.0004
 -20532342.18649 -15909375.61748  20953572.9334   20953577.6424   20953572.697
        54.0004         50.0004
 -24785889.19149 -19248986.00748  20089681.4514   20089683.9974   20089681.447
        55.0004         51.0004
 -23947210.71149 -18582967.70048  20354487.9934   20354491.3674   20354488.544
        55.0004         50.0004
  -5816093.85347  -4471276.06946  23191338.7824   23191341.3644   23191338.583
        46.0004         41.0004
  -4533170.37947  -3479396.06546  23354853.9264   23354855.1554   23354855.461
        46.0004         41.0004
  -7042509.58848  -5425463.54847  23391371.8884   23391373.8814   23391372.935
        48.0004         43.0004
 -13954390.11248 -10810929.87147  21834961.5364   21834963.9304   21834962.382
        51.0004         46.0004
   2650777.43346   2080508.99445  25284504.3254   25284507.4874   25284503.209
        40.0004         35.0004
 -10692386.78148  -8258549.81547  22821766.2294   22821771.2404   22821765.673
        48.0004         43.0004
 15  5  1  1 29 30.0000000  0 10G11G01G04G32G31G22G19G14G27G03
 -20763460.39549 -16121033.38048  20490425.8464   20490427.6944   20490425.973
        54.0004         50.0004
 -20585271.18449 -15950618.97748  20943501.0834   20943506.3934   20943500.998
        54.0004         50.0004
 -24777395.24849 -19242367.35448  20091298.0284   20091300.3134   20091298.054
        55.0004         51.0004
 -23958141.52849 -18591485.21248  20352408.1724   20352411.0854   20352408.942
        55.0004         50.0004
  -5901488.44047  -4537817.30146  23175089.7874   23175090.1154   23175090.059
        46.0004         41.0004
  -4453084.18847  -3416991.30347  23370095.3634   23370094.0544   23370096.661
        46.0004         42.0004
  -6940292.17247  -5345813.65647  23410822.5834   23410825.4784   23410823.100
        47.0004         42.0004
 -13890713.24748 -10761311.53947  21847078.6714   21847081.7384   21847079.194
        51.0004         46.0004
   2760935.66646   2166346.51045  25305465.8254   25305471.0494   25305465.508
        39.0004         35.0004
 -10770750.05448  -8319612.06647  22806854.9814   22806858.8594   22806854.483
        48.0004         44.0004
 15  5  1  1 30  0.0000000  0 10G11G01G04G32G31G22G19G14G27G03
 -20763570.81649 -16121119.42748  20490405.1624   20490406.3504   20490405.318
        54.0004         50.0004
 -20637804.90649 -15991554.33148  20933503.8594   20933509.1424   20933503.764
        54.0004         50.0004
 -24768376.61549 -19235339.84848  20093014.3254   20093016.5884   20093014.530
        55.0004         51.0004
 -23968730.12349 -18599736.05448  20350393.3604   20350396.4414   20350394.409
        55.0004         50.0004
  -5986605.46547  -4604142.20647  23158891.5254   23158893.9344   23158892.459
        46.0004         42.0004
  -4372898.88147  -3354509.31446  23385354.4604   23385355.6024   23385354.447
        46.0004         41.0004
  -6837893.22847  -5266022.30647  23430309.5304   23430310.5624   23430310.639
        47.0004         43.0004
 -13826651.42648 -10711393.25347  21859269.6914   21859272.5274   21859270.467
        51.0004         46.0004
 -19184877.76346 -14934287.41145  25326411.6894   25326418.2804   25326409.347
        39.0004         34.0004
 -10848967.98848  -8380561.05447  22791969.1044   22791975.3134   22791969.401
        48.0004         44.0004
 15  5  1  1 30 30.0000000  0 11G11G23G01G04G32G31G22G19G14G27G03
 -20763079.34549 -16120736.46348  20490498.7974   20490499.9514   20490499.340
        54.0004         50.0004
  -1775476.52547  -1374687.73546  25450803.6764   25450807.7294   25450805.418
        45.0004         36.0004
 -20689942.10649 -16032180.70748  20923582.4704   20923587.5194   20923581.970
        54.0004         50.0004
 -24758833.19249 -19227903.41548  20094830.0164   20094832.4154   20094829.871
        55.0004         50.0004
 -23978977.46049 -18607720.98648  20348443.5214   20348446.3684   20348444.212
        55.0004         50.0004
  -6071442.20647  -4670248.75647  23142748.3074   23142749.8684   23142749.449
        47.0004         42.0004
  -4292615.34847  -3291950.78146  23400632.7414   23400632.7514   23400633.013
        46.0004         41.0004
  -6735316.44648  -5186092.35847  23449828.8134   23449831.1604   23449831.213
        48.0004         43.0004
 -13762207.63148 -10661177.31647  21871533.1834   21871534.4324   21871533.402
        50.0004         46.0004
 -19074906.03346 -14848595.19845  25347333.2194   25347344.8614   25347336.557
        38.0004         33.0004
 -10927040.79348  -8441396.95847  22777113.8394   22777118.9604   22777113.795
        48.0004         44.0004
 15  5  1  1 31  0.0000000  0 11G11G23G01G04G32G31G22G19G14G27G03
 -20761986.02049 -16119884.52548  20490706.9924   20490708.0674   20490707.802
        54.0004         50.0004
  -1880757.18747  -1456724.47746  25430768.6964   25430772.3804   25430769.771
        42.0004         37.0004
 -20741681.29849 -16072496.95048  20913736.8074   20913741.9544   20913736.982
        54.0004         50.0004
 -24748765.30149 -19220058.30948  20096746.2004   20096748.4134   20096746.359
        55.0004         51.0004
 -23988884.33449 -18615440.62248  20346558.3004   20346560.9884   20346558.767
        55.0004         50.0004
  -6155996.12347  -4736134.91147  23126658.5214   23126660.4754   23126656.511
        47.0004         42.0004
  -4212234.82647  -3229316.64446  23415927.2524   23415928.8444   23415928.070
        46.0004         41.0004
  -6632564.95048  -5106026.31747  23469381.7304   23469384.8154   23469383.041
        48.0004         43.0004
 -13697384.50348 -10610665.78447  21883868.2194   21883870.1014   21883868.211
        50.0004         45.0004
 -18965031.90546 -14762979.08345  25368244.3404   25368254.5294   25368247.769
        38.0004         33.0004
 -11004968.38748  -8502119.72347  22762284.1104   22762289.7434   22762284.258
        48.0004         44.0004
 15  5  1  1 31 30.0000000  0 10G11G23G01G04G32G31G22G19G14G03
 -20760288.13549 -16118561.50348  20491030.0574   20491031.2474   20491030.601
        54.0004         50.0004
  -1985990.86646  -1538724.62246  25410744.3424   25410746.1574   25410743.326
        41.0004         36.0004
 -20793017.96349 -16112499.53348  20903967.7614   20903972.4414   20903967.806
        54.0004         50.0004
 -24738169.88249 -19211802.14048  20098762.4344   20098764.8064   20098762.418
        55.0004         51.0004
 -23998448.58549 -18622893.27948  20344738.1094   20344740.9394   20344738.849
        55.0004         50.0004
  -6240261.36347  -4801796.07747  23110623.5044   23110624.6844   23110622.490
        47.0004         42.0004
  -4131754.96047  -3166605.09646  23431241.3214   23431244.7734   23431242.710
        46.0004         41.0004
  -6529639.19547  -5025824.47347  23488966.8034   23488970.7774   23488966.986
        47.0004         42.0004
 -13632181.64348 -10559858.35947  21896275.0444   21896277.8534   21896275.717
        50.0004         45.0004
 -11082747.73348  -8562726.96047  22747482.5284   22747487.9274   22747482.580
        48.0004         44.0004
 15  5  1  1 32  0.0000000  0 10G11G23G01G04G32G31G22G19G14G03
 -20757991.27449 -16116771.74348  20491466.7864   20491468.6774   20491467.111
        54.0004         50.0004
  -2091181.88346  -1620691.53146  25390726.0174   25390728.0904   25390725.166
        41.0004         37.0004
 -20843956.00049 -16152191.50048  20894274.3744   20894279.1894   20894274.536
        54.0004         50.0004
 -24727052.83249 -19203139.50848  20100877.6874   20100880.3464   20100877.761
        55.0004         51.0004
 -24007676.45849 -18630083.81948  20342982.1174   20342985.5294   20342982.717
        55.0004         50.0004
  -6324240.65347  -4867234.45347  23094642.5454   23094644.1294   23094642.600
        47.0004         42.0004
  -4051182.34547  -3103821.30646  23446575.3244   23446576.1044   23446575.972
        46.0004         41.0004
  -6426547.55747  -4945493.38747  23508584.4274   23508587.1414   23508586.009
        47.0004         42.0004
 -13566606.70248 -10508761.01747  21908754.3594   21908757.0974   21908754.384
        50.0004         45.0004
 -11160384.14148  -8623222.82747  22732709.1764   22732713.9514   22732708.112
        48.0004         44.0004
 15  5  1  1 32 30.0000000  0 10G11G23G01G04G32G31G22G19G14G03
 -20755089.06249 -16114510.28248  20492019.0444   20492020.9264   20492019.743
        54.0004         50.0004
  -2196322.40246  -1702619.09746  25370717.3324   25370722.9624   25370717.123
        41.0004         36.0004
 -20894487.31149 -16191566.54848  20884658.9204   20884664.0094   20884659.000
        55.0004         50.0004
 -24715407.28849 -19194065.05348  20103093.9654   20103096.4734   20103094.181
        55.0004         51.0004
 -24016562.08249 -18637007.67848  20341291.1544   20341294.2254   20341291.501
        55.0004         50.0004
  -6407924.37547  -4932442.52446  23078715.2344   23078718.1744   23078714.163
        46.0004         41.0004
  -3970511.58647  -3040961.02946  23461926.8304   23461925.4924   23461927.383
        45.0004         41.0004
  -6323287.16947  -4865030.76447  23528235.6564   23528236.9994   23528237.080
        47.0004         42.0004
 -13500656.10748 -10457370.96247  21921303.8024   21921307.0854   21921304.393
        50.0004         45.0004
 -11237871.00248  -8683602.14847  22717965.0384   22717969.3254   22717964.071
        48.0004         44.0004
 15  5  1  1 33  0.0000000  0 10G11G23G01G04G32G31G22G19G14G03
 -20751584.20149 -16111779.22248  20492686.0714   20492687.3354   20492686.310
        54.0004         50.0004
  -2301413.35146  -1784508.02246  25350719.6674   25350723.0764   25350721.652
        41.0004         37.0004
 -20944612.62449 -16230625.22548  20875120.5664   20875125.4704   20875120.018
        55.0004         50.0004
 -24703235.78549 -19184580.76848  20105410.3714   20105412.5404   20105410.227
        55.0004         51.0004
 -24025108.34949 -18643667.09448  20339665.0064   20339668.0024   20339665.701
        55.0004         50.0004
  -6491311.87247  -4997419.79346  23062849.5604   23062850.6194   23062849.405
        46.0004         41.0004
  -3889745.32247  -2978026.31746  23477295.7044   23477296.8704   23477295.224
        45.0004         40.0004
  -6219863.22047  -4784440.71147  23547916.6114   23547918.6074   23547916.860
        47.0004         43.0004
 -13434334.63448 -10405691.90247  21933924.7104   21933927.4974   21933925.100
        50.0004         45.0004
 -11315210.37548  -8743866.55947  22703247.6794   22703250.9984   22703246.996
        49.0004         44.0004
 15  5  1  1 33 30.0000000  0 10G11G23G01G04G32G31G22G19G14G03
 -20747477.84049 -16108579.46548  20493467.6514   20493469.0604   20493467.911
        54.0004         50.0004
  -2406454.93846  -1866358.49046  25330733.4214   25330734.9384   25330734.396
        41.0004         37.0004
 -20994331.67849 -16269367.33448  20865659.1094   20865664.0684   20865659.304
        55.0004         50.0004
 -24690539.77949 -19174687.78248  20107825.9784   20107828.5724   20107826.010
        55.0004         51.0004
 -24033317.43849 -18650063.77748  20338102.7404   20338105.6924   20338103.845
        55.0004         50.0004
  -6574401.93447  -5062165.27647  23047037.2154   23047040.7904   23047036.913
        46.0004         42.0004
  -3808886.05047  -2915019.14046  23492681.8714   23492684.2614   23492683.312
        45.0004         40.0004
  -6116280.48947  -4703726.94147  23567627.1034   23567629.8324   23567627.955
        47.0004         43.0004
 -13367646.28948 -10353726.97147  21946616.2644   21946617.2824   21946617.274
        50.0004         46.0004
 -11392403.49248  -8804017.00547  22688557.6554   22688562.3684   22688557.981
        49.0004         44.0004
 15  5  1  1 34  0.0000000  0 10G11G23G01G04G32G31G22G19G14G03
 -20742766.44549 -16104908.25448  20494363.9004   20494365.8064   20494364.434
        54.0004         50.0004
  -2511441.71946  -1948166.23846  25310753.2434   25310755.6114   25310754.017
        41.0004         37.0004
 -21043638.89149 -16307788.52848  20856276.6194   20856280.9754   20856276.512
        55.0004         50.0004
 -24677315.27149 -19164382.96548  20110342.5934   20110345.2084   20110342.491
        55.0004         51.0004
 -24041186.01049 -18656195.11748  20336605.5134   20336608.3644   20336605.982
        55.0004         50.0004
  -6657187.38847  -5126673.36547  23031283.4364   23031286.4874   23031282.952
        46.0004         42.0004
  -3727930.50047  -2851936.92746  23508087.5814   23508086.2524   23508088.457
        45.0004         41.0004
  -6012538.17847  -4622888.84247  23587369.6114   23587371.1884   23587370.202
        47.0004         43.0004
 -13300589.38948 -10301474.85047  21959375.8944   21959377.8314   21959376.137
        50.0004         45.0004
 -11469446.14548  -8864050.20247  22673896.8984   22673901.2134   22673895.747
        49.0004         44.0004
 15  5  1  1 34 30.0000000  0 10G11G23G01G04G32G31G22G19G14G03
 -20737452.28049 -16100767.34748  20495375.6784   20495377.1794   20495376.023
        54.0004         50.0004
  -2616374.73046  -2029932.11546  25290785.5304   25290787.0744   25290783.784
        41.0004         36.0004
 -21092534.72049 -16345889.17248  20846972.2344   20846976.6144   20846972.311
        55.0004         50.0004
 -24663564.45649 -19153668.05148  20112959.4344   20112961.8184   20112959.139
        55.0004         51.0004
 -24048716.77849 -18662063.24148  20335172.1044   20335175.2694   20335172.150
        55.0004         50.0004
  -6739667.78547  -5190943.80447  23015589.4774   23015589.3544   23015590.065
        47.0004         42.0004
  -3646881.67947  -2788782.02846  23523510.3424   23523512.2464   23523512.132
        45.0004         40.0004
  -5908641.51247  -4541930.43747  23607140.1164   23607142.2584   23607140.964
        47.0004         43.0004
 -13233168.44148 -10248939.05147  21972205.9594   21972207.6804   21972206.879
        50.0004         45.0004
 -11546340.26248  -8923967.65447  22659265.0664   22659268.9784   22659263.994
        48.0004         44.0004
 15  5  1  1 35  0.0000000  0 10G11G23G01G04G32G31G22G19G14G03
 -20731532.86949 -16096154.82048  20496502.1584   20496503.3894   20496502.630
        54.0004         50.0004
  -2721250.02746  -2111653.01846  25270826.3464   25270830.0874   25270826.185
        41.0004         37.0004
 -21141015.03149 -16383666.02648  20837745.8794   20837751.1914   20837745.777
        55.0004         50.0004
 -24649284.79849 -19142541.04948  20115676.8474   20115679.2314   20115676.879
        55.0004         51.0004
 -24055907.86549 -18667666.67548  20333803.9314   20333806.9734   20333804.683
        55.0004         50.0004
  -6821837.21147  -5254971.90547  22999951.6954   22999953.4534   22999951.079
        47.0004         42.0004
  -3565737.45547  -2725552.83646  23538950.4584   23538953.4754   23538953.118
        45.0004         40.0004
  -5804591.16547  -4460852.26747  23626940.2084   23626942.4124   23626941.556
        47.0004         42.0004
 -13165383.56948 -10196119.68047  21985104.2994   21985106.6584   21985105.579
        50.0004         45.0004
 -11623083.00848  -8983767.16047  22644660.2744   22644665.4564   22644660.209
        48.0004         44.0004
 15  5  1  1 35 30.0000000  0 10G11G23G01G04G32G31G22G19G14G03
 -20725013.97949 -16091075.16948  20497742.2504   20497743.3344   20497742.403
        54.0004         50.0004
  -2826071.92646  -2193332.34246  25250880.6114   25250884.6874   25250882.068
        41.0004         37.0004
 -21189083.68349 -16421122.10848  20828599.1794   20828604.1114   20828598.622
        55.0004         50.0004
 -24634482.01549 -19131006.41548  20118493.5754   20118495.9554   20118493.328
        55.0004         51.0004
 -24062765.52149 -18673010.28648  20332499.0104   20332501.5864   20332500.010
        55.0004         50.0004
  -6903698.61947  -5318759.97847  22984375.1734   22984376.9264   22984374.843
        47.0004         42.0004
  -3484504.27447  -2662254.30746  23554410.7154   23554410.3704   23554411.688
        45.0004         40.0004
  -5700395.57247  -4379660.93147  23646767.9984   23646768.8844   23646769.197
        47.0004         42.0004
 -13097242.74348 -10143022.94247  21998071.5904   21998074.5564   21998071.743
        50.0004         45.0004
 -11699679.70548  -9043452.86047  22630085.0894   22630089.1844   22630084.583
        49.0004         44.0004
 15  5  1  1 36  0.0000000  0 10G11G23G01G04G32G31G22G19G14G03
 -20717888.74649 -16085523.04648  20499098.4694   20499099.5714   20499098.722
        54.0004         50.0004
  -2930831.84346  -2274963.36346  25230947.4454   25230947.8354   25230948.041
        41.0004         36.0004
 -21236731.93149 -16458250.60848  20819532.2024   20819536.8464   20819532.303
        55.0004         50.0004
 -24619148.91649 -19119058.55148  20121411.2514   20121414.0554   20121411.363
        55.0004         51.0004
 -24069283.19149 -18678088.97748  20331258.3844   20331260.9814   20331258.718
        55.0004         50.0004
  -6985241.76647  -5382300.07047  22968857.7634   22968860.0274   22968855.555
        47.0004         43.0004
  -3403176.01247  -2598881.68746  23569887.6504   23569887.1384   23569887.930
        45.0004         40.0004
  -5596050.92147  -4298353.48447  23666623.1844   23666627.1814   23666623.941
        47.0004         43.0004
 -13028741.25648 -10089645.18447  22011106.0714   22011109.4984   22011106.709
        50.0004         45.0004
 -11776123.01248  -9103019.04147  22615538.2084   22615542.4124   22615537.944
        49.0004         44.0004
 15  5  1  1 36 30.0000000  0 10G11G23G01G04G32G31G22G19G14G03
 -20710161.58249 -16079501.88148  20500568.8614   20500570.2644   20500568.989
        54.0004         50.0004
  -3035532.64346  -2356548.31346  25211024.1834   25211022.6684   25211025.572
        41.0004         36.0004
 -21283962.27649 -16495053.47448  20810544.1604   20810548.8664   20810544.156
        55.0004         50.0004
 -24603289.72649 -19106700.74048  20124429.1444   20124431.6604   20124429.495
        55.0004         51.0004
 -24075465.65849 -18682906.47248  20330081.9174   20330084.8634   20330082.643
        55.0004         50.0004
  -7066468.25347  -5445593.42447  22953400.3884   22953401.5184   22953398.054
        47.0004         42.0004
  -3321757.23547  -2535438.56546  23585379.3504   23585380.9944   23585380.329
        45.0004         40.0004
  -5491564.33747  -4216935.40947  23686507.2534   23686509.1134   23686507.572
        47.0004         43.0004
 -12959885.80548 -10035991.60047  22024210.4444   22024211.8874   22024210.936
        50.0004         45.0004
 -11852416.72648  -9162468.66047  22601019.2804   22601024.4944   22601018.513
        48.0004         44.0004
 15  5  1  1 37  0.0000000  0 10G11G23G01G04G32G31G22G19G14G03
 -20701829.06849 -16073009.00848  20502154.3574   20502155.8034   20502155.110
        55.0004         50.0004
  -3140169.24546  -2438083.22646  25191111.4024   25191112.6584   25191112.126
        41.0004         36.0004
 -21330769.52349 -16531526.64948  20801637.2524   20801641.8044   20801636.882
        55.0004         50.0004
 -24586901.10649 -19093930.38948  20127547.9114   20127550.2024   20127547.993
        55.0004         51.0004
 -24081309.95049 -18687460.45548  20328969.8524   20328972.8804   20328970.241
        55.0004         50.0004
  -7147370.97147  -5508634.49147  22938005.8274   22938006.8514   22938004.979
        47.0004         43.0004
  -3240245.19447  -2471922.75146  23600892.0694   23600893.0024   23600892.100
        44.0004         40.0004
  -5386935.30947  -4135406.35547  23706416.4104   23706419.3314   23706418.744
        47.0004         42.0004
 -12890675.11848  -9982061.19047  22037380.0734   22037381.6764   22037380.689
        50.0004         45.0004
 -11928557.03648  -9221798.72947  22586530.1234   22586534.8374   22586528.625
        48.0004         43.0004
 15  5  1  1 37 30.0000000  0 10G11G23G01G04G32G31G22G19G14G03
 -20692895.30149 -16066047.63448  20503854.1594   20503856.0624   20503854.462
        54.0004         50.0004
  -3244743.86546  -2519569.86846  25171211.3974   25171213.5414   25171212.028
        41.0004         37.0004
 -21377155.66949 -16567671.70548  20792810.5884   20792815.1574   20792810.649
        55.0004         50.0004
 -24569986.45149 -19080750.13948  20130766.8494   20130768.7664   20130766.706
        55.0004         51.0004
 -24086820.35049 -18691754.27148  20327921.3354   20327924.2724   20327921.429
        55.0004         50.0004
  -7227950.95347  -5571424.01647  22922670.1224   22922673.0074   22922669.231
        47.0004         43.0004
  -3158644.27447  -2408337.68846  23616420.7474   23616422.1924   23616421.176
        44.0004         40.0004
  -5282170.68747  -4053771.61947  23726353.2064   23726356.4004   23726354.376
        47.0004         42.0004
 -12821115.58748  -9927858.97347  22050617.3284   22050618.9844   22050617.034
        50.0004         45.0004
 -12004547.34748  -9281011.91647  22572069.9114   22572074.8594   22572069.516
        48.0004         44.0004
 15  5  1  1 38  0.0000000  0 10G11G23G01G04G32G31G22G19G14G03
 -20683357.40949 -16058615.51648  20505669.4974   20505671.4104   20505669.818
        55.0004         50.0004
  -3349252.38846  -2601005.00546  25151323.8414   25151325.1294   25151324.864
        41.0004         36.0004
 -21423116.09249 -16603485.00748  20784064.0364   20784069.2564   20784063.328
        55.0004         50.0004
 -24552543.44249 -19067158.18848  20134086.2434   20134088.2274   20134086.225
        55.0004         51.0004
 -24091994.49249 -18695786.05748  20326936.3524   20326939.5814   20326937.112
        55.0004         50.0004
  -7308202.18847  -5633957.42347  22907398.2604   22907403.0054   22907399.046
        47.0004         43.0004
  -3076952.13947  -2344681.55946  23631964.5844   23631965.1734   23631966.705
        44.0004         39.0004
  -5177270.53347  -3972031.29246  23746315.3254   23746318.2024   23746315.424
        46.0004         41.0004
 -12751206.40048  -9873384.30847  22063919.9014   22063922.8494   22063920.444
        50.0004         45.0004
 -12080384.29048  -9340105.62947  22557639.1354   22557643.9464   22557640.177
        49.0004         44.0004
 15  5  1  1 38 30.0000000  0 10G11G23G01G04G32G31G22G19G14G03
 -20673215.88649 -16050713.03148  20507599.5024   20507600.9134   20507599.997
        55.0004         50.0004
  -3453693.42446  -2682387.56546  25131448.0144   25131450.0334   25131447.889
        41.0004         36.0004
 -21468649.41649 -16638965.51548  20775399.3104   20775404.0324   20775398.957
        55.0004         50.0004
 -24534572.29349 -19053154.70248  20137505.4644   20137508.2674   20137505.454
        55.0004         51.0004
 -24096833.20449 -18699556.47148  20326015.8694   20326018.8064   20326016.810
        55.0004         50.0004
  -7388122.14847  -5696232.70847  22892190.9934   22892193.3024   22892190.698
        47.0004         43.0004
  -2995169.76347  -2280955.08246  23647529.3054   23647529.7284   23647528.952
        44.0004         39.0004
  -5072238.26347  -3890187.98047  23766302.1784   23766305.9744   23766302.376
        46.0004         42.0004
 -12680950.45948  -9818639.42947  22077289.8614   22077291.6794   22077290.330
        50.0004         45.0004
 -12156067.94948  -9399079.87647  22543235.9084   22543242.5154   22543235.922
        49.0004         44.0004
 15  5  1  1 39  0.0000000  0 10G11G23G01G04G32G31G22G19G14G03
 -20662471.36949 -16042340.68548  20509644.0014   20509645.2274   20509644.097
        55.0004         50.0004
  -3558065.89446  -2763716.70146  25111585.7914   25111589.9724   25111586.483
        41.0004         37.0004
 -21513754.07849 -16674112.00248  20766816.8334   20766821.0894   20766816.946
        55.0004         50.0004
 -24516072.85649 -19038739.56048  20141026.1994   20141028.5394   20141026.354
        55.0004         51.0004
 -24101337.14749 -18703066.03148  20325158.7504   20325161.8164   20325158.993
        55.0004         50.0004
  -7467707.95047  -5758247.59747  22877048.5654   22877048.0284   22877048.966
        47.0004         42.0004
  -2913297.76047  -2217158.79946  23663106.7934   23663110.4694   23663108.740
        43.0004         38.0004
  -4967076.99347  -3808244.18647  23786314.2444   23786317.1604   23786316.202
        47.0004         42.0004
 -12610349.95648  -9763626.06147  22090724.6304   22090726.7814   22090724.674
        50.0004         45.0004
 -12231598.00048  -9457934.43147  22528864.0514   22528867.8394   22528863.797
        49.0004         44.0004
 15  5  1  1 39 30.0000000  0 10G11G23G01G04G32G31G22G19G14G03
 -20651124.55049 -16033499.01348  20511802.6334   20511804.5024   20511803.035
        54.0004         50.0004
  -3662369.19146  -2844991.91646  25091738.9884   25091741.0704   25091738.777
        41.0004         36.0004
 -21558428.98149 -16708923.60848  20758315.1374   20758319.6914   20758314.544
        55.0004         50.0004
 -24497046.23949 -19023913.62748  20144646.8484   20144649.0934   20144647.035
        55.0004         51.0004
 -24105507.51349 -18706315.65748  20324365.0474   20324368.3544   20324365.428
        55.0004         50.0004
  -7546956.97347  -5820000.06847  22861965.3074   22861967.9754   22861965.708
        47.0004         43.0004
  -2831337.77647  -2153293.92146  23678705.1654   23678705.2004   23678703.362
        43.0004         38.0004
  -4861790.46147  -3726202.78446  23806349.6214   23806351.2934   23806350.291
        46.0004         41.0004
 -12539408.53248  -9708347.04047  22104223.4874   22104226.0454   22104224.005
        49.0004         45.0004
 -12306974.72448  -9516669.50147  22514520.8954   22514525.8754   22514521.120
        49.0004         44.0004
 15  5  1  1 40  0.0000000  0 10G11G23G01G04G32G31G22G19G14G03
 -20639173.31049 -16024186.36848  20514077.9564   20514078.5544   20514078.248
        54.0004         50.0004
  -3766599.17146  -2926210.02946  25071905.2084   25071906.3574   25071904.627
        41.0004         36.0004
 -21602670.02449 -16743397.13448  20749896.1724   20749900.8014   20749895.928
        55.0004         50.0004
 -24477489.86249 -19008674.89248  20148368.2014   20148370.5054   20148368.140
        55.0004         51.0004
 -24109342.48249 -18709303.93248  20323635.5354   20323638.4914   20323636.566
        55.0004         50.0004
  -7625864.17747  -5881486.18147  22846951.3504   22846952.3184   22846950.561
        47.0004         43.0004
  -2749287.91847  -2089359.02646  23694317.1974   23694319.1304   23694319.521
        43.0004         39.0004
  -4756379.04947  -3644064.07046  23826408.3434   23826411.0714   23826409.464
        46.0004         41.0004
 -12468125.75248  -9652802.03547  22117787.0444   22117790.6044   22117788.323
        49.0004         45.0004
 -12382195.31948  -9575282.90847  22500206.7754   22500211.2094   22500205.621
        49.0004         44.0004
 15  5  1  1 40 30.0000000  0 10G11G23G01G04G32G31G22G19G14G03
 -20626621.90649 -16014406.05648  20516465.9414   20516467.1454   20516466.037
        54.0004         50.0004
  -3870758.11246  -3007372.81346  25052084.2604   25052084.7854   25052083.503
        41.0004         36.0004
 -21646479.21649 -16777534.15548  20741559.7584   20741564.5184   20741559.527
        55.0004         50.0004
 -24457407.72349 -18993026.48248  20152189.9494   20152191.7484   20152190.229
        55.0004         51.0004
 -24112846.20649 -18712034.09448  20322968.7624   20322971.6504   20322969.728
        55.0004         50.0004
  -7704430.21947  -5942706.44147  22831999.9524   22832002.2214   22832000.745
        47.0004         43.0004
  -2667152.28047  -2025357.32746  23709949.1594   23709949.3564   23709949.935
        43.0004         39.0004
  -4650849.53947  -3561833.34046  23846490.5714   23846492.0674   23846492.882
        45.0004         41.0004
 -12396507.95748  -9596995.96647  22131416.7114   22131419.6024   22131416.578
        49.0004         44.0004
 -12457263.11748  -9633777.26547  22485921.4684   22485926.8324   22485921.272
        49.0004         44.0004
 15  5  1  1 41  0.0000000  0 10G11G23G01G04G32G31G22G19G14G03
 -20613466.33349 -16004154.96648  20518969.3834   20518970.6054   20518969.753
        54.0004         50.0004
  -3974840.43146  -3088475.87746  25032275.9294   25032279.1974   25032276.604
        41.0004         36.0004
 -21689850.80249 -16811330.18948  20733306.5334   20733311.2554   20733306.732
        55.0004         50.0004
 -24436795.83649 -18976965.26948  20156112.3204   20156114.6164   20156112.420
        55.0004         51.0004
 -24116015.13249 -18714503.38148  20322365.5704   20322368.8544   20322365.774
        55.0004         50.0004
  -7782647.94647  -6003655.28047  22817114.8394   22817117.7124   22817113.601
        47.0004         43.0004
  -2584927.53547  -1961286.14046  23725593.2344   23725596.4904   23725594.901
        43.0004         39.0004
  -4545200.95147  -3479509.80346  23866594.5434   23866596.7674   23866594.680
        46.0004         41.0004
 -12324552.85648  -9540927.07947  22145109.4584   22145112.1044   22145108.960
        49.0004         44.0004
 -12532173.59348  -9692149.03447  22471666.0934   22471670.8274   22471665.954
        49.0004         45.0004
 15  5  1  1 41 30.0000000  0 10G11G23G01G04G32G31G22G19G14G03
 -20599708.62149 -15993434.68148  20521587.1304   20521588.5884   20521587.888
        54.0004         50.0004
  -4078846.37546  -3169519.44546  25012483.9124   25012486.9124   25012483.819
        41.0004         36.0004
 -21732784.68349 -16844785.15248  20725135.9074   20725140.7684   20725135.648
        55.0004         50.0004
 -24415655.94749 -18960492.63648  20160134.9974   20160137.3984   20160135.278
        55.0004         51.0004
 -24118851.48149 -18716713.51148  20321825.8424   20321829.0524   20321826.480
        55.0004         50.0004
  -7860515.82448  -6064331.52847  22802298.0414   22802300.9704   22802298.227
        48.0004         43.0004
  -2502615.75747  -1897147.18746  23741259.4244   23741259.3044   23741259.421
        43.0004         38.0004
  -4439437.79147  -3397096.96846  23886718.5044   23886723.2464   23886717.834
        46.0004         41.0004
 -12252264.79648  -9484598.73747  22158864.9564   22158868.8234   22158864.730
        49.0004         44.0004
 -12606928.04048  -9750399.23847  22457441.0334   22457445.5364   22457440.523
        49.0004         45.0004
 15  5  1  1 42  0.0000000  0 10G11G23G01G04G32G31G22G19G14G03
 -20585348.55749 -15982245.01948  20524319.8194   20524321.5144   20524319.893
        54.0004         50.0004
  -4182774.40646  -3250502.29146  24992707.9994   24992708.9514   24992708.079
        41.0004         36.0004
 -21775278.62749 -16877897.30648  20717049.5854   20717054.2594   20717049.079
        55.0004         50.0004
 -24393987.49749 -18943608.13348  20164257.8594   20164260.8774   20164258.094
        55.0004         51.0004
 -24121355.02149 -18718664.31148  20321349.2564   20321352.1564   20321349.992
        55.0004         50.0004
  -7938030.35748  -6124732.45447  22787547.2224   22787549.6624   22787546.304
        48.0004         43.0004
  -2420216.94347  -1832940.36946  23756939.4184   23756937.7694   23756940.662
        42.0004         38.0004
  -4333562.26347  -3314596.62846  23906867.4174   23906870.7104   23906868.696
        46.0004         41.0004
 -12179645.52848  -9428012.31547  22172685.1774   22172686.6284   22172684.954
        49.0004         45.0004
 -12681525.40948  -9808527.02447  22443246.0794   22443249.7684   22443245.240
        49.0004         44.0004
 15  5  1  1 42 30.0000000  0 10G11G23G01G04G32G31G22G19G14G03
 -20570387.94249 -15970587.40248  20527166.8574   20527168.0524   20527167.253
        54.0004         50.0004
  -4286623.49546  -3331423.62846  24972946.7154   24972949.3554   24972946.279
        41.0004         37.0004
 -21817332.15249 -16910666.27548  20709047.2804   20709052.1674   20709047.705
        55.0004         50.0004
 -24371792.14049 -18926313.04948  20168481.9424   20168484.4844   20168481.571
        55.0004         51.0004
 -24123527.64549 -18720357.25448  20320935.7824   20320939.1234   20320936.253
        55.0004         50.0004
  -8015190.12748  -6184856.91147  22772864.6954   22772864.8104   22772862.637
        48.0004         43.0004
  -2337732.96747  -1768667.26846  23772634.7164   23772636.8774   23772636.209
        42.0004         37.0004
  -4227578.51547  -3232011.94546  23927035.0824   23927038.7614   23927037.727
        45.0004         41.0004
 -12106698.60248  -9371170.57947  22186566.4374   22186568.3244   22186567.503
        49.0004         45.0004
 -12755966.55448  -9866533.06747  22429079.9454   22429083.9504   22429078.972
        49.0004         44.0004
 15  5  1  1 43  0.0000000  0 10G11G23G01G04G32G31G22G19G14G03
 -20554825.44349 -15958460.78848  20530128.5604   20530129.4614   20530128.927
        54.0004         50.0004
  -4390390.84046  -3412281.25046  24953199.6134   24953205.5264   24953201.091
        41.0004         37.0004
 -21858942.01149 -16943089.53448  20701128.9574   20701134.2734   20701129.073
        55.0004         50.0004
 -24349068.26849 -18908606.14248  20172806.1474   20172808.0304   20172806.190
        55.0004         51.0004
 -24125368.30449 -18721791.52348  20320585.6864   20320588.6234   20320586.250
        55.0004         50.0004
  -8091990.29448  -6244701.16747  22758249.8984   22758251.8574   22758248.738
        48.0004         43.0004
  -2255162.87347  -1704326.99746  23788346.6294   23788348.1874   23788346.915
        42.0004         37.0004
  -4121488.18047  -3149344.20046  23947224.7214   23947227.2194   23947226.580
        45.0004         41.0004
 -12033424.98248  -9314074.27447  22200510.3754   22200511.9464   22200510.980
        50.0004         45.0004
 -12830249.47448  -9924415.82047  22414942.9274   22414948.3964   22414942.862
        49.0004         44.0004
 15  5  1  1 43 30.0000000  0 10G11G23G01G04G32G31G22G19G14G03
 -20538669.87249 -15945872.03148  20533202.2084   20533203.9464   20533202.218
        54.0004         50.0004
  -4494083.33147  -3493080.55546  24933468.3234   24933472.0584   24933467.707
        42.0004         37.0004
 -21900114.83049 -16975172.23948  20693294.0254   20693298.8154   20693293.718
        55.0004         50.0004
 -24325824.30349 -18890493.96848  20177229.4224   20177231.5734   20177229.466
        55.0004         51.0004
 -24126885.77349 -18722973.95648  20320296.7344   20320299.4544   20320297.307
        55.0004         50.0004
  -8168436.16748  -6304269.35847  22743701.6844   22743704.5414   22743700.468
        48.0004         43.0004
  -2172515.40046  -1639926.40646  23804075.2044   23804078.2574   23804076.505
        41.0004         36.0004
  -4015302.53947  -3066602.17546  23967431.4044   23967433.4294   23967431.914
        45.0004         41.0004
 -11959835.40648  -9256731.76347  22214513.5934   22214515.0264   22214513.889
        50.0004         45.0004
 -12904381.96248  -9982181.37047  22400836.4754   22400841.7434   22400836.505
        49.0004         44.0004
 15  5  1  1 44  0.0000000  0 10G11G23G01G04G32G31G22G19G14G03
 -20521906.57049 -15932809.72248  20536392.5674   20536393.7244   20536392.642
        54.0004         50.0004
  -4597684.32547  -3573808.56346  24913753.4394   24913755.3384   24913754.005
        42.0004         37.0004
 -21940833.58249 -17006901.13148  20685545.4534   20685550.3104   20685545.131
        55.0004         50.0004
 -24302045.21449 -18871964.80948  20181754.1344   20181756.6424   20181754.065
        55.0004         51.0004
 -24128065.11349 -18723892.91248  20320072.7434   20320075.4224   20320073.528
        55.0004         50.0004
  -8244509.63248  -6363547.34847  22729226.2434   22729228.9964   22729225.425
        48.0004         43.0004
  -2089775.83846  -1575454.09546  23819821.2304   23819822.2254   23819821.821
        41.0004         36.0004
  -3909009.08847  -2983776.13846  23987658.3244   23987660.2204   23987659.602
        46.0004         41.0004
 -11885916.59748  -9199132.70747  22228579.9024   22228582.5874   22228580.310
        50.0004         45.0004
 -12978348.33548 -10039817.47647  22386762.0104   22386766.7974   22386761.826
        49.0004         45.0004
 15  5  1  1 44 30.0000000  0 10G11G23G01G04G32G31G22G19G14G03
 -20504541.65849 -15919278.63248  20539697.3154   20539698.1284   20539697.892
        54.0004         50.0004
  -4701198.31447  -3654468.76146  24894056.5094   24894058.1774   24894056.847
        42.0004         37.0004
 -21981102.65249 -17038279.62248  20677882.7714   20677887.7604   20677882.677
        55.0004         50.0004
 -24277737.27549 -18853023.56148  20186380.0514   20186382.6804   20186380.034
        55.0004         51.0004
 -24128913.05749 -18724553.64348  20319911.1114   20319914.0464   20319911.791
        55.0004         50.0004
  -8320213.70148  -6422537.53147  22714820.2654   22714822.1354   22714820.302
        48.0004         43.0004
  -2006950.42646  -1510914.89245  23835582.0184   23835584.7454   23835582.726
        40.0004         35.0004
  -3802616.62547  -2900872.97547  24007904.0584   24007906.4024   24007905.188
        46.0004         42.0004
 -11811676.80048  -9141283.54047  22242707.1464   22242710.1244   22242707.335
        50.0004         45.0004
 -13052154.13048 -10097328.45747  22372716.9534   22372721.4134   22372717.385
        49.0004         45.0004
 15  5  1  1 45  0.0000000  0 10G11G23G01G04G32G31G22G19G14G03
 -20486578.30249 -15905281.21048  20543114.9074   20543116.5954   20543114.986
        54.0004         50.0004
  -4804626.57447  -3735062.18046  24874374.5764   24874374.8674   24874373.942
        42.0004         38.0004
 -22020923.08649 -17069308.52448  20670305.2614   20670310.2024   20670305.310
        55.0004         51.0004
 -24252903.51449 -18833672.58448  20191105.7664   20191107.8724   20191105.544
        55.0004         51.0004
 -24129432.64849 -18724958.51348  20319812.6014   20319815.2724   20319813.123
        55.0004         50.0004
  -8395547.92248  -6481239.50547  22700483.8964   22700486.6424   22700484.060
        48.0004         43.0004
  -1924043.24246  -1446311.92845  23851354.4444   23851358.8164   23851357.608
        39.0004         34.0004
  -3696131.04047  -2817897.23647  24028167.3394   24028170.3834   24028168.204
        46.0004         42.0004
 -11737121.35848  -9083188.41047  22256894.0874   22256896.0134   22256895.453
        49.0004         45.0004
 -13125801.67348 -10154716.11247  22358702.1414   22358706.9704   22358702.028
        49.0004         45.0004
 15  5  1  1 45 30.0000000  0  9G11G23G01G04G32G31G19G14G03
 -20468008.73249 -15890811.41848  20546648.6814   20546650.3334   20546648.702
        54.0004         50.0004
  -4907959.40547  -3815581.23746  24854709.5084   24854712.2354   24854709.734
        42.0004         37.0004
 -22060284.85349 -17099980.02848  20662815.1854   20662819.9114   20662814.568
        55.0004         51.0004
 -24227535.69149 -18813905.45748  20195932.8294   20195935.3864   20195932.780
        55.0004         51.0004
 -24129616.05549 -18725101.41848  20319777.5994   20319779.7114   20319778.097
        55.0004         50.0004
  -8470501.30348  -6539644.71747  22686222.4024   22686223.8044   22686221.652
        48.0004         44.0004
  -3589546.92347  -2734844.71447  24048449.9734   24048452.7594   24048451.202
        46.0004         42.0004
 -11662244.18148  -9024842.57047  22271143.3254   22271145.2194   22271143.995
        49.0004         44.0004
 -13199282.10748 -10211973.54047  22344718.2474   22344724.1144   22344718.960
        49.0004         45.0004
 15  5  1  1 46  0.0000000  0  9G11G23G01G04G32G31G19G14G03
 -20448845.77149 -15875879.24748  20550295.6454   20550297.1374   20550296.128
        54.0004         50.0004
  -5011207.11047  -3896033.94546  24835062.6364   24835065.0414   24835061.401
        42.0004         37.0004
 -22099198.39949 -17130302.26748  20655410.0864   20655415.1634   20655409.575
        55.0004         51.0004
 -24201646.10749 -18793731.76548  20200859.6504   20200862.5494   20200860.054
        55.0004         51.0004
 -24129475.94449 -18724992.23648  20319804.2744   20319806.9694   20319804.677
        55.0004         50.0004
  -8545082.83248  -6597760.18347  22672028.8584   22672030.7324   22672029.317
        48.0004         44.0004
  -3482879.06247  -2651726.91847  24068748.7124   24068750.2464   24068749.988
        46.0004         42.0004
 -11587059.83148  -8966257.39647  22285449.6294   22285452.3754   22285451.176
        49.0004         44.0004
 -13272607.05248 -10269109.82947  22330765.8104   22330770.0854   22330765.311
        49.0004         44.0004
 15  5  1  1 46 30.0000000  0  9G11G23G01G04G32G31G19G14G03
 -20429086.95249 -15860482.76648  20554055.4984   20554057.2524   20554055.424
        54.0004         50.0004
  -5114365.73347  -3976417.28546  24815431.7504   24815434.1694   24815432.457
        42.0004         38.0004
 -22137659.26049 -17160271.75448  20648090.8524   20648095.7304   20648090.752
        55.0004         51.0004
 -24175232.27849 -18773149.56248  20205886.3134   20205888.3904   20205886.745
        55.0004         51.0004
 -24129009.87649 -18724629.05948  20319892.9064   20319895.7234   20319893.905
        55.0004         50.0004
  -8619286.82648  -6655581.45747  22657908.1274   22657910.5404   22657907.897
        48.0004         44.0004
  -3376127.75947  -2568544.12646  24089062.9934   24089063.7824   24089063.909
        46.0004         41.0004
 -11511567.61948  -8907432.31647  22299816.0454   22299818.8184   22299817.280
        49.0004         45.0004
 -13345773.22048 -10326122.40847  22316842.1884   22316847.0354   22316842.058
        49.0004         45.0004
 15  5  1  1 47  0.0000000  0  9G11G23G01G04G32G31G19G14G03
 -20408727.05149 -15844617.91248  20557929.8694   20557931.1884   20557930.148
        54.0004         50.0004
  -5217427.76747  -4056725.31246  24795820.3124   24795822.7654   24795819.857
        42.0004         38.0004
 -22175659.91649 -17189882.65748  20640859.7784   20640864.5664   20640859.625
        55.0004         51.0004
 -24148288.48549 -18752154.39948  20211012.9274   20211015.5084   20211012.947
        55.0004         51.0004
 -24128212.53449 -18724007.74448  20320044.5454   20320047.7764   20320045.483
        55.0004         50.0004
  -8693104.38648  -6713101.61247  22643860.9184   22643863.4764   22643861.149
        48.0004         43.0004
  -3269289.89147  -2485293.88046  24109393.8424   24109396.0614   24109394.603
        46.0004         41.0004
 -11435764.21248  -8848364.75647  22314241.7154   22314243.5184   22314242.253
        49.0004         45.0004
 -13418774.29548 -10383006.33747  22302951.5004   22302955.8094   22302951.676
        49.0004         45.0004
 15  5  1  1 47 30.0000000  0  9G11G23G01G04G32G31G19G14G03
 -20387769.90549 -15828287.68348  20561918.2544   20561919.5554   20561918.726
        54.0004         50.0004
  -5320395.16247  -4136959.60446  24776225.7264   24776229.8214   24776227.275
        42.0004         38.0004
 -22213202.20249 -17219136.38748  20633716.0594   20633720.7014   20633716.224
        55.0004         51.0004
 -24120818.62949 -18730749.32048  20216240.5544   20216242.8374   20216240.222
        55.0004         51.0004
 -24127087.85949 -18723131.36648  20320258.4824   20320261.4594   20320259.297
        55.0004         50.0004
  -8766535.79948  -6770320.86747  22629886.7374   22629888.0434   22629887.577
        48.0004         43.0004
  -3162371.68547  -2401981.01846  24129737.7484   24129740.7884   24129738.513
        46.0004         41.0004
 -11359655.31348  -8789059.15047  22328724.0174   22328725.8074   22328725.335
        49.0004         44.0004
 -13491613.26248 -10439763.94947  22289091.2644   22289094.2894   22289090.385
        50.0004         45.0004
 15  5  1  1 48  0.0000000  0  9G11G23G01G04G32G31G19G14G03
 -20366216.29549 -15811492.65948  20566019.3844   20566021.0894   20566019.343
        54.0004         50.0004
  -5423266.37747  -4217118.94546  24756650.2674   24756653.4014   24756651.695
        42.0004         38.0004
 -22250284.33649 -17248031.55248  20626659.2274   20626664.3664   20626659.358
        55.0004         51.0004
 -24092822.68349 -18708934.30548  20221568.0434   20221570.3864   20221568.356
        55.0004         51.0004
 -24125636.17049 -18722000.16148  20320534.6164   20320537.6534   20320535.375
        55.0004         50.0004
  -8839578.22948  -6827237.03747  22615987.1174   22615990.5244   22615986.839
        48.0004         44.0004
  -3055376.00047  -2318607.80046  24150099.0114   24150101.9264   24150099.311
        46.0004         41.0004
 -11283243.00848  -8729517.11447  22343264.5134   22343265.4754   22343265.185
        49.0004         44.0004
 -13564289.45948 -10496394.72947  22275260.7284   22275265.4214   22275260.125
        50.0004         45.0004
 15  5  1  1 48 30.0000000  0  9G11G23G01G04G32G31G19G14G03
 -20344066.20049 -15794232.85348  20570234.5104   20570235.8174   20570235.544
        54.0004         50.0004
  -5526039.55147  -4297201.94346  24737093.1644   24737096.2934   24737092.036
        42.0004         38.0004
 -22286904.43249 -17276566.68348  20619690.4864   20619695.4944   20619690.071
        55.0004         51.0004
 -24064301.06649 -18686709.67448  20226995.5174   20226997.9914   20226995.808
        55.0004         51.0004
 -24123857.72449 -18720614.35448  20320872.8924   20320876.3574   20320873.712
        55.0004         50.0004
  -8912228.78248  -6883847.82547  22602163.7164   22602163.8274   22602164.504
        48.0004         44.0004
  -2948305.56147  -2235176.33346  24170474.3884   24170477.3664   24170476.237
        46.0004         41.0004
 -11206529.37248  -8669740.27747  22357863.7324   22357865.9474   22357863.426
        49.0004         44.0004
 -13636802.16848 -10552898.08647  22261461.9424   22261466.1754   22261460.909
        50.0004         45.0004
 15  5  1  1 49  0.0000000  0  9G11G23G01G04G32G31G19G14G03
 -20321319.86949 -15776508.44448  20574562.8524   20574564.7254   20574563.422
        54.0004         50.0004
  -5628712.89647  -4377207.10246  24717554.0864   24717558.0334   24717555.411
        43.0004         38.0004
 -22323060.22049 -17304740.02248  20612810.5154   20612814.9844   20612810.876
        55.0004         51.0004
 -24035253.24049 -18664075.00948  20232523.0984   20232525.7904   20232523.168
        55.0004         51.0004
 -24121752.41249 -18718973.84048  20321273.5094   20321276.5954   20321274.180
        55.0004         50.0004
  -8984483.61148  -6940150.28847  22588413.1934   22588415.0594   22588413.319
        49.0004         44.0004
  -2841162.39647  -2151688.19146  24190864.7934   24190866.1564   24190865.615
        46.0004         41.0004
 -11129516.19348  -8609730.04747  22372518.3334   22372520.8164   22372518.744
        49.0004         44.0004
 -13709150.21648 -10609273.15647  22247694.1164   22247699.1124   22247693.148
        50.0004         45.0004
 15  5  1  1 49 30.0000000  0  9G11G23G01G04G32G31G19G14G03
 -20297979.67749 -15758321.28648  20579004.3464   20579005.8554   20579004.433
        54.0004         50.0004
  -5731286.67447  -4457134.68646  24698037.7474   24698037.0694   24698037.451
        43.0004         38.0004
 -22358752.06049 -17332551.85148  20606018.5144   20606023.0844   20606018.120
        55.0004         51.0004
 -24005681.60649 -18641032.18648  20238150.4054   20238152.8784   20238150.535
        55.0004         51.0004
 -24119322.57549 -18717080.46248  20321736.2844   20321739.1164   20321736.919
        55.0004         50.0004
  -9056342.00548  -6996143.82447  22574739.3774   22574741.2424   22574740.145
        49.0004         44.0004
  -2733951.33247  -2068147.15146  24211264.3274   24211266.4704   24211266.013
        45.0004         40.0004
 -11052207.65248  -8549489.64747  22387229.3674   22387231.4404   22387230.042
        49.0004         44.0004
 -13781335.09848 -10665521.08347  22233957.7744   22233962.3334   22233957.650
        50.0004         45.0004
 15  5  1  1 50  0.0000000  0  9G11G23G01G04G32G31G19G14G03
 -20274041.34649 -15739668.05048  20583559.9604   20583560.9274   20583560.572
        54.0004         50.0004
  -5833754.45647  -4536979.67146  24678537.8794   24678538.2514   24678538.941
        43.0004         38.0004
 -22393973.31549 -17359996.98548  20599316.2294   20599321.2244   20599316.272
        55.0004         51.0004
 -23975581.31649 -18617577.41948  20243878.2344   20243880.7504   20243878.278
        55.0004         51.0004
 -24116563.65049 -18714930.64748  20322260.7844   20322263.8174   20322261.717
        55.0004         50.0004
  -9127795.82048  -7051822.13047  22561142.5944   22561144.7114   22561142.580
        48.0004         44.0004
  -2626670.57547  -1984551.80246  24231679.8844   24231682.6604   24231680.015
        45.0004         40.0004
 -10974600.92948  -8489016.89847  22401997.7764   22401999.5694   22401997.899
        49.0004         44.0004
 -13853351.28448 -10721637.54647  22220253.8534   22220258.3424   22220252.718
        50.0004         45.0004
 15  5  1  1 50 30.0000000  0  9G11G23G01G04G32G31G19G14G03
 -20249512.68549 -15720554.81248  20588227.2224   20588229.1994   20588227.778
        54.0004         50.0004
  -5936121.45847  -4616746.09946  24659056.8154   24659059.6474   24659057.596
        43.0004         38.0004
 -22428729.16349 -17387079.45348  20592702.4944   20592707.1264   20592702.305
        56.0004         51.0004
 -23944959.71449 -18593716.43448  20249705.6634   20249707.7664   20249705.925
        55.0004         51.0004
 -24113482.90349 -18712530.05748  20322846.9914   20322849.9794   20322848.150
        55.0004         50.0004
  -9198848.74748  -7107188.00747  22547620.1244   22547622.2674   22547620.958
        48.0004         43.0004
  -2519329.23947  -1900909.25646  24252106.6254   24252108.3014   24252108.014
        45.0004         40.0004
 -10896705.24448  -8428318.97947  22416820.7794   22416822.4364   22416820.451
        49.0004         44.0004
 -13925204.95748 -10777627.38947  22206580.6724   22206584.4854   22206580.690
        50.0004         45.0004
 15  5  1  1 51  0.0000000  0  9G11G23G01G04G32G31G19G14G03
 -20224389.88749 -15700978.61348  20593008.3414   20593009.4224   20593008.812
        54.0004         50.0004
  -6038381.99147  -4696429.58346  24639596.0384   24639598.2554   24639594.881
        43.0004         38.0004
 -22463013.68749 -17413794.66348  20586178.3164   20586182.7774   20586178.138
        56.0004         51.0004
 -23913812.82249 -18569446.13448  20255632.6424   20255635.2484   20255632.913
        55.0004         51.0004
 -24110076.55949 -18709875.76148  20323495.5124   20323498.4504   20323496.080
        55.0004         50.0004
  -9269493.98248  -7162236.21747  22534176.6784   22534179.0444   22534177.612
        48.0004         44.0004
  -2411926.14547  -1817218.55546  24272543.6984   24272547.2964   24272544.730
        45.0004         40.0004
 -10818518.76148  -8367394.47247  22431699.3534   22431700.4994   22431699.364
        49.0004         44.0004
 -13996891.37548 -10833486.90547  22192939.0264   22192943.5994   22192938.392
        50.0004         45.0004
 15  5  1  1 51 30.0000000  0  9G11G23G01G04G32G31G19G14G03
 -20198674.07849 -15680940.33148  20597901.8504   20597903.0304   20597902.060
        54.0004         50.0004
  -6140534.98747  -4776029.26546  24620160.6464   24620160.1484   24620159.444
        43.0004         38.0004
 -22496825.74949 -17440141.72148  20579743.6094   20579748.6034   20579743.243
        55.0004         51.0004
 -23882141.40349 -18544767.11248  20261659.3134   20261661.9414   20261659.273
        55.0004         51.0004
 -24106345.37949 -18706968.34348  20324205.5254   20324208.6084   20324206.158
        55.0004         50.0004
  -9339729.05348  -7216964.81747  22520812.3834   22520815.5294   22520812.130
        49.0004         44.0004
  -2304464.44347  -1733482.22446  24292992.9564   24292995.7054   24292994.307
        44.0004         39.0004
 -10740043.97848  -8306245.33247  22446631.9404   22446634.9664   22446633.021
        49.0004         44.0004
 -14068410.39148 -10889215.97447  22179329.3974   22179333.8884   22179328.465
        50.0004         46.0004
 15  5  1  1 52  0.0000000  0  9G11G23G01G04G32G31G19G14G03
 -20172367.57449 -15660441.76048  20602907.1314   20602909.0094   20602907.602
        54.0004         50.0004
  -6242580.35747  -4855545.10046  24600741.8864   24600741.8474   24600742.047
        43.0004         38.0004
 -22530164.99649 -17466120.35648  20573399.5994   20573403.9104   20573399.569
        55.0004         51.0004
 -23849947.21049 -18519680.73548  20267785.5914   20267788.0034   20267785.881
        55.0004         51.0004
 -24102291.13049 -18703809.18348  20324976.8714   20324979.9034   20324977.753
        55.0004         50.0004
  -9409552.22148  -7271372.47747  22507526.6124   22507527.6324   22507526.761
        49.0004         44.0004
  -2196948.31147  -1649703.49146  24313452.9864   24313454.7354   24313453.169
        44.0004         40.0004
 -10661284.35348  -8244874.22947  22461619.2534   22461621.7604   22461619.765
        48.0004         44.0004
 -14139762.75448 -10944815.18647  22165751.3464   22165755.8224   22165750.808
        50.0004         45.0004
 15  5  1  1 52 30.0000000  0  9G11G23G01G04G32G31G19G14G03
 -20145468.74549 -15639481.64548  20608026.4404   20608027.8254   20608026.834
        54.0004         50.0004
  -6344514.47147  -4934974.20446  24581344.4664   24581343.4534   24581343.999
        43.0004         38.0004
 -22563027.80649 -17491727.74148  20567146.0774   20567150.3644   20567145.574
        55.0004         51.0004
 -23817228.60149 -18494185.72248  20274011.4774   20274014.1734   20274011.304
        55.0004         51.0004
 -24097912.30349 -18700397.11148  20325810.4444   20325813.4754   20325811.133
        55.0004         50.0004
  -9478958.49948  -7325455.27647  22494317.9934   22494319.2124   22494318.940
        49.0004         44.0004
  -2089378.49747  -1565882.89246  24333922.7214   24333924.2104   24333924.186
        44.0004         39.0004
 -10582240.51248  -8183281.66847  22476662.2004   22476663.2174   22476662.166
        49.0004         44.0004
 -14210945.82248 -11000282.47347  22152205.2084   22152210.0824   22152204.688
        50.0004         45.0004
 15  5  1  1 53  0.0000000  0  9G11G23G01G04G32G31G19G14G03
 -20117980.05149 -15618061.88848  20613257.0924   20613258.8284   20613257.561
        54.0004         50.0004
  -6446337.34447  -5014316.65846  24561967.4614   24561967.1204   24561966.951
        43.0004         38.0004
 -22595414.17749 -17516963.87048  20560983.2824   20560987.9514   20560983.228
        55.0004         51.0004
 -23783987.56649 -18468283.61648  20280337.4474   20280339.9514   20280337.481
        55.0004         51.0004
 -24093210.74749 -18696733.55848  20326704.9854   20326707.8504   20326705.990
        55.0004         50.0004
  -9547946.66948  -7379212.30547  22481189.6604   22481192.1124   22481190.541
        49.0004         44.0004
  -1981759.28047  -1482023.79546  24354401.8104   24354404.7784   24354403.415
        44.0004         39.0004
 -10502915.83048  -8121470.24547  22491756.2674   22491757.1724   22491757.068
        48.0004         43.0004
 -14281960.64248 -11055618.65847  22138691.7854   22138696.1824   22138690.809
        50.0004         45.0004
 15  5  1  1 53 30.0000000  0  9G11G23G01G04G32G31G19G14G03
 -20089901.78549 -15596182.73148  20618599.8994   20618602.2004   20618600.293
        54.0004         50.0004
  -6548047.18147  -5093571.01846  24542611.7334   24542612.4534   24542611.136
        43.0004         38.0004
 -22627322.06349 -17541827.15448  20554911.2024   20554916.3234   20554910.899
        55.0004         51.0004
 -23750224.10349 -18441974.43548  20286762.7264   20286764.8864   20286762.805
        55.0004         51.0004
 -24088186.53649 -18692818.58948  20327661.1864   20327664.3894   20327661.806
        55.0004         50.0004
  -9616513.48448  -7432640.95747  22468143.3384   22468143.9134   22468143.603
        49.0004         44.0004
  -1874093.00847  -1398128.03746  24374889.4664   24374892.3214   24374891.746
        44.0004         39.0004
 -10423312.24648  -8059441.51347  22506903.9074   22506906.6084   22506905.200
        48.0004         43.0004
 -14352806.17248 -11110822.94547  22125209.7974   22125215.1774   22125210.003
        50.0004         45.0004
 15  5  1  1 54  0.0000000  0  9G11G23G01G04G32G31G19G14G03
 -20061234.92049 -15573844.91648  20624055.4444   20624056.9134   20624055.644
        54.0004         50.0004
  -6649642.42347  -5172736.07946  24523278.7734   24523279.7924   24523278.723
        43.0004         38.0004
 -22658750.23949 -17566316.63848  20548930.6204   20548935.4424   20548930.452
        55.0004         51.0004
 -23715939.03249 -18415258.79948  20293286.3854   20293288.8044   20293286.217
        55.0004         50.0004
 -24082840.42849 -18688652.78748  20328678.6604   20328681.4064   20328679.271
        55.0004         50.0004
  -9684656.42248  -7485739.32447  22455175.2414   22455178.4904   22455175.405
        49.0004         45.0004
  -1766382.65147  -1314197.90746  24395386.5404   24395389.3754   24395387.048
        44.0004         40.0004
 -10343432.36048  -7997197.47347  22522106.3294   22522107.2374   22522105.766
        48.0004         43.0004
 -14423482.16548 -11165895.12147  22111760.9584   22111765.7794   22111761.378
        50.0004         45.0004
 15  5  1  1 54 30.0000000  0  9G11G23G01G04G32G31G19G14G03
 -20031980.37749 -15551049.18048  20629623.0834   20629623.8294   20629623.260
        54.0004         50.0004
  -6751121.70447  -5251810.78446  24503968.7144   24503969.5184   24503970.102
        43.0004         38.0004
 -22689697.04449 -17590431.03448  20543042.0184   20543046.4794   20543041.730
        55.0004         51.0004
 -23681132.68849 -18388136.97648  20299910.0084   20299912.4894   20299909.873
        55.0004         50.0004
 -24077172.72849 -18684236.39148  20329757.0104   20329760.0314   20329757.653
        55.0004         50.0004
  -9752372.42848  -7538505.03047  22442289.0184   22442290.3334   22442288.509
        49.0004         44.0004
  -1658631.36247  -1230235.88746  24415890.0414   24415894.5584   24415889.898
        44.0004         40.0004
 -10263278.17948  -7934739.71747  22537357.6474   22537360.2664   22537358.395
        48.0004         43.0004
 -14493987.92548 -11220834.64647  22098344.7484   22098348.4944   22098344.077
        50.0004         46.0004
 15  5  1  1 55  0.0000000  0  9G11G23G01G04G32G31G19G14G03
 -20002138.73449 -15527795.96548  20635300.9204   20635302.6234   20635301.793
        54.0004         50.0004
  -6852482.90547  -5330793.46546  24484679.8764   24484680.8464   24484680.260
        43.0004         38.0004
 -22720160.36449 -17614168.68348  20537244.5064   20537249.2864   20537244.679
        55.0004         51.0004
 -23645804.94349 -18360608.87348  20306632.4544   20306635.3354   20306632.462
        55.0004         51.0004
 -24071183.21149 -18679569.23448  20330896.5314   20330899.8444   20330897.163
        55.0004         50.0004
  -9819658.31448  -7590935.58147  22429485.6224   22429486.7144   22429485.743
        49.0004         45.0004
  -1550840.73547  -1146243.25046  24436402.1744   24436406.5014   24436402.108
        44.0004         39.0004
 -10182851.72048  -7872069.77047  22552662.5854   22552664.8774   22552662.636
        48.0004         43.0004
 -14564322.31948 -11275640.64147  22084960.5024   22084964.3634   22084959.383
        50.0004         45.0004
 15  5  1  1 55 30.0000000  0  9G11G23G01G04G32G31G19G14G03
 -19971710.65649 -15504085.77248  20641091.6664   20641092.8254   20641092.695
        54.0004         50.0004
  -6953725.07647  -5409683.40546  24465411.7564   24465415.4614   24465412.194
        43.0004         38.0004
 -22750138.78349 -17637528.47948  20531539.8464   20531544.8214   20531539.737
        55.0004         51.0004
 -23609956.58049 -18332675.09148  20313454.4244   20313456.9114   20313454.375
        55.0004         51.0004
 -24064872.64449 -18674651.90448  20332097.3744   20332100.7834   20332097.490
        55.0004         50.0004
  -9886511.33448  -7643028.82747  22416764.4154   22416765.6594   22416763.926
        50.0004         45.0004
  -1443013.73147  -1062222.27346  24456923.1594   24456925.9324   24456924.799
        44.0004         40.0004
 -10102155.37148  -7809189.52547  22568017.6234   22568021.7094   22568019.549
        48.0004         43.0004
 -14634484.90148 -11330312.76047  22071608.9354   22071613.7354   22071608.762
        50.0004         45.0004
 15  5  1  1 56  0.0000000  0  9G11G23G01G04G32G31G19G14G03
 -19940697.28649 -15479919.52148  20646993.1324   20646994.6304   20646993.402
        54.0004         50.0004
  -7054847.09847  -5488479.72346  24446169.2524   24446172.9934   24446168.066
        43.0004         39.0004
 -22779631.01749 -17660509.44148  20525927.6514   20525932.6914   20525927.227
        55.0004         51.0004
 -23573588.12349 -18304336.04348  20320375.0684   20320377.5194   20320374.876
        55.0004         51.0004
 -24058241.57849 -18669484.83148  20333359.5634   20333362.2164   20333360.181
        55.0004         50.0004
  -9952928.68148  -7694782.59747  22404124.1724   22404126.8864   22404124.536
        49.0004         45.0004
  -1335153.69547   -978175.53346  24477447.0154   24477450.0724   24477448.773
        44.0004         40.0004
 -10021191.37848  -7746100.76047  22583425.9814   22583427.7254   22583425.567
        48.0004         43.0004
 -14704475.30248 -11384850.71347  22058290.3984   22058294.8254   22058289.800
        50.0004         45.0004
 15  5  1  1 56 30.0000000  0  9G11G23G01G04G32G31G19G14G03
 -19909100.02549 -15455298.28048  20653005.3544   20653007.4094   20653005.780
        54.0004         50.0004
  -7155846.93447  -5567180.82846  24426949.0854   24426952.5014   24426949.277
        43.0004         39.0004
 -22808635.85249 -17683110.60848  20520408.3764   20520413.0774   20520408.549
        55.0004         51.0004
 -23536700.73149 -18275592.62448  20327394.8424   20327396.8154   20327394.676
        55.0004         51.0004
 -24051290.68749 -18664068.54348  20334681.8434   20334684.7984   20334682.708
        55.0004         50.0004
 -10018907.88348  -7746194.94447  22391569.5154   22391570.7694   22391569.101
        50.0004         45.0004
  -1227263.63047   -894105.40146  24497978.1484   24497981.4254   24497979.333
        44.0004         39.0004
  -9939962.52248  -7682805.56147  22598883.0374   22598885.4024   22598882.289
        48.0004         43.0004
 -14774293.20348 -11439254.24947  22045004.3154   22045008.4634   22045003.158
        50.0004         45.0004
 15  5  1  1 57  0.0000000  0  9G11G23G01G04G32G31G19G14G03
 -19876920.08349 -15430223.01048  20659129.5474   20659131.2364   20659129.992
        54.0004         50.0004
  -7256724.13747  -5645786.36746  24407753.7844   24407755.7834   24407755.538
        43.0004         38.0004
 -22837152.35349 -17705331.25648  20514981.8374   20514986.4294   20514981.623
        55.0004         51.0004
 -23499295.23749 -18246445.49948  20334512.9854   20334515.0084   20334513.260
        55.0004         51.0004
 -24044021.02949 -18658403.88048  20336065.5914   20336068.4664   20336066.005
        55.0004         50.0004
 -10084446.94648  -7797264.33647  22379097.5184   22379098.9504   22379096.383
        49.0004         45.0004
  -1119346.66147   -810014.30846  24518514.7274   24518515.8834   24518515.186
        44.0004         39.0004
  -9858471.34448  -7619305.98247  22614389.3914   22614392.2124   22614390.534
        48.0004         43.0004
 -14843938.57248 -11493523.33647  22031750.7334   22031755.4714   22031750.943
        50.0004         45.0004
 15  5  1  1 57 30.0000000  0  9G11G23G01G04G32G31G19G14G03
 -19844156.84749 -15404693.22448  20665364.3064   20665366.0364   20665364.379
        54.0004         50.0004
  -7357475.42147  -5724293.79946  24388582.9164   24388583.5484   24388581.386
        43.0004         39.0004
 -22865177.25949 -17727168.83148  20509648.1784   20509653.3444   20509648.130
        55.0004         51.0004
 -23461370.53849 -18216893.79748  20341729.6714   20341731.9674   20341729.420
        55.0004         50.0004
 -24036431.22549 -18652489.74248  20337509.7124   20337512.5144   20337510.458
        55.0004         50.0004
 -10149541.32248  -7847987.21047  22366710.7254   22366711.2194   22366710.133
        49.0004         45.0004
  -1011403.64247   -725902.89446  24539053.4294   24539057.7094   24539055.037
        44.0004         39.0004
  -9776718.36648  -7555602.40447  22629947.2224   22629949.0534   22629947.203
        48.0004         43.0004
 -14913409.04348 -11547656.14147  22018530.6944   22018535.3164   22018530.531
        50.0004         45.0004
 15  5  1  1 58  0.0000000  0  9G11G23G01G04G32G31G19G14G03
 -19810811.51849 -15378709.85348  20671709.9234   20671710.9914   20671710.053
        54.0004         50.0004
  -7458099.66147  -5802702.24646  24369433.2964   24369434.2194   24369434.698
        43.0004         39.0004
 -22892709.28949 -17748622.36348  20504409.7624   20504414.3794   20504409.953
        55.0004         51.0004
 -23422927.48849 -18186938.18548  20349045.2964   20349047.5294   20349044.907
        55.0004         50.0004
 -24028521.94549 -18646326.66948  20339014.7964   20339017.8544   20339015.459
        55.0004         50.0004
 -10214188.45348  -7898361.57447  22354409.0254   22354409.1684   22354407.755
        50.0004         45.0004
   -903437.57547   -641773.52646  24559599.7024   24559602.4814   24559599.684
        44.0004         39.0004
  -9694705.98148  -7491696.69747  22645554.1294   22645556.7354   22645554.036
        48.0004         43.0004
 -14982704.23848 -11601652.38447  22005344.5954   22005348.8634   22005344.698
        50.0004         45.0004
 15  5  1  1 58 30.0000000  0  9G11G23G01G04G32G31G19G14G03
 -19776888.26549 -15352276.15948  20678164.7084   20678166.3994   20678164.904
        54.0004         49.0004
  -7558598.40947  -5881012.88446  24350309.4254   24350311.9784   24350310.019
        43.0004         39.0004
 -22919750.15649 -17769693.16748  20499263.7364   20499268.5294   20499264.188
        55.0004         51.0004
 -23383969.96449 -18156581.68048  20356458.4354   20356460.7984   20356457.853
        55.0004         50.0004
 -24020296.78749 -18639917.45848  20340580.1774   20340582.9384   20340580.623
        55.0004         50.0004
 -10278388.78348  -7948387.78847  22342190.9134   22342193.8314   22342191.379
        50.0004         45.0004
   -795454.63247   -557631.01746  24580148.3354   24580151.0104   24580148.641
        44.0004         39.0004
  -9612439.69947  -7427593.13447  22661209.5314   22661210.7244   22661209.206
        47.0004         43.0004
 -15051826.68748 -11655514.01747  21992190.7764   21992195.6134   21992189.827
        50.0004         46.0004
 15  5  1  1 59  0.0000000  0  9G11G23G01G04G32G31G19G14G03
 -19742384.52749 -15325390.14048  20684730.5894   20684732.2134   20684730.812
        54.0004         49.0004
  -7658966.93847  -5959222.05246  24331208.4924   24331210.3404   24331207.931
        43.0004         39.0004
 -22946294.83549 -17790377.33148  20494212.8774   20494217.4824   20494212.615
        55.0004         51.0004
 -23344494.77749 -18125821.80348  20363970.6604   20363972.7324   20363970.996
        55.0004         50.0004
 -24011752.50149 -18633259.56848  20342205.9394   20342209.1904   20342207.281
        55.0004         50.0004
 -10342135.78348  -7998060.76847  22330060.9084   22330063.2054   22330061.020
        50.0004         45.0004
   -687453.85347   -473474.60746  24600699.7874   24600703.9674   24600700.179
        44.0004         39.0004
  -9529917.90747  -7363290.46247  22676912.5244   22676912.9814   22676913.120
        47.0004         43.0004
 -15120772.21348 -11709237.78347  21979071.2584   21979076.1244   21979070.974
        50.0004         46.0004
 15  5  1  1 59 30.0000000  0 10G11G23G01G17G04G32G31G19G14G03
 -19707301.51649 -15298052.73948  20691406.8874   20691408.1504   20691406.972
        54.0004         49.0004
  -7759203.43847  -6037328.35846  24312134.6044   24312135.2014   24312135.655
        43.0004         39.0004
 -22972342.00049 -17810673.82148  20489256.1044   20489260.8584   20489255.839
        55.0004         51.0004
  -1327085.28947  -1022025.25546  24555553.2044   24555555.6364   24555553.072
        47.0004         39.0004
 -23304502.76849 -18094659.21648  20371580.7114   20371582.9484   20371581.008
        55.0004         50.0004
 -24002889.78149 -18626353.56148  20343892.5844   20343895.4424   20343893.166
        55.0004         50.0004
 -10405426.93848  -8047378.53847  22318017.1374   22318018.8314   22318018.083
        50.0004         45.0004
   -579438.03947   -389306.48946  24621254.0844   24621258.5884   24621254.383
        44.0004         40.0004
  -9447143.17648  -7298790.70947  22692663.3654   22692665.7694   22692664.022
        48.0004         43.0004
 -15189540.34548 -11762823.31247  21965985.3444   21965989.3844   21965985.591
        50.0004         46.0004
 15  5  1  2  0  0.0000000  0 10G11G23G01G17G04G32G31G19G14G03
 -19671642.13349 -15270266.21848  20698192.7354   20698193.9794   20698193.116
        54.0004         49.0004
  -7859308.57747  -6115332.29746  24293085.8554   24293086.5954   24293088.151
        43.0004         39.0004
 -22997892.21249 -17830583.07148  20484393.7964   20484398.5984   20484393.872
        55.0004         51.0004
  -1388830.71147  -1070138.62546  24543804.4224   24543805.9264   24543803.902
        45.0004         39.0004
 -23263996.63349 -18063096.00048  20379288.2334   20379291.0604   20379288.018
        55.0004         50.0004
 -23993711.03649 -18619201.29548  20345639.0114   20345641.9734   20345639.906
        55.0004         50.0004
 -10468261.63548  -8096340.65347  22306060.2524   22306061.4334   22306059.397
        50.0004         45.0004
   -471411.67247   -305130.14646  24641811.2364   24641815.0924   24641812.427
        44.0004         40.0004
  -9364119.72747  -7234097.16147  22708462.5574   22708463.6604   22708462.727
        47.0004         43.0004
 -15258132.42348 -11816271.65347  21952932.0814   21952936.8094   21952932.268
        51.0004         46.0004
 15  5  1  2  0 30.0000000  0 10G11G23G01G17G04G32G31G19G14G03
 -19635407.47949 -15242031.42448  20705088.0034   20705089.8844   20705088.855
        54.0004         50.0004
  -7959281.00947  -6193232.82246  24274062.0734   24274062.0204   24274062.095
        44.0004         39.0004
 -23022943.64149 -17850103.66948  20479627.1704   20479631.7084   20479626.871
        56.0004         51.0004
  -1450132.29247  -1117906.09746  24532139.0554   24532141.1454   24532137.898
        44.0004         39.0004
 -23222976.52849 -18031132.29548  20387094.4534   20387096.8284   20387094.592
        55.0004         50.0004
 -23984216.20849 -18611802.73048  20347446.0294   20347449.1124   20347446.594
        55.0004         50.0004
 -10530636.95848  -8144944.75447  22294189.5354   22294191.4994   22294189.623
        50.0004         45.0004
   -363377.24547   -220947.51146  24662370.1124   24662373.5794   24662371.098
        44.0004         40.0004
  -9280849.46747  -7169211.27947  22724308.0414   22724309.6754   22724309.121
        47.0004         43.0004
 -15326547.41648 -11869582.02947  21939913.6854   21939917.5574   21939912.689
        51.0004         46.0004
 15  5  1  2  1  0.0000000  0 10G11G23G01G17G04G32G31G19G14G03
 -19598598.38049 -15213349.01348  20712092.2634   20712093.8054   20712092.351
        54.0004         49.0004
  -8059118.74747  -6271028.38846  24255063.0514   24255064.9954   24255063.453
        44.0004         39.0004
 -23047494.90549 -17869234.51748  20474954.9534   20474960.1374   20474954.770
        56.0004         51.0004
  -1510987.87347  -1165326.00146  24520558.8974   24520559.7794   24520557.739
        44.0004         40.0004
 -23181443.22149 -17998768.69348  20394997.9784   20395000.3774   20394998.185
        55.0004         50.0004
 -23974405.74149 -18604158.21748  20349312.8984   20349316.0124   20349313.531
        55.0004         50.0004
 -10592550.09248  -8193188.73647  22282408.3464   22282410.4924   22282407.547
        50.0004         45.0004
   -255337.54747   -136760.77646  24682930.6324   24682932.4714   24682932.696
        44.0004         40.0004
  -9197334.22447  -7104134.52247  22740198.8524   22740203.0554   22740201.084
        47.0004         43.0004
 -15394784.72548 -11922753.93747  21926927.6354   21926931.9644   21926928.377
        50.0004         46.0004
 15  5  1  2  1 30.0000000  0 10G11G23G01G17G04G32G31G19G14G03
 -19561217.05049 -15184220.71048  20719205.5774   20719207.3564   20719206.273
        54.0004         49.0004
  -8158821.38947  -6348718.70246  24236090.1374   24236094.7004   24236090.003
        44.0004         40.0004
 -23071545.75349 -17887975.43348  20470378.1864   20470383.1694   20470378.326
        56.0004         51.0004
  -1571396.83047  -1212397.95146  24509063.9054   24509064.9814   24509063.581
        45.0004         40.0004
 -23139398.63649 -17966006.69048  20402998.5594   20403001.3734   20402998.256
        55.0004         50.0004
 -23964281.26349 -18596269.01648  20351239.3774   20351242.5294   20351240.046
        55.0004         50.0004
 -10653999.43648  -8241071.33347  22270715.8464   22270718.1524   22270715.258
        50.0004         45.0004
   -147296.17847    -52572.73346  24703489.6644   24703491.8704   24703491.801
        44.0004         39.0004
  -9113577.80447  -7038869.82647  22756138.1964   22756140.2064   22756139.635
        47.0004         43.0004
 -15462844.89248 -11975787.81547  21913977.0044   21913980.3984   21913976.687
        51.0004         46.0004
 15  5  1  2  2  0.0000000  0 10G11G23G01G17G04G32G31G19G14G03
 -19523258.57849 -15154642.68548  20726428.9344   20726430.4994   20726429.122
        54.0004         49.0004
  -8258381.80547  -6426298.16846  24217145.6964   24217148.9134   24217145.854
        45.0004         40.0004
 -23095088.75649 -17906320.62948  20465898.2354   20465902.6924   20465897.768
        56.0004         51.0004
  -1631351.15947  -1259115.62946  24497655.3324   24497655.4974   24497655.953
        45.0004         40.0004
 -23096837.28149 -17932842.01248  20411098.2324   20411100.1294   20411098.193
        55.0004         50.0004
 -23953837.06849 -18588130.68148  20353226.6684   20353230.0594   20353227.686
        55.0004         50.0004
 -10714976.46348  -8288585.88747  22259111.4364   22259113.3454   22259110.678
        49.0004         45.0004
    -39249.86747     31619.15946  24724049.3914   24724053.3954   24724050.080
        44.0004         39.0004
  -9029576.30147  -6973414.14547  22772124.6304   22772124.7494   22772124.477
        47.0004         42.0004
 -15530721.17748 -12028678.41747  21901060.4704   21901065.7064   21901059.081
        51.0004         46.0004
 15  5  1  2  2 30.0000000  0 10G11G23G01G17G04G32G31G19G14G03
 -19484731.60149 -15124621.67648  20733760.6834   20733761.9884   20733760.992
        54.0004         50.0004
  -8357805.84447  -6503771.36646  24198226.8234   24198226.7924   24198225.372
        45.0004         40.0004
 -23118129.94449 -17924274.80348  20461513.0724   20461518.1264   20461512.949
        55.0004         51.0004
  -1690856.32247  -1305483.26246  24486331.2184   24486333.9924   24486330.966
        44.0004         40.0004
 -23053767.47849 -17899281.13448  20419293.8154   20419296.6554   20419293.889
        55.0004         50.0004
 -23943080.98649 -18579749.31948  20355273.4944   20355277.0994   20355273.728
        55.0004         50.0004
 -10775485.76448  -8335736.00047  22247596.3534   22247598.0244   22247596.058
        49.0004         45.0004
     68791.24347    115806.98946  24744608.1054   24744610.9724   24744609.227
        43.0004         39.0004
  -8945339.19347  -6907774.88447  22788152.6584   22788154.8644   22788153.663
        47.0004         42.0004
 -15598420.33248 -12081430.98347  21888177.2994   21888182.5044   21888177.361
        51.0004         46.0004
 15  5  1  2  3  0.0000000  0 10G11G23G01G17G04G32G31G19G14G03
 -19445633.44349 -15094155.58848  20741200.7834   20741202.4744   20741201.274
        54.0004         49.0004
  -8457088.10847  -6581134.12446  24179331.7804   24179334.8624   24179331.247
        44.0004         39.0004
 -23140664.03249 -17941833.83248  20457225.2764   20457230.0674   20457224.991
        55.0004         51.0004
  -1749906.58547  -1351496.45946  24475093.3004   24475095.8604   24475093.002
        45.0004         40.0004
 -23010186.07549 -17865321.61648  20427587.1534   20427589.9344   20427587.102
        55.0004         50.0004
 -23932009.58149 -18571122.24948  20357380.3254   20357383.6004   20357380.883
        55.0004         50.0004
 -10835521.09548  -8382516.76747  22236172.6924   22236173.1214   22236172.519
        49.0004         45.0004
    176828.33147    199991.69146  24765168.1024   24765171.4064   24765168.422
        43.0004         39.0004
  -8860864.64347  -6841950.62147  22804229.5154   22804229.9854   22804229.395
        47.0004         42.0004
 -15665937.84448 -12134042.01147  21875329.2944   21875334.0904   21875329.302
        51.0004         46.0004
 15  5  1  2  3 30.0000000  0 10G11G23G01G17G04G32G31G19G14G03
 -19405962.78749 -15063243.40448  20748749.4644   20748751.4554   20748749.682
        54.0004         49.0004
  -8556224.39047  -6658383.11846  24160466.7084   24160468.0644   24160464.969
        44.0004         39.0004
 -23162686.97849 -17958994.56748  20453034.3184   20453039.3594   20453034.094
        55.0004         51.0004
  -1808497.09447  -1397151.40746  24463944.0504   24463947.4034   24463943.398
        44.0004         40.0004
 -22966090.92349 -17830961.77148  20435978.1384   20435980.6874   20435978.202
        55.0004         50.0004
 -23920620.39949 -18562247.55948  20359547.8594   20359550.7054   20359548.540
        55.0004         50.0004
 -10895076.76748  -8428923.77447  22224837.8254   22224839.7464   22224836.970
        49.0004         44.0004
    284861.40047    284173.26546  24785727.1714   24785729.4064   24785728.571
        44.0004         39.0004
  -8776152.04947  -6775940.83547  22820348.3814   22820349.6704   22820349.204
        47.0004         42.0004
 -15733270.45448 -12186508.96347  21862516.1184   21862521.1004   21862515.775
        51.0004         46.0004
 15  5  1  2  4  0.0000000  0 10G11G23G01G17G04G32G31G19G14G03
 -19365729.45249 -15031892.75348  20756406.0804   20756407.6974   20756406.287
        54.0004         49.0004
  -8655222.24447  -6735524.25246  24141626.9094   24141630.7594   24141627.373
        44.0004         39.0004
 -23184206.30849 -17975762.87748  20448939.7544   20448944.1894   20448939.547
        56.0004         51.0004
  -1866634.86247  -1442453.58846  24452881.1834   24452884.1914   24452880.433
        45.0004         40.0004
 -22921491.75349 -17796209.18148  20444464.9674   20444467.6374   20444464.992
        55.0004         50.0004
 -23908922.89049 -18553132.61548  20361773.9564   20361776.8754   20361774.957
        55.0004         50.0004
 -10954159.34748  -8474962.14247  22213595.7404   22213597.5854   22213595.296
        49.0004         45.0004
    392879.20647    368342.93446  24806283.2084   24806285.2174   24806285.731
        44.0004         39.0004
  -8691212.74447  -6709754.39747  22836511.5764   22836514.4154   22836511.877
        46.0004         42.0004
 -15800426.08048 -12238838.00047  21849737.1604   21849741.2264   21849737.449
        51.0004         46.0004
 15  5  1  2  4 30.0000000  0 10G11G23G01G17G04G32G31G19G14G03
 -19324928.44249 -15000099.76848  20764170.4044   20764171.5544   20764171.017
        54.0004         49.0004
  -8754074.35047  -6812551.79546  24122817.4394   24122819.5114   24122817.174
        44.0004         40.0004
 -23205214.59949 -17992132.98148  20444942.0804   20444946.6054   20444941.983
        56.0004         51.0004
  -1924312.15247  -1487396.94246  24441907.1374   24441908.4454   24441905.654
        45.0004         40.0004
 -22876383.23049 -17761059.69848  20453049.0054   20453051.3174   20453049.214
        55.0004         50.0004
 -23896911.30349 -18543772.94348  20364059.3124   20364062.5264   20364060.039
        55.0004         50.0004
 -11012760.02548  -8520624.99447  22202445.0454   22202446.2114   22202445.201
        49.0004         45.0004
    500884.91847    452503.17746  24826836.0344   24826837.8574   24826836.624
        44.0004         39.0004
  -8606042.74947  -6643388.23147  22852718.9604   22852722.6634   22852718.999
        46.0004         42.0004
 -15867398.17448 -12291024.03647  21836993.0494   21836996.9064   21836992.812
        51.0004         46.0004
 15  5  1  2  5  0.0000000  0 10G11G23G01G17G04G32G31G19G14G03
 -19283563.72149 -14967867.52648  20772041.4974   20772042.9034   20772042.243
        54.0004         49.0004
  -8852781.03847  -6889466.03846  24104034.2064   24104037.0124   24104034.427
        44.0004         40.0004
 -23225712.82849 -18008105.62348  20441041.6934   20441045.6814   20441041.202
        56.0004         51.0004
  -1981529.16247  -1531981.62346  24431017.4734   24431019.8334   24431019.236
        45.0004         40.0004
 -22830768.50849 -17725515.77348  20461729.2264   20461731.3114   20461729.052
        55.0004         50.0004
 -23884588.29249 -18534170.59848  20366404.6194   20366407.3194   20366405.913
        55.0004         50.0004
 -11070878.48248  -8565912.10047  22191385.3864   22191387.0474   22191385.199
        50.0004         45.0004
    608873.94947    536650.45946  24847384.5364   24847386.3584   24847385.054
        43.0004         39.0004
  -8520646.26947  -6576845.58147  22868969.9774   22868972.9214   22868969.023
        46.0004         42.0004
 -15934188.20748 -12343068.20547  21824282.9724   21824287.3864   21824282.495
        51.0004         46.0004
 15  5  1  2  5 30.0000000  0 10G11G23G01G17G04G32G31G19G14G03
 -19241634.51349 -14935195.41848  20780019.8744   20780021.7064   20780019.889
        54.0004         49.0004
  -8951339.28347  -6966264.60446  24085279.0244   24085281.5514   24085281.698
        44.0004         40.0004
 -23245697.96449 -18023678.45248  20437238.3294   20437242.7044   20437237.955
        56.0004         51.0004
  -2038282.55847  -1576205.03146  24420216.9164   24420219.8124   24420217.445
        44.0004         39.0004
 -22784646.61449 -17689576.65048  20470506.3884   20470508.3724   20470506.223
        55.0004         50.0004
 -23871952.56849 -18524324.57848  20368808.7974   20368812.0574   20368809.545
        55.0004         50.0004
 -11128510.57348  -8610820.21947  22180418.9434   22180419.8754   22180418.057
        50.0004         45.0004
    716845.02247    620783.76746  24867930.6854   24867933.8804   24867932.333
        43.0004         38.0004
  -8435023.91747  -6510126.92247  22885263.5614   22885265.6644   22885263.535
        46.0004         42.0004
 -16000793.91048 -12394968.73347  21811607.8864   21811612.7524   21811607.386
        51.0004         47.0004
 15  5  1  2  6  0.0000000  0 10G11G23G01G17G04G32G31G19G14G03
 -19199142.60849 -14902084.85848  20788106.7584   20788107.7954   20788107.339
        54.0004         49.0004
  -9049748.02747  -7042946.66446  24066553.3764   24066555.9324   24066554.187
        44.0004         40.0004
 -23265168.97149 -18038850.67348  20433533.1074   20433537.4824   20433532.876
        56.0004         51.0004
  -2094570.77047  -1620065.99646  24409506.4234   24409508.1464   24409505.308
        44.0004         39.0004
 -22738018.61149 -17653243.15348  20479378.7754   20479381.4784   20479378.451
        55.0004         50.0004
 -23859004.79049 -18514235.40048  20371272.9334   20371275.8814   20371273.626
        55.0004         50.0004
 -11185653.97248  -8655347.51947  22169545.1004   22169546.2804   22169544.322
        50.0004         45.0004
    824795.63347    704901.10346  24888472.7094   24888475.0964   24888474.190
        43.0004         38.0004
  -8349178.13847  -6443234.16447  22901599.3044   22901601.7734   22901599.770
        46.0004         42.0004
 -16067214.81448 -12446725.25847  21798969.7224   21798973.6924   21798969.238
        51.0004         47.0004
 15  5  1  2  6 30.0000000  0 10G11G23G01G17G04G32G31G19G14G03
 -19156089.48749 -14868536.98348  20796299.0834   20796300.7934   20796298.916
        54.0004         49.0004
  -9148006.12047  -7119511.35846  24047855.0454   24047855.9254   24047855.189
        45.0004         40.0004
 -23284124.85349 -18053621.49248  20429925.9044   20429930.6134   20429925.647
        56.0004         51.0004
  -2150392.13647  -1663563.16546  24398884.3504   24398885.8154   24398883.212
        44.0004         40.0004
 -22690885.72249 -17616516.23448  20488348.3424   20488350.6504   20488348.769
        55.0004         50.0004
 -23845745.67649 -18503903.62348  20373795.8754   20373799.4324   20373796.396
        55.0004         50.0004
 -11242306.45348  -8699492.29747  22158763.7164   22158765.4874   22158764.044
        50.0004         45.0004
    932722.64747    789000.03046  24909010.3754   24909014.3854   24909012.475
        42.0004         38.0004
  -8263111.41447  -6376169.24146  22917977.2554   22917979.5454   22917976.896
        46.0004         41.0004
 -16133450.47848 -12498337.45047  21786364.7534   21786368.9784   21786363.991
        52.0004         47.0004
 15  5  1  2  7  0.0000000  0 10G11G23G01G17G04G32G31G19G14G03
 -19112477.49349 -14834553.62548  20804598.0494   20804599.8324   20804597.968
        54.0004         49.0004
  -9246113.19747  -7195958.36446  24029183.9524   24029184.6684   24029184.864
        44.0004         40.0004
 -23302565.30749 -18067990.67548  20426416.7534   20426421.6084   20426416.796
        56.0004         51.0004
  -2205745.79947  -1706695.90946  24388350.5874   24388353.8674   24388349.467
        45.0004         40.0004
 -22643249.67649 -17579397.25048  20497412.7554   20497415.3624   20497413.151
        55.0004         50.0004
 -23832176.47149 -18493330.22048  20376377.8674   20376380.9864   20376378.261
        55.0004         50.0004
 -11298466.47248  -8743253.36847  22148077.8204   22148079.4994   22148076.940
        50.0004         46.0004
   1040622.58147    873077.86246  24929544.7134   24929547.9564   24929546.108
        42.0004         38.0004
  -8176826.72047  -6308934.46146  22934397.8454   22934399.5394   22934397.272
        46.0004         41.0004
 -16199501.22048 -12549805.53847  21773795.1264   21773799.8644   21773794.937
        51.0004         47.0004
 15  5  1  2  7 30.0000000  0 10G11G23G01G17G04G32G31G19G14G03
 -19068306.94449 -14800135.01848  20813003.7194   20813004.8494   20813003.995
        54.0004         49.0004
  -9344067.09547  -7272286.00946  24010544.4884   24010546.7554   24010542.778
        44.0004         39.0004
 -23320488.33149 -18081956.66748  20423006.1374   20423010.8444   20423005.952
        56.0004         51.0004
  -2260628.98547  -1749462.02946  24377905.3544   24377909.7564   24377904.879
        45.0004         40.0004
 -22595110.73349 -17541886.39848  20506573.4304   20506576.0734   20506573.396
        55.0004         50.0004
 -23818296.88149 -18482514.95948  20379019.3654   20379022.4454   20379019.808
        55.0004         50.0004
 -11354130.86748  -8786628.19147  22137485.0284   22137486.6284   22137485.366
        50.0004         46.0004
   1148493.64147    957133.21246  24950071.4564   24950075.2894   24950073.997
        43.0004         38.0004
  -8090325.55347  -6241531.00046  22950857.5724   22950859.8884   22950858.640
        46.0004         41.0004
 -16265365.50048 -12601128.34547  21761262.1854   21761266.0314   21761262.026
        51.0004         47.0004
 15  5  1  2  8  0.0000000  0 10G11G23G01G17G04G32G31G19G14G03
 -19023578.39049 -14765281.61848  20821515.0594   20821516.4724   20821515.381
        54.0004         49.0004
  -9441864.77147  -7348491.93646  23991933.4054   23991934.5464   23991936.174
        44.0004         39.0004
 -23337891.52149 -18095517.59948  20419694.2324   20419699.0914   20419693.892
        56.0004         51.0004
  -2315039.06247  -1791859.50546  24367552.3314   24367555.4854   24367551.998
        45.0004         40.0004
 -22546468.69649 -17503983.52148  20515829.6094   20515832.2814   20515829.202
        55.0004         50.0004
 -23804106.09249 -18471457.20448  20381719.5984   20381722.7724   20381720.355
        55.0004         50.0004
 -11409295.85248  -8829613.88347  22126987.0044   22126988.4344   22126987.058
        50.0004         46.0004
   1256334.39347   1041164.94346  24970590.7604   24970595.7284   24970593.459
        43.0004         38.0004
  -8003608.70447  -6173959.49546  22967359.8054   22967361.6164   22967360.869
        46.0004         41.0004
 -16331041.52848 -12652304.45047  21748764.5374   21748769.0994   21748763.868
        52.0004         47.0004
 15  5  1  2  8 30.0000000  0 10G11G23G01G17G04G32G31G19G14G03
 -18978296.96249 -14729997.39248  20830131.9464   20830133.2414   20830132.183
        54.0004         49.0004
  -9539508.86947  -7424578.16846  23973353.5754   23973356.1884   23973353.783
        44.0004         40.0004
 -23354777.30749 -18108675.35848  20416480.9184   20416485.3904   20416480.903
        56.0004         51.0004
  -2368977.96147  -1833889.79146  24357288.1354   24357290.3174   24357288.128
        45.0004         41.0004
 -22497327.80549 -17465691.93048  20525181.2064   20525183.4714   20525180.811
        55.0004         50.0004
 -23789608.16649 -18460160.12148  20384478.5654   20384481.7314   20384479.242
        55.0004         50.0004
 -11463962.65148  -8872211.37447  22116583.5354   22116586.8334   22116584.232
        51.0004         46.0004
   1364138.57947   1125168.19546  24991105.1654   24991109.8644   24991105.944
        43.0004         38.0004
  -7916682.06047  -6106224.49447  22983901.5474   22983904.2734   22983902.070
        46.0004         42.0004
 -16396532.21848 -12703336.13347  21736302.0534   21736306.1964   21736301.962
        52.0004         47.0004
 15  5  1  2  9  0.0000000  0 10G11G23G01G17G04G32G31G19G14G03
 -18932459.41649 -14694279.83548  20838853.7234   20838856.1634   20838854.192
        54.0004         49.0004
  -9636993.63347  -7500540.23946  23954803.9124   23954805.4734   23954802.681
        44.0004         40.0004
 -23371140.09049 -18121425.57948  20413367.5944   20413371.9034   20413367.101
        56.0004         51.0004
  -2422439.37647  -1875548.04246  24347115.4894   24347117.0154   24347115.223
        45.0004         41.0004
 -22447684.75349 -17427009.04348  20534627.5174   20534630.3334   20534627.366
        55.0004         50.0004
 -23774799.15849 -18448620.64148  20387296.5954   20387299.6874   20387296.782
        55.0004         50.0004
 -11518124.52248  -8914415.42847  22106276.9654   22106279.8594   22106276.004
        50.0004         45.0004
   1471907.79647   1209144.17546  25011613.3764   25011617.7554   25011614.038
        43.0004         38.0004
  -7829543.20247  -6038324.15947  23000482.2214   23000485.9824   23000483.170
        46.0004         42.0004
 -16461832.46448 -12754219.43247  21723875.2704   21723880.5034   21723874.868
        52.0004         47.0004
 15  5  1  2  9 30.0000000  0 10G11G23G01G17G04G32G31G19G14G03
 -18886068.94249 -14658131.42248  20847682.4644   20847683.6944   20847682.698
        54.0004         49.0004
  -9734319.06247  -7576378.15946  23936282.1994   23936285.1384   23936284.237
        45.0004         40.0004
 -23386980.26849 -18133768.57148  20410353.1184   20410357.6214   20410352.890
        56.0004         51.0004
  -2475423.39947  -1916834.30046  24337031.9834   24337033.8084   24337033.405
        45.0004         40.0004
 -22397542.03149 -17387936.80648  20544169.6274   20544172.2464   20544169.822
        55.0004         50.0004
 -23759680.97249 -18436840.23748  20390173.5064   20390176.5544   20390174.336
        55.0004         50.0004
 -11571780.46248  -8956225.25647  22096067.5394   22096069.5554   22096067.269
        50.0004         46.0004
   1579637.97847   1293089.74746  25032113.1734   25032117.1714   25032112.687
        43.0004         38.0004
  -7742196.09947  -5970261.52646  23017104.7894   23017106.9204   23017104.799
        46.0004         41.0004
 -16526943.15548 -12804955.01347  21711484.9294   21711490.6024   21711485.282
        52.0004         47.0004
 15  5  1  2 10  0.0000000  0 10G11G23G01G17G04G32G31G19G14G03
 -18839129.09149 -14621554.92548  20856614.8274   20856616.2294   20856615.413
        54.0004         49.0004
  -9831485.73847  -7652092.39246  23917791.9164   23917793.0364   23917790.709
        44.0004         40.0004
 -23402298.66049 -18145704.98448  20407438.3914   20407442.6694   20407438.272
        56.0004         51.0004
  -2527929.98747  -1957748.55046  24327040.0934   24327042.8364   24327041.330
        44.0004         39.0004
 -22346902.60049 -17348477.51848  20553805.9614   20553808.1064   20553806.001
        55.0004         50.0004
 -23744256.02149 -18424820.80048  20393108.8184   20393111.7274   20393109.334
        55.0004         50.0004
 -11624930.22548  -8997640.64347  22085952.6994   22085954.3154   22085952.078
        50.0004         45.0004
   1687324.80947   1377001.57846  25052605.6844   25052608.5554   25052606.378
        43.0004         38.0004
  -7654644.65847  -5902039.67546  23033765.3294   23033767.2884   23033765.382
        46.0004         41.0004
 -16591865.58148 -12855543.89547  21699131.4214   21699135.5724   21699130.969
        52.0004         47.0004
 15  5  1  2 10 30.0000000  0 10G11G23G01G17G04G32G31G19G14G03
 -18791640.44849 -14584550.80348  20865651.3554   20865652.7864   20865652.020
        54.0004         49.0004
  -9928491.56347  -7727681.28146  23899333.7584   23899333.0864   23899333.564
        45.0004         40.0004
 -23417093.73249 -18157233.61248  20404622.5844   20404627.5054   20404622.294
        56.0004         51.0004
  -2579957.14447  -1998289.23146  24317140.3284   24317142.3714   24317140.014
        44.0004         39.0004
 -22295767.11649 -17308631.69248  20563536.5824   20563539.2564   20563536.617
        55.0004         50.0004
 -23728524.29449 -18412562.31348  20396102.5484   20396105.3714   20396102.951
        55.0004         50.0004
 -11677570.95048  -9038659.38247  22075936.0344   22075936.3734   22075935.414
        50.0004         46.0004
   1794966.21747   1460877.98246  25073090.4174   25073093.0414   25073089.782
        43.0004         38.0004
  -7566890.64747  -5833659.99146  23050464.6454   23050465.4374   23050465.567
        46.0004         41.0004
 -16656598.59148 -12905985.17747  21686812.9774   21686817.2624   21686813.111
        52.0004         47.0004
 15  5  1  2 11  0.0000000  0 10G11G23G01G17G04G32G31G19G14G03
 -18743601.89848 -14547118.17048  20874792.3014   20874794.5924   20874792.203
        53.0004         49.0004
 -10025332.74147  -7803141.86446  23880905.2974   23880906.6944   23880905.869
        45.0004         40.0004
 -23431361.37549 -18168351.25648  20401907.3674   20401912.6784   20401907.155
        56.0004         51.0004
  -2631500.40747  -2038452.79946  24307332.3854   24307334.9554   24307331.855
        44.0004         40.0004
 -22244133.57549 -17268397.77848  20573362.6674   20573364.7874   20573362.580
        55.0004         50.0004
 -23712483.33649 -18400062.87848  20399155.3774   20399158.1784   20399156.166
        55.0004         50.0004
 -11729697.63748  -9079277.56447  22066017.2984   22066018.5344   22066017.590
        50.0004         46.0004
   1902562.13447   1544718.95346  25093565.6864   25093567.8214   25093566.380
        43.0004         38.0004
  -7478933.29347  -5765121.85146  23067202.2154   23067205.7744   23067203.610
        46.0004         41.0004
 -16721138.56048 -12956276.04747  21674531.3474   21674535.6844   21674530.246
        52.0004         47.0004
 15  5  1  2 11 30.0000000  0 10G11G23G01G17G04G32G31G19G14G03
 -18695019.28748 -14509261.60348  20884037.6984   20884039.4194   20884037.804
        53.0004         49.0004
 -10122012.39947  -7878476.59246  23862506.4324   23862507.9274   23862506.427
        45.0004         40.0004
 -23445104.91349 -18179060.51148  20399292.4114   20399296.9964   20399292.837
        56.0004         51.0004
  -2682562.42447  -2078241.39746  24297614.4524   24297617.7454   24297614.697
        44.0004         40.0004
 -22192007.43749 -17227780.02648  20583281.3394   20583284.2034   20583281.004
        55.0004         50.0004
 -23696137.76249 -18387326.06848  20402265.4934   20402268.1794   20402265.901
        55.0004         50.0004
 -11781311.89248  -9119496.45547  22056194.7334   22056196.7804   22056193.937
        50.0004         46.0004
   2010105.75947   1628519.17546  25114029.8444   25114032.9544   25114033.875
        43.0004         38.0004
  -7390779.02247  -5696430.27746  23083977.6764   23083979.6024   23083978.984
        46.0004         41.0004
 -16785489.13948 -13006419.34447  21662285.3354   21662290.0284   21662284.669
        52.0004         47.0004
 15  5  1  2 12  0.0000000  0 10G11G23G01G17G04G32G31G19G14G03
 -18645891.13048 -14470979.93148  20893386.7254   20893388.1104   20893387.485
        53.0004         49.0004
 -10218525.62547  -7953681.63946  23844140.1084   23844142.2554   23844141.625
        45.0004         40.0004
 -23458320.00249 -18189357.98948  20396777.4764   20396781.7844   20396777.547
        56.0004         51.0004
  -2733138.38247  -2117651.24346  24287989.7924   24287992.5794   24287993.075
        44.0004         40.0004
 -22139386.49449 -17186776.70748  20593294.8684   20593297.4814   20593295.121
        55.0004         50.0004
 -23679484.96549 -18374349.87848  20405434.7854   20405437.4654   20405435.642
        55.0004         50.0004
 -11832408.39048  -9159311.91347  22046471.4404   22046472.6294   22046471.117
        51.0004         46.0004
   2117597.70147   1712279.10346  25134484.5934   25134488.4314   25134488.168
        42.0004         38.0004
  -7302426.63547  -5627584.30746  23100790.7824   23100793.2774   23100791.385
        46.0004         41.0004
 -16849646.43248 -13056412.02647  21650077.2434   21650080.8324   21650076.873
        52.0004         47.0004
 15  5  1  2 12 30.0000000  0 10G11G23G01G17G04G32G31G19G14G03
 -18596219.40148 -14432274.70448  20902839.2394   20902839.9224   20902839.339
        53.0004         49.0004
 -10314871.84847  -8028756.52446  23825806.8404   23825808.5424   23825808.638
        45.0004         41.0004
 -23471006.13849 -18199243.29348  20394363.1034   20394368.2634   20394362.914
        56.0004         51.0004
  -2783227.22447  -2156681.52246  24278458.8344   24278462.0814   24278459.437
        44.0004         40.0004
 -22086272.31649 -17145389.04548  20603402.3174   20603404.7474   20603402.424
        55.0004         50.0004
 -23662525.67649 -18361134.85448  20408661.2734   20408664.9004   20408662.171
        55.0004         50.0004
 -11882985.59848  -9198722.70747  22036847.2744   22036848.4634   22036847.631
        51.0004         46.0004
   2225034.97047   1795996.42846  25154928.9564   25154931.6824   25154930.166
        42.0004         37.0004
  -7213878.87547  -5558586.10246  23117640.4914   23117643.4364   23117641.462
        46.0004         41.0004
 -16913610.25848 -13106253.94147  21637905.0564   21637909.2954   21637905.194
        52.0004         47.0004
 15  5  1  2 13  0.0000000  0 10G11G23G01G17G04G32G31G19G14G03
 -18545995.48348 -14393139.19848  20912395.6854   20912397.8884   20912395.921
        53.0004         49.0004
 -10411038.73847  -8103691.69546  23807507.6824   23807508.5974   23807509.322
        46.0004         41.0004
 -23483151.87549 -18208707.51448  20392051.7794   20392056.9764   20392051.403
        56.0004         51.0004
  -2832816.87547  -2195322.81546  24269022.9354   24269025.6224   24269023.637
        44.0004         39.0004
 -22032655.60849 -17103609.80948  20613605.4474   20613607.7804   20613605.188
        55.0004         50.0004
 -23645250.08249 -18347673.36048  20411948.9804   20411952.1794   20411949.961
        55.0004         50.0004
 -11933030.54148  -9237718.77447  22027323.2084   22027325.1044   22027323.766
        51.0004         46.0004
   2332425.52347   1879677.35646  25175365.8664   25175368.5694   25175367.291
        42.0004         38.0004
  -7125127.50347  -5489429.27146  23134530.7344   23134532.4974   23134530.444
        46.0004         41.0004
 -16977369.49848 -13155936.44047  21625772.7774   21625776.3244   21625771.396
        52.0004         47.0004
 15  5  1  2 13 30.0000000  0 10G11G23G01G17G04G32G31G19G14G03
 -18495243.67948 -14353592.34548  20922053.9114   20922055.8064   20922054.476
        53.0004         49.0004
 -10507047.87247  -8178503.95046  23789237.1654   23789237.1734   23789237.373
        46.0004         41.0004
 -23494778.94349 -18217767.56848  20389840.1014   20389844.6464   20389840.168
        56.0004         51.0004
  -2881928.61947  -2233591.69446  24259676.6054   24259679.0164   24259676.800
        44.0004         39.0004
 -21978560.27649 -17061457.61348  20623899.2214   20623901.6464   20623899.437
        55.0004         50.0004
 -23627681.32649 -18333983.42148  20415292.3404   20415295.4384   20415293.040
        55.0004         50.0004
 -11982563.89548  -9276316.20447  22017897.6914   22017899.4614   22017897.260
        50.0004         46.0004
   2439743.71947   1963301.94546  25195786.3014   25195789.8424   25195787.950
        42.0004         38.0004
  -7036197.39147  -5420133.12946  23151451.2564   23151455.7324   23151453.862
        46.0004         41.0004
 -17040946.24848 -13205476.75347  21613673.7684   21613678.1774   21613673.140
        52.0004         47.0004
 15  5  1  2 14  0.0000000  0 10G11G23G01G17G04G32G31G19G14G03
 -18443952.29848 -14313625.05248  20931814.2794   20931815.9494   20931814.889
        53.0004         49.0004
 -10602885.20147  -8253182.33146  23770999.9534   23770999.2924   23771000.191
        46.0004         41.0004
 -23505873.24749 -18226412.49048  20387728.7464   20387733.1374   20387728.632
        56.0004         51.0004
  -2930547.67347  -2271476.67046  24250425.1314   24250426.2674   24250424.635
        44.0004         39.0004
 -21923974.21249 -17018923.02848  20634287.1034   20634288.8084   20634286.903
        55.0004         50.0004
 -23609806.72149 -18320055.16748  20418693.5974   20418696.9674   20418694.363
        55.0004         50.0004
 -12031570.37748  -9314503.05247  22008572.5764   22008573.2514   22008572.641
        51.0004         46.0004
   2547000.36747   2046878.56246  25216198.4744   25216201.0694   25216198.314
        42.0004         38.0004
  -6947077.41447  -5350689.04246  23168411.0024   23168413.6524   23168412.368
        45.0004         40.0004
 -17104326.66548 -13254864.07547  21601612.9414   21601617.7084   21601612.024
        52.0004         47.0004
